id_entrance;name;id_station;direction;lat;lon;max_width;min_step;min_step_ramp;lift;lift_minus_step;min_rail_width;max_rail_width;max_angle
14800;К трамваям в центр;82;in;55.7516306;37.7162886;740;43;15;0;0;280;680;15
14801;К трамваям в центр;82;out;55.7516306;37.7162886;740;43;10;0;0;320;680;27
14810;К трамваям в область;82;in;55.7515293;37.7163578;740;41;41;0;0;0;0;0
14811;К трамваям в область;82;out;55.7515293;37.7163578;740;41;36;0;0;320;910;27
14820;Западная сторона Авиамоторной улицы;82;in;55.7519587988;37.7167891091;740;49;49;0;0;0;0;0
14821;Западная сторона Авиамоторной улицы;82;out;55.7519587988;37.7167891091;740;49;44;0;0;320;910;27
14830;Южная сторона шоссе Энтузиастов;82;in;55.7512042;37.7165431;740;41;15;0;0;280;680;15
14831;Южная сторона шоссе Энтузиастов;82;out;55.7512042;37.7165431;740;41;10;0;0;320;680;27
14840;На север, к рынку;82;in;55.7522830788;37.717153178;740;50;50;0;0;0;0;0
14841;На север, к рынку;82;out;55.7522830788;37.717153178;740;50;45;0;0;320;910;27
14850;Путепровод;82;in;55.7519110521;37.7175590253;740;50;50;0;0;0;0;0
14851;Путепровод;82;out;55.7519110521;37.7175590253;740;50;45;0;0;320;910;27
14860;Авиамоторная улица на юг, восточная сторона;82;in;55.7509103;37.7178209;740;41;15;0;0;280;680;15
14861;Авиамоторная улица на юг, восточная сторона;82;out;55.7509103;37.7178209;740;41;10;0;0;320;680;27
14870;К платформе Новая;82;in;55.7510902;37.7179455;740;42;15;0;0;280;680;15
14871;К платформе Новая;82;out;55.7510902;37.7179455;740;42;10;0;0;320;680;27
14880;Авиамоторная улица на юг, западная сторона;82;in;55.7508406;37.7175337;740;44;44;0;0;0;0;0
14881;Авиамоторная улица на юг, западная сторона;82;out;55.7508406;37.7175337;740;44;39;0;0;320;910;27
14890;В сторону области;29;both;55.7063848977;37.6571586945;720;1;1;0;0;0;0;0
14900;В сторону центра, из стеклянных дверей налево. К торговым центрам.;29;both;55.70865724;37.65732061;720;36;5;0;0;330;820;20
14910;В сторону центра, из стеклянных дверей направо. К Автозаводской улице.;29;both;55.7084058706;37.6582850423;720;35;3;0;0;310;800;20
14920;ул. Дмитрия Ульянова;101;out;55.6871860715;37.5723893715;740;31;31;0;0;0;0;0
14921;Профсоюзная улица;101;out;55.6869882565;37.5721915565;740;34;34;0;0;0;0;0
14922;ул. Дмитрия Ульянова;101;in;55.6871860715;37.5723893715;740;58;58;0;0;0;0;0
14923;Профсоюзная улица;101;in;55.6869882565;37.5721915565;740;61;61;0;0;0;0;0
14930;ул. Дмитрия Ульянова;101;out;55.6869715981;37.5730589672;740;31;31;0;0;0;0;0
14931;Профсоюзная улица;101;out;55.6867753562;37.5728476298;740;34;34;0;0;0;0;0
14932;ул. Дмитрия Ульянова;101;in;55.6869715981;37.5730589672;740;58;58;0;0;0;0;0
14933;Профсоюзная улица;101;in;55.6867753562;37.5728476298;740;61;61;0;0;0;0;0
14940;проспект 60-летия Октября;101;both;55.6888019309;37.5741496191;780;48;23;0;0;290;760;22
14941;ул. Дмитрия Ульянова;101;both;55.6886170107;37.5739307339;780;51;51;0;0;0;0;0
14950;проспект 60-летия Октября;101;both;55.6886132368;37.574855335;780;47;47;0;0;0;0;0
14951;площадь Хо Ши Мина;101;both;55.6883339695;37.5745458767;780;51;23;0;0;290;760;24
14960;ул. Воздвиженка, Моховая, РГБ;54;in;55.7522714905;37.6101026316;730;70;39;0;0;310;860;20
14961;ул. Воздвиженка, Моховая, РГБ;54;out;55.7522714905;37.6101026316;730;77;43;0;0;310;860;20
14962;ул. Воздвиженка, Моховая, РГБ;44;in;55.7522714905;37.6101026316;730;47;16;0;0;310;860;20
14963;ул. Воздвиженка, Моховая, РГБ;44;out;55.7522714905;37.6101026316;730;61;30;0;0;310;860;20
14964;ул. Воздвиженка, Моховая, РГБ;11;in;55.7522714905;37.6101026316;730;80;42;0;0;310;860;20
14965;ул. Воздвиженка, Моховая, РГБ;11;out;55.7522714905;37.6101026316;730;86;48;0;0;310;860;20
14970;ул. Воздвиженка, Моховая, РГБ;54;in;55.7519823491;37.6102607558;730;61;61;0;0;0;0;0
14971;ул. Воздвиженка, Моховая, РГБ;54;out;55.7519823491;37.6102607558;730;70;70;0;0;0;0;0
14972;ул. Воздвиженка, Моховая, РГБ;44;in;55.7519823491;37.6102607558;730;41;41;0;0;0;0;0
14973;ул. Воздвиженка, Моховая, РГБ;44;out;55.7519823491;37.6102607558;730;55;55;0;0;0;0;0
14974;ул. Воздвиженка, Моховая, РГБ;11;in;55.7519823491;37.6102607558;730;67;67;0;0;0;0;0
14975;ул. Воздвиженка, Моховая, РГБ;11;out;55.7519823491;37.6102607558;730;81;81;0;0;0;0;0
14976;ул. Моховая;11;both;55.7504768240987;37.6091400800502;730;69;69;0;0;0;0;0
14977;ул. Моховая;140;both;55.7504768240987;37.6091400800502;730;63;63;0;0;0;0;0
14980;Александровский сад;54;in;55.7518946194;37.612542833;730;67;31;0;0;310;875;20
14981;Александровский сад;54;out;55.7518946194;37.612542833;730;81;54;0;0;310;875;20
14982;Александровский сад;44;in;55.7518946194;37.612542833;730;47;16;0;0;310;875;20
14983;Александровский сад;44;out;55.7518946194;37.612542833;730;61;30;0;0;310;875;20
14984;Александровский сад;11;in;55.7518946194;37.612542833;730;73;41;0;0;310;875;20
14985;Александровский сад;11;out;55.7518946194;37.612542833;730;87;55;0;0;310;875;20
14990;На проспект Мира;91;both;55.8079366147;37.6385240573;800;0;0;0;0;0;0;0
15000;Южный;225;both;55.6321826509;37.7671080498;800;71;30;2;71;0;0;2
15010;Северный;225;both;55.633708429394;37.7652156136226;800;3;0;0;0;0;0;6
15011;Северный;225;both;55.6337779005953;37.7654835906599;800;3;0;0;0;0;0;6
15020;К области, Череповецкая улица на запад;129;both;55.8987623686;37.586449957;740;64;34;0;0;300;770;22
15022;К области, Алтуфьевское шоссе западная сторона;129;both;55.8990187512;37.5864249441;900;30;0;0;0;300;770;22
15030;К центру, Череповецкая улица на запад;129;both;55.8970739956;37.5865906547;740;61;36;0;0;300;780;22
15032;К центру, Алтуфьевское шоссе западная сторна;129;both;55.8966393959;37.5865687684;740;56;1;0;0;400;780;22
15040;К центру, улица Лескова;129;both;55.8970614891;37.5878162885;740;63;0;0;0;420;780;22
15042;К центру, Алтуфьевское шоссе восточная сторна;129;both;55.8966143829;37.5878100353;740;62;37;0;0;300;780;22
15050;К области, улица Лескова;129;both;55.8987436089;37.5878413014;740;67;37;0;0;300;770;22
15052;К области, Алтуфьевское шоссе восточная сторона;129;both;55.8992313611;37.5878569345;740;71;1;0;0;390;770;22
15060;К центру на север;163;both;55.58378375;37.59656057;800;40;0;0;0;410;890;20
15062;К центру, к пешеходному переходу на восток;163;both;55.5834835962;37.5971640043;800;35;0;0;0;410;870;20
15070;К области, к перехватывающей парковке, ГАИ;163;both;55.5814559495;37.5961940092;800;66;0;0;0;370;950;25
15080;улица Воздвиженка, Генштаб;44;both;55.7524138022;37.6033981675;735;0;0;0;0;0;0;0
15090;кинотеатр Художественный;55;both;55.7521439397;37.6017436358;550;65;65;0;0;0;0;0
15100;В сторону области, у турникетов налево, из стеклянных дверей налево. На юг, к финансовой академии.;37;out;55.8004353056;37.5306640955;720;49;21;0;0;300;620;20
15101;В сторону области, у турникетов налево, из стеклянных дверей налево. На юг, к финансовой академии.;37;in;55.8004353056;37.5306640955;720;70;42;0;0;300;620;20
15110;В сторону области, у турникетов налево, из стеклянных дверей направо. К торговому центру, ул. Черняховского.;37;out;55.8013473014;37.5318384463;720;52;21;0;0;300;620;20
15111;В сторону области, у турникетов налево, из стеклянных дверей направо. К торговому центру, ул. Черняховского.;37;in;55.8013473014;37.5318384463;720;73;42;0;0;300;620;20
15120;В сторону центра;37;both;55.7999949241;37.5343901605;720;58;58;0;0;0;0;0
15130;В сторону области, у турникетов направо. Выход в жилое здание.;37;both;55.8009787552;37.5321132943;720;58;58;0;0;0;0;0
15140;К центру, на запад;87;both;55.8687860517;37.6634401742;800;36;0;0;0;440;760;35
15142;К центру, на юго-запад, и на трамвай;87;both;55.8684046045;37.663246324;800;36;36;0;0;0;0;0
15150;К области, на северо-запад;87;out;55.8707245541;37.6644094254;800;61;34;0;0;310;770;40
15151;К области, на северо-запад;87;in;55.8707245541;37.6644094254;560;61;34;0;0;310;770;40
15152;К области, на автобусы по улице Менжинского на запад;87;out;55.870374373;37.6642155752;800;57;30;0;0;310;770;40
15153;К области, на автобусы по улице Менжинского на запад;87;in;55.870374373;37.6642155752;560;57;30;0;0;310;770;40
15160;К области, Енисейская улица, на северо-запад;87;out;55.8706119959;37.6652911313;800;64;40;0;0;310;770;40
15161;К области, Енисейская улица, на северо-запад;87;in;55.8706119959;37.6652911313;560;64;40;0;0;310;770;40
15162;К области, улица Менжинского на восток;87;out;55.8702368019;37.6651035343;800;72;0;0;0;350;800;40
15163;К области, улица Менжинского на восток;87;in;55.8702368019;37.6651035343;560;72;0;0;0;350;800;40
15170;ул. Барклая (запад);61;in;55.7436635459;37.4974001378;550;28;28;0;0;0;0;0
15171;ул. Барклая (запад);61;out;55.7436105773;37.4974464853;560;28;28;0;0;0;0;0
15180;ул. Барклая (восток);61;in;55.7438312796;37.4982101153;550;28;28;0;0;0;0;0
15181;ул. Барклая (восток);61;out;55.7438732131;37.4981659749;560;28;28;0;0;0;0;0
15190;Выход на ул. Баррикадная;120;out;55.7607458833;37.5815686799;730;0;0;0;0;0;0;0
15191;Вход с ул. Баррикадная;120;in;55.7606388237;37.5812906368;730;0;0;0;0;0;0;0
15200;Выход на Бауманскую улицу;47;out;55.7723959516;37.6792845414;720;0;0;0;0;0;0;0
15201;Вход с Бауманской улицы;47;in;55.7723815089;37.6788450718;560;0;0;0;0;0;0;0
15210;К области, на южную сторону Хорошёвского шоссе;122;out;55.7733625391;37.5444708477;810;31;1;0;0;300;840;24
15211;К области, на южную сторону Хорошёвского шоссе;122;in;55.7733625391;37.5444708477;810;78;48;0;0;300;840;24
15220;К области, на северную сторону Хорошёвского шоссе;122;out;55.7739818026;37.5445253398;810;36;1;0;0;310;810;22
15221;К области, на северную сторону Хорошёвского шоссе;122;in;55.7739818026;37.5445253398;810;83;48;0;0;310;810;22
15230;К пригородным поездам в область;122;out;55.7732627443;37.5490669016;740;40;40;0;0;0;0;0
15231;К пригородным поездам в область;122;in;55.7732627443;37.5490669016;740;73;73;0;0;0;0;0
15232;Высадка с пригородных поездов из области;122;out;55.7729483569;37.5489786447;740;55;55;0;0;0;0;0
15233;Высадка с пригородных поездов из области;122;in;55.7729483569;37.5489786447;740;88;88;0;0;0;0;0
15234;Высадка с пригородных поездов из области;122;out;55.7732407711;37.5483637603;740;2;2;0;0;0;0;5
15235;Высадка с пригородных поездов из области;122;in;55.7732407711;37.5483637603;740;35;35;0;0;0;0;5
15240;К центру, на Беговую улицу;122;out;55.7743579378;37.5492757884;740;48;37;0;0;0;0;4
15241;К центру, на Беговую улицу;122;in;55.7743579378;37.5492757884;740;81;70;0;0;0;0;4
15250;На Грузинский Вал;67;in;55.7754196298;37.5827102001;720;2;2;0;0;0;0;0
15251;На Грузинский Вал;67;out;55.775302476;37.5828010458;800;0;0;0;0;0;0;0
15260;Вход в здании вокзала;35;in;55.7772410298;37.5821803383;720;0;0;0;0;0;0;0
15261;Выход в здании вокзала;35;out;55.7774904851;37.5822168634;720;0;0;0;0;0;0;0
15262;Вход с путепровода.;35;in;55.777539077;37.5821223847;720;40;40;0;0;0;0;0
15270;По лестнице, на эскалатор, из стеклянных дверей налево, потом налево. К церкви;67;both;55.7774314489;37.5857155101;550;68;30;0;0;320;770;20
15271;По лестнице, на эскалатор, из стеклянных дверей налево, потом налево. К бизнес-центру;67;both;55.7776549843;37.5862453719;550;73;63;0;0;320;970;20
15280;НИИ вычислительных комплексов им.М.А.Карцева;105;in;55.6418457923;37.5254266438;550;56;24;0;0;300;770;12
15281;НИИ вычислительных комплексов им.М.А.Карцева;105;out;55.6418457923;37.5254266438;750;56;24;0;0;0;0;0
15282;НИИ вычислительных комплексов им.М.А.Карцева;105;in;55.6415752669;37.525248343;550;50;50;0;0;0;0;0
15283;НИИ вычислительных комплексов им.М.А.Карцева;105;out;55.6415752669;37.525248343;750;50;50;0;0;0;0;0
15290;АШАН Сити;105;in;55.6417228262;37.5260783641;550;58;24;0;0;310;780;20
15291;АШАН Сити;105;out;55.6417228262;37.5260783641;750;58;24;0;0;310;780;20
15292;АШАН Сити;105;in;55.6414338559;37.5258877667;550;52;52;0;0;0;0;0
15293;АШАН Сити;105;out;55.6414338559;37.5258877667;750;52;52;0;0;0;0;0
15300;ул.Профсоюзная (дублер);105;both;55.6437855825;37.5267977158;550;37;37;0;0;0;0;0
15301;ул.Профсоюзная (дублер);105;both;55.6434904638;37.5266071183;550;28;0;0;0;300;780;17
15310;ул.Генерала Антонова;105;both;55.6436687647;37.5274555844;550;31;31;0;0;0;0;0
15311;ул.Генерала Антонова;105;both;55.6433982393;37.5272496161;550;32;0;0;0;310;780;20
15320;К центру, улица Пришвина, Биберевская на север;130;out;55.8840584012;37.6046887952;720;39;34;0;0;500;1000;17
15321;К центру, улица Пришвина, Биберевская на север;130;in;55.8840584012;37.6046887952;720;76;71;0;0;500;1000;17
15322;К центру, Биберевская улица северная сторона, у торгцентра;130;out;55.8838301582;37.6041541437;720;37;1;0;0;500;960;17
15323;К центру, Биберевская улица северная сторона, у торгцентра;130;in;55.8838301582;37.6041541437;720;74;38;0;0;500;960;17
15330;К области, на север;130;both;55.8844367218;37.6013089225;730;49;27;0;0;300;740;24
15332;К области, на автобусную конечную;130;both;55.884199099;37.6016778633;730;50;0;0;0;350;740;24
15340;К центру, Биберевская улица южная сторона;130;out;55.8835956619;37.6054360566;720;43;38;0;0;500;1000;17
15341;К центру, Биберевская улица южная сторона;130;in;55.8835956619;37.6054360566;720;80;75;0;0;500;1000;17
15342;К центру, Биберевская улица на запад;130;out;55.8833705455;37.6048982785;720;38;0;0;0;500;870;20
15343;К центру, Биберевская улица на запад;130;in;55.8833705455;37.6048982785;720;75;37;0;0;500;870;20
15350;улица Воздвиженка;54;both;55.7522963385;37.6088986291;735;49;49;0;0;0;0;0
15351;улица Воздвиженка;44;both;55.7522963385;37.6088986291;735;70;70;0;0;0;0;0
15352;улица Воздвиженка;11;both;55.7522963385;37.6088986291;735;96;96;0;0;0;0;0
15360;улица Воздвиженка, улица Моховая;54;in;55.7525636367;37.6108145705;730;61;20;0;0;430;710;23
15361;улица Воздвиженка, улица Моховая;54;out;55.7525636367;37.6108145705;730;70;29;0;0;430;710;23
15362;улица Воздвиженка, улица Моховая;44;in;55.7525636367;37.6108145705;730;41;16;0;0;430;710;23
15363;улица Воздвиженка, улица Моховая;44;out;55.7525636367;37.6108145705;730;49;24;0;0;430;710;23
15364;улица Воздвиженка, улица Моховая;11;in;55.7525636367;37.6108145705;730;67;42;0;0;430;710;23
15365;улица Воздвиженка, улица Моховая;11;out;55.7525636367;37.6108145705;730;73;48;0;0;430;710;23
15370;Братеевский проезд;220;both;55.6322978835;37.7435165293;725;38;0;0;0;355;900;21
15380;Центр образования №1998;220;both;55.6341131889;37.744575886;780;38;0;2;38;0;0;0
15400;К области, на автобусы на Снежную улицу;89;both;55.8459218829;37.6384264754;800;57;25;0;0;370;830;20
15410;К области, на автобусы в Отрадное;89;both;55.8466222451;37.638789163;800;58;58;0;0;0;0;0
15412;К области, на Снежную улицу;89;both;55.8466410048;37.6393582072;800;54;25;0;0;370;830;20
15420;К центру;89;out;55.8438143055;37.6375336914;830;0;0;0;0;0;0;0
15421;К центру;89;in;55.8438143055;37.6375336914;800;0;0;0;0;0;0;0
15440;К области, на южную сторону улицы Перерва;158;both;55.6586660023;37.7489336659;740;58;26;0;0;410;860;18
15450;К области, на северную сторону улицы Перерва, к Ашану;158;both;55.6592834565;37.749752625;740;62;62;0;0;0;0;0
15460;К области, на Мячковский бульвар;158;both;55.6590283463;37.7499451169;740;63;26;0;0;410;860;20
15470;К центру, на автобусную остановку к востоку;158;both;55.6598671002;37.7520871998;740;64;26;0;0;410;860;20
15480;К центру, на круг Братиславской улицы;158;both;55.6601520573;37.752761619;740;64;64;0;0;0;0;0
15490;К центру, к  торговому центру;158;both;55.6600217408;37.7517529765;740;60;26;0;0;410;860;20
15500;На улицу Адмирала Лазарева, Южнобутовскую улицу;193;both;55.5450344982;37.5415677647;800;0;0;1;0;0;0;0
15510;К центру, на восток, к продуктовому;164;both;55.5702548144;37.576433133;710;63;63;0;0;0;0;0
15512;К центру, Знаменские Садки;164;both;55.5706487663;37.5767270337;710;62;24;0;0;430;900;20
15520;К центру, на запад, к ТЦ Круг;164;both;55.5699546605;37.5779213958;710;70;24;0;0;410;900;20
15522;К центру, на Старокачаловскую улицу;164;both;55.5703235996;37.5782090433;710;70;70;0;0;0;0;0
15524;К центру, автобусы на Подольск;164;both;55.5700859778;37.5771397452;710;62;24;0;0;410;900;20
15540;К области, на южную сторону Чонгарского б-ра, Артековскую улицу;27;out;55.6530417319;37.6180533197;540;29;0;0;0;320;830;22
15541;С южной стороны Чонгарского бульвара;27;in;55.6530417319;37.6180533197;740;76;47;0;0;320;830;22
15550;Главный выход на Варшавское шоссе;27;out;55.653166796;37.6207547044;740;28;28;0;0;0;0;0
15551;Главный выход на Варшавское шоссе;27;in;55.653166796;37.6207547044;740;69;69;0;0;0;0;0
15554;К пригородным поездам, станция Коломенское, платформа №1;27;both;55.6537272089;37.622019714;740;85;85;0;0;0;0;0
15556;К пригородным поездам, станция Коломенское, платформа №2;27;both;55.653730014;37.6222441291;740;87;47;0;0;300;765;25
15560;К области, Болотниковской улице, Чонгарскому бульвару;27;out;55.6534732031;37.6180095473;540;29;0;0;0;310;800;22
15561;К области, Болотниковской улице, Чонгарскому бульвару;27;in;55.6534732031;37.6180095473;740;76;47;0;0;310;800;22
15570;На Каширский проезд;27;both;55.6536318325;37.6231333737;740;87;48;0;0;310;750;20
15580;К центру, из стеклянных дверей налево, на север;90;out;55.8202442077;37.6400193656;560;68;26;0;0;410;1000;20
15581;К центру, из стеклянных дверей налево, на север;90;in;55.8202442077;37.6400193656;800;68;26;0;0;410;1000;20
15590;К центру, из стеклянных дверей направо. На восток;90;out;55.8195751117;37.6407447407;560;68;68;0;0;0;0;0
15591;К центру, из стеклянных дверей направо. На восток;90;in;55.8195751117;37.6407447407;800;68;68;0;0;0;0;0
15600;К центру, из стеклянных дверей налево, на аллею Космонавтов, и на запад;90;out;55.8199002798;37.6396254119;560;68;68;0;0;0;0;0
15601;К центру, из стеклянных дверей налево, на аллею Космонавтов, и на запад;90;in;55.8199002798;37.6396254119;800;68;68;0;0;0;0;0
15610;К центру, из стеклянных дверей направо, по проспекту Мира на север;90;out;55.8199377992;37.6411512009;560;68;26;0;0;410;1000;20
15611;К центру, из стеклянных дверей направо, по проспекту Мира на север;90;in;55.8199377992;37.6411512009;800;68;26;0;0;410;1000;20
15620;Северный (закрыт на ремонт);90;both;55.8222640021;37.6414513561;800;0;0;0;0;0;0;0
15630;В центр;132;out;55.8460327815;37.5896400891;750;2;2;0;0;0;0;0
15631;В центр;132;in;55.8460984404;37.5891773498;750;2;2;0;0;0;0;0
15640;В область;132;out;55.8482901988;37.5907250251;740;1;1;0;0;0;0;0
15641;В область;132;in;55.8483308448;37.5903717174;740;2;2;0;0;0;0;0
15650;В область;40;in;55.8406195405;37.4861842792;720;43;0;0;0;320;770;23
15651;В область;40;out;55.840669215;37.4863415819;550;0;0;0;0;0;0;0
15660;В центр;40;in;55.839121025;37.4873681892;530;44;0;0;0;310;760;24
15661;В центр;40;out;55.8391624205;37.4875586083;530;0;0;0;0;0;0;0
15670;В центр;39;both;55.8180467453;37.4980782657;720;51;25;0;0;300;740;20
15680;В область;39;both;55.8198865427;37.496617808;720;46;24;0;0;360;820;26
15690;В область, к торговому центру и автобусам;39;both;55.8200635678;37.4979075629;720;50;24;0;0;780;330;20
15700;В область;39;both;55.819632045;37.4967980737;720;50;50;0;0;0;0;0
15710;В центр;39;both;55.8178918482;37.4982173569;720;55;55;0;0;0;0;0
15720;В центр, к трамваям;39;both;55.8183976345;37.4990582265;720;49;24;0;0;320;780;20
15730;В центр;39;both;55.8177843687;37.4995671739;720;46;24;0;0;420;880;25
15740;В центр, на Волгоградский проспект;114;both;55.7256807813;37.685131139;740;53;25;0;0;310;750;25
15741;В область, на Новоостаповскую улицу;114;both;55.7245363533;37.6877733292;740;55;53;0;0;0;0;10
15750;В центр, под мост на северную сторону Волгоградского проспекта;114;both;55.7255119313;37.6856220548;740;53;53;0;0;0;0;0
15751;В область, на Волгоградский проспект;114;both;55.7244488015;37.6885081396;740;52;52;0;0;0;0;0
15760;К центру, в парк в западном направлении;156;both;55.691167128;37.7509629281;720;64;24;0;0;315;750;20
15770;К центру, в парк, в восточном направлении;156;both;55.6909693436;37.7516693007;720;57;0;0;0;315;930;20
15780;В область, к троллейбусам по Краснодонской улице на юг;156;both;55.6907187008;37.7553240613;720;67;2;0;0;315;920;20
15790;В область, к парку на восток;156;both;55.6906699593;37.7562826441;720;58;2;0;0;315;870;20
15800;Новотушинский проезд (север);214;in;55.8364438999;37.3813282131;800;0;0;0;0;0;0;0
15801;Новотушинский проезд (север);214;out;55.8364438999;37.3813282131;800;0;0;0;0;0;0;0
15810;Новотушинский проезд (юг);214;both;55.8346327959;37.3832984006;800;0;0;1;0;0;0;2
15820;Воробьевская набережная, правый берег, заказник "Воробьевы горы";16;both;55.709501493005;37.5579026558265;720;75;75;0;0;0;0;0
15830;Олимпийский комплекс "Лужники", Лужнецкая набережная (левый берег);16;both;55.7114278453;37.5604485125;720;4;0;0;0;605;890;25
15840;Олимпийский комплекс "Лужники", Олимпийский комитет РФ, Лужнецкая набережная (левый берег р. Москвы);16;both;55.711296365;37.5608891494;720;4;0;0;0;605;890;25
15850;природный заказник "Воробьевы горы";16;both;55.7085399329839;37.556490128696;720;24;24;0;0;0;0;0
15851;природный заказник "Воробьевы горы";16;both;55.7085208972959;37.5571896902317;720;22;22;0;0;0;0;0
15860;ТРЦ "АФИ Молл";188;out;55.7501533471;37.5428004005;800;21;17;0;0;0;0;6
15861;ТРЦ "АФИ Молл";188;in;55.7501533471;37.5428004005;800;50;46;0;0;0;0;6
15862;ТРЦ "АФИ Молл";230;both;55.7501533471;37.5428004005;800;21;17;0;0;0;0;6
15863;Башня "Федерация";230;both;55.7490619849;37.537743565;800;3;0;0;0;0;0;4
15870;Мост "Багратион";188;out;55.7485620153;37.5441888875;860;9;0;0;0;0;0;6
15871;Мост "Багратион";188;in;55.7485620153;37.5441888875;790;39;30;0;0;0;0;6
15872;Мост "Багратион";188;out;55.7480477608;37.543768913;860;8;0;0;0;0;0;10
15873;Мост "Багратион";188;in;55.7480477608;37.543768913;790;38;30;0;0;0;0;10
15890;В область, к Ташкенской улице;110;out;55.7153052646;37.8185065164;890;26;26;0;0;0;0;0
15891;В область, к Ташкенской улице;110;in;55.7153052646;37.8185065164;550;25;25;0;0;0;0;0
15894;В область, к троллейбусам в Новогиреево;110;out;55.7158130305;37.8190566344;820;33;33;0;0;0;0;0
15895;В область, к троллейбусам в Новогиреево;110;in;55.7158130305;37.8190566344;820;33;33;0;0;0;0;0
15900;К центру, на автостанцию и к пригородным поездам;110;out;55.7157680038;37.8171370583;550;25;25;0;0;0;0;0
15901;К центру, на автостанцию и к пригородным поездам;110;in;55.7157680038;37.8171370583;580;26;26;0;0;0;0;0
15904;К центру, на улицу Красный Казанец;110;out;55.7163683142;37.8175059991;820;63;63;0;0;0;0;0
15905;К центру, на улицу Красный Казанец;110;in;55.7163683142;37.8175059991;820;63;63;0;0;0;0;0
15906;К центру, на автобучные остановки на улице Красный Казанец;110;out;55.7162620093;37.8178686866;820;58;58;0;0;0;0;0
15907;К центру, на автобучные остановки на улице Красный Казанец;110;in;55.7162620093;37.8178686866;820;58;58;0;0;0;0;0
15910;В сторону области;36;in;55.7904958543;37.5565151565;720;3;3;0;0;0;0;0
15911;В сторону области;36;out;55.7905105483;37.5566641767;720;0;0;0;0;0;0;0
15920;В сторону центра;36;in;55.7889352457;37.5599385606;720;1;1;0;0;0;0;0
15921;В сторону центра;36;out;55.7889316786;37.5597956501;720;13;13;0;0;0;0;0
15930;К пригородным поездам и трамваям;135;out;55.8078479353;37.5802311882;740;40;40;0;0;0;0;0
15931;К пригородным поездам и трамваям;135;in;55.8078479353;37.5802311882;740;40;37;0;0;420;850;24
15932;Бутырская улица, западная сторона;135;out;55.8077103642;37.5806626613;740;39;4;0;0;360;760;22
15933;Бутырская улица, западная сторона;135;in;55.8077103642;37.5806626613;740;39;1;0;0;420;760;24
15940;Бутырская улица, восточная сторона;135;out;55.8080918114;37.5815318607;740;39;33;0;0;430;850;21
15941;Бутырская улица, восточная сторона;135;in;55.8080918114;37.5815318607;740;39;30;0;0;430;850;24
15942;На тропу в промзону на улицу Добролюбова;135;out;55.8081387107;37.5818038764;740;36;3;0;0;430;830;21
15943;На тропу в промзону на улицу Добролюбова;135;in;55.8081387107;37.5818038764;740;36;0;0;0;430;830;24
15950;На Садовое кольцо;74;out;55.7289906077;37.6228873877;800;0;0;0;0;0;0;0
15951;На Садовое кольцо;74;in;55.7289906077;37.6228873877;780;0;0;0;0;0;0;0
15960;на западную сторону дублера Каширского шоссе, к Ореховому бульвару, в сторону центра;21;in;55.610880977;37.7165013441;720;79;40;0;0;410;880;20
15961;на западную сторону дублера Каширского шоссе, к Ореховому бульвару, в сторону области;21;in;55.6106206823;37.716752936;720;77;77;0;0;0;0;0
15962;на западную сторону дублера Каширского шоссе, в сторону центра, через пандус;21;in;55.6109869948;37.7166367882;720;48;39;0;0;420;1000;20
15963;на восточную сторону дублера Каширского шоссе, в сторону центра, через пандус;21;in;55.6112286989;37.7180660923;720;48;39;0;0;420;1000;20
15964;на восточную сторону дублера Каширского шоссе, в сторону центра;21;in;55.611145908;37.71808679;720;76;67;0;0;420;1000;20
15965;на западную сторону дублера Каширского шоссе, к Ореховому бульвару, в сторону центра;21;out;55.610880977;37.7165013441;720;40;1;0;0;410;880;20
15966;на западную сторону дублера Каширского шоссе, к Ореховому бульвару, в сторону области;21;out;55.6106206823;37.716752936;720;38;38;0;0;0;0;0
15967;на западную сторону дублера Каширского шоссе, в сторону центра, через пандус;21;out;55.6109869948;37.7166367882;720;9;0;0;0;420;1000;20
15968;на восточную сторону дублера Каширского шоссе, в сторону центра, через пандус;21;out;55.6112286989;37.7180660923;720;9;0;0;0;420;1000;20
15969;на восточную сторону дублера Каширского шоссе, в сторону центра;21;out;55.611145908;37.71808679;720;37;28;0;0;420;1000;20
15970;на западную сторону дублера Каширского шоссе;21;in;55.6102103707;37.7168283682;720;78;40;0;0;410;820;20
15971;на западную сторону дублера Каширского шоссе;21;out;55.6102103707;37.7168283682;720;39;1;0;0;410;820;20
15980;на восточную сторону Каширского шоссе, в сторону области;21;in;55.6100240911;37.7182192555;720;72;40;0;0;410;680;20
15981;на западную сторону дублера Каширского шоссе, в сторону области;21;in;55.6098667884;37.7173292532;720;71;71;0;0;0;0;0
15982;на западную сторону Каширского шоссе, в сторону области;21;in;55.6099206025;37.7176148818;720;70;40;0;0;410;680;20
15983;на восточную сторону дублера Каширского шоссе, к ТЦ "Домодедовский";21;in;55.610053068;37.7183517209;720;65;39;0;0;430;1050;20
15984;на восточную сторону Каширского шоссе, к Ореховому бульвару;21;in;55.6101606961;37.7181530227;720;71;71;0;0;0;0;0
15985;на восточную сторону Каширского шоссе, в сторону области;21;out;55.6100240911;37.7182192555;720;33;1;0;0;410;680;20
15986;на западную сторону дублера Каширского шоссе, в сторону области;21;out;55.6098667884;37.7173292532;720;32;32;0;0;0;0;0
15987;на западную сторону Каширского шоссе, в сторону области;21;out;55.6099206025;37.7176148818;720;31;1;0;0;410;680;20
15988;на восточную сторону дублера Каширского шоссе, к ТЦ "Домодедовский";21;out;55.610053068;37.7183517209;720;26;0;0;0;430;1050;20
15989;на восточную сторону Каширского шоссе, к Ореховому бульвару;21;out;55.6101606961;37.7181530227;720;32;32;0;0;0;0;0
15990;на северную сторону Орехового бульвара, к Галерее Водолей;21;both;55.611564002;37.72090996;720;57;26;0;0;400;750;20
16000;на южную сторону Орехового бульвара;21;both;55.610893183;37.7210504063;720;58;26;0;0;420;820;20
16001;на южную сторону Орехового бульвара, к ТЦ, автостанции;21;both;55.6108038385;37.7204905142;720;61;61;0;0;0;0;0
16010;К театру Российской Армии;218;in;55.7815840434;37.6139571863;800;66;0;1;34;470;885;20
16011;К театру Российской Армии;218;out;55.7815840434;37.6139571863;800;66;7;1;34;470;890;20
16020;К Суворовской площади;218;in;55.781323972;37.6143127269;800;61;1;0;0;470;885;21
16021;К Суворовской площади;218;out;55.781323972;37.6143127269;800;61;8;0;0;470;890;21
16022;На Селезнёвскую улицу;218;in;55.7812164;37.6133883;800;63;31;0;0;470;890;18
16023;На Селезнёвскую улицу;218;out;55.7812164;37.6133883;800;63;38;0;0;470;890;18
16030;На западную сторону Шарикоподшипниковской улицы, 1 ул. Машиностроения, к трамваям;161;both;55.7178314895572;37.6762061026953;590;38;3;0;0;410;750;26
16031;К Остпаовской улице;161;both;55.7180268909762;37.676925300042;590;40;40;0;0;0;0;0
16032;К 2-й улице Машиностроения;161;both;55.7176670656545;37.6771960566901;590;40;3;0;0;430;870;18
16040;К автостанции;222;both;55.6134262765;37.7455978932;800;42;1;2;42;0;0;0
16050;К рынку;222;both;55.6133730859;37.7442715625;800;37;1;2;37;0;0;0
16051;К Воронежской улице;222;both;55.6111487082;37.7448515647;800;60;1;0;0;410;880;20
16060;К центру, на 1-ю Парковую;51;both;55.7878204637;37.779895934;530;47;47;0;0;0;0;0
16061;К центру, на Измайловский проспект между вестибюлями посредине;51;both;55.7878184005;37.7801249533;530;52;36;0;0;375;840;24
16062;К центру, в парк на юго-восток;51;both;55.7876388988;37.7801167004;530;46;46;0;0;0;0;0
16063;К центру, в парк, на юго-запад;51;both;55.7876388988;37.7798979972;530;43;32;0;0;160;290;25
16070;В область, на 3-ю Парковую улицу;51;both;55.7879236256;37.78334773;540;39;24;0;0;290;830;24
16071;В область, в парк, на аллею на юг;51;both;55.7876471518;37.7832940858;540;32;32;0;0;0;0;0
16072;В область, в парк, на восток вдоль путей;51;both;55.7876719106;37.7834096271;540;32;24;0;0;300;810;25
16080;Старокалужское шоссе;104;in;55.6555402477;37.5383943087;550;80;46;0;0;320;820;15
16081;Старокалужское шоссе;104;out;55.6555402477;37.5383943087;760;34;0;0;0;350;820;15
16090;Главное архивное управление г.Москвы;104;in;55.6576036575;37.5417237151;550;80;80;0;0;0;0;0
16091;Главное архивное управление г.Москвы;104;out;55.6565637318;37.5394506759;760;34;34;0;0;0;0;0
16092;Главное архивное управление г.Москвы;104;in;55.6563129988;37.5391917221;550;80;50;0;0;310;780;18
16093;Главное архивное управление г.Москвы;104;out;55.6563129988;37.5391917221;760;34;4;0;0;310;780;18
16100;Площадь Ак.Келдыша;104;in;55.6552977354;37.5392533778;550;81;46;0;0;320;680;15
16101;Площадь Ак.Келдыша;104;out;55.6552977354;37.5392533778;760;35;0;0;0;320;680;15
16110;ТЦ Калужский;104;in;55.6563006676;37.5403220761;550;84;50;0;0;310;780;15
16111;ТЦ Калужский;104;out;55.6563006676;37.5403220761;760;38;4;0;0;310;780;15
16112;ТЦ Калужский;104;in;55.6560334931;37.5400096874;550;81;81;0;0;0;0;0
16113;ТЦ Калужский;104;out;55.6560334931;37.5400096874;760;35;35;0;0;0;0;0
16120;Главное архивное управление г.Москвы;104;in;55.6581462274;37.5410948272;730;79;76;0;0;0;0;18
16121;Главное архивное управление г.Москвы;104;out;55.6581462274;37.5410948272;730;32;29;0;0;0;0;18
16122;Главное архивное управление г.Москвы;104;in;55.6578872736;37.5408112111;730;77;47;0;0;310;780;18
16123;Главное архивное управление г.Москвы;104;out;55.6578872736;37.5408112111;730;30;0;0;0;310;780;18
16130;Хлебобулочный проезд;104;in;55.6578420595;37.5419785585;730;81;81;0;0;0;0;0
16131;Хлебобулочный проезд;104;out;55.6578420595;37.5419785585;730;34;34;0;0;0;0;0
16132;Хлебобулочный проезд;104;in;55.6576036575;37.5417237151;730;84;51;0;0;300;780;18
16133;Хлебобулочный проезд;104;out;55.6576036575;37.5417237151;730;37;4;0;0;300;780;18
16140;К Кантемировской улице;24;both;55.6369125086;37.6561219341;720;59;0;0;0;410;720;20
16150;На Пролетарский проспект;24;both;55.6345736655;37.6571940764;720;64;0;0;0;420;750;23
16160;В сторону области, из стеклянных дверей налево, потом налево. ;24;both;55.6350993877;37.6576287286;720;51;0;0;0;400;750;23
16161;К Кавказскому бульвару, улицам Медиков, Ереванской;24;both;55.6348178986;37.6578936595;720;54;30;0;0;320;750;23
16170;К промзоне на Кантемировской улице;24;both;55.6366931127;37.65533956;720;63;38;0;0;320;720;20
16171;К автобусам по Пролетарскому проспекту на юг;24;both;55.63644474;37.6555713745;720;58;0;0;0;420;720;20
16180;На северную сторону улицы Каховка, на запад;26;out;55.6529182146;37.5963552128;550;51;24;0;0;350;830;20
16181;На северную сторону улицы Каховка, на запад;26;in;55.6529182146;37.5963552128;720;51;24;0;0;350;830;20
16190;На северную сторону улицы Каховка в сквер;26;out;55.6530530011;37.596968724;550;55;55;0;0;0;0;0
16191;На северную сторону улицы Каховка в сквер;26;in;55.6530530011;37.596968724;720;55;55;0;0;0;0;0
16200;На южную сторону улицы Каховка, на запад;26;out;55.6524766725;37.5966015468;550;56;29;0;0;310;780;20
16201;На южную сторону улицы Каховка, на запад;26;in;55.6524766725;37.5966015468;720;56;29;0;0;310;780;20
16210;На южную сторону улицы Каховка, на площадку между выходами, и Азовской улице;26;out;55.6526161068;37.5972011145;550;58;58;0;0;0;0;0
16211;На южную сторону улицы Каховка, на площадку между выходами, и Азовской улице;26;in;55.6526161068;37.5972011145;720;58;58;0;0;0;0;0
16220;К центру, на Азовскую улицу;26;out;55.653401587;37.5996412157;550;54;54;0;0;0;0;0
16221;К центру, на Азовскую улицу;26;in;55.653401587;37.5996412157;720;54;54;0;0;0;0;0
16230;К центру, на Азовскую улицу в южном направлении;26;out;55.6529600449;37.59978065;550;57;57;0;0;0;0;0
16231;К центру, на Азовскую улицу в южном направлении;26;in;55.6529600449;37.59978065;720;57;57;0;0;0;0;0
16234;В сторону центра;25;in;55.6555984168;37.6495524755;540;46;0;0;0;320;710;20
16240;К центру, на северную сторону Чонгарского бульвара;26;out;55.653401587;37.6002965571;550;55;25;0;0;370;800;20
16241;К центру, на северную сторону Чонгарского бульвара;26;in;55.653401587;37.6002965571;720;55;25;0;0;370;800;20
16250;К центру, на южную сторону Чонгарского бульвара;26;out;55.6529553971;37.6004499349;550;44;24;0;0;300;870;18
16251;К центру, на южную сторону Чонгарского бульвара;26;in;55.6529553971;37.6004499349;720;44;24;0;0;300;870;18
16260;В сторону области;226;in;55.6544062277;37.6478966573;700;51;1;0;0;320;710;20
16261;В сторону области;226;out;55.654061623;37.6477979024;550;1;1;0;0;0;0;0
16262;Южный вестибюль;25;in;55.6544062277;37.6478966573;550;51;1;0;0;320;710;20
16263;Южный вестибюль;25;out;55.654061623;37.6477979024;550;1;1;0;0;0;0;0
16265;В сторону центра;25;out;55.6557143241;37.6501651282;550;3;3;0;0;0;0;0
16270;В сторону центра;226;in;55.6555984168;37.6495524755;720;46;0;0;0;320;710;20
16271;В сторону центра;226;out;55.6557143241;37.6501651282;550;3;3;0;0;0;0;0
16272;Южный вестибюль;226;out;55.6542915377;37.6473568842;550;3;3;0;0;0;0;0
16273;Северный вестибюль;226;out;55.655934383;37.6496769328;550;3;3;0;0;0;0;0
16274;Южный вестибюль;25;out;55.6542915377;37.6473568842;550;53;3;0;0;0;0;0
16275;Северный вестибюль;25;out;55.655934383;37.6496769328;550;49;3;0;0;0;0;0
16280;площадь Киевского вокзала;42;both;55.7430807424;37.5644074775;770;70;70;0;0;0;0;0
16281;площадь Киевского вокзала;57;both;55.7430807424;37.5644074775;770;93;72;0;0;300;760;25
16282;площадь Киевского вокзала;77;both;55.7430807424;37.5644074775;770;48;48;0;0;0;0;0
16283;пригородные поезда;42;both;55.7429009009;37.5641539305;770;54;54;0;0;0;0;0
16284;пригородные поезда;57;both;55.7429009009;37.5641539305;770;77;56;0;0;300;760;25
16285;пригородные поезда;77;both;55.7429009009;37.5641539305;770;32;32;0;0;0;0;0
16286;площадь Киевского вокзала;42;both;55.7430660013;37.5643632542;770;38;38;0;0;0;0;0
16287;площадь Киевского вокзала;57;both;55.7430660013;37.5643632542;770;61;40;0;0;300;760;25
16288;площадь Киевского вокзала;77;both;55.7430660013;37.5643632542;770;16;16;0;0;0;0;0
16290;площадь Киевского вокзала;42;out;55.7431632926;37.5647140925;770;21;21;0;0;0;0;0
16291;площадь Киевского вокзала;57;out;55.7431632926;37.5647140925;770;63;42;0;0;300;760;25
16292;площадь Киевского вокзала;77;out;55.7431632926;37.5647140925;770;0;0;0;0;0;0;0
16293;площадь Киевского вокзала;42;in;55.7431603443;37.5647199889;770;31;31;0;0;0;0;0
16294;площадь Киевского вокзала;57;in;55.7431603443;37.5647199889;770;54;33;0;0;300;760;25
16295;площадь Киевского вокзала;77;in;55.7431603443;37.5647199889;770;9;9;0;0;0;0;0
16300;ТРЦ Европейский, выход 4;57;both;55.7440682406;37.5669715807;740;69;17;0;0;400;760;25
16301;ТРЦ Европейский, выход 4;77;both;55.7440682406;37.5669715807;740;53;22;0;0;400;760;25
16310;Киевский вокзал;57;both;55.7438060048;37.5671611161;740;64;43;0;0;400;760;25
16311;Киевский вокзал;77;both;55.7438060048;37.5671611161;740;48;48;0;0;0;0;0
16320;Киевский вокзал;57;both;55.7437205064;37.5676092457;740;67;17;0;0;400;760;25
16321;Киевский вокзал;77;both;55.7437205064;37.5676092457;740;51;22;0;0;400;760;25
16330;ТРЦ Европейский;57;both;55.7443581383;37.5671386982;740;72;51;0;0;400;760;25
16331;ТРЦ Европейский;77;both;55.7443581383;37.5671386982;740;56;56;0;0;0;0;0
16340;На север, Старая площадь;96;both;55.7562893888;37.6300345728;740;61;61;0;0;0;0;0
16341;На север, Старая площадь;227;both;55.7562893888;37.6300345728;740;61;61;0;0;0;0;0
16350;На север, к Политехническому музею;96;both;55.7569715217;37.6305015363;740;73;73;0;0;0;0;0
16351;На север, к Политехническому музею;227;both;55.7569715217;37.6305015363;740;73;73;0;0;0;0;0
16360;На север, к памятнику героям Плевны, западный;96;both;55.7567838207;37.6309913901;740;69;67;0;0;0;0;4
16361;На север, к памятнику героям Плевны, западный;227;both;55.7567838207;37.6309913901;740;69;67;0;0;0;0;4
16370;На север, улица Маросейка, северная сторона;96;both;55.7573251779;37.6317811078;740;71;71;0;0;0;0;0
16371;На север, улица Маросейка, северная сторона;227;both;55.7573251779;37.6317811078;740;71;71;0;0;0;0;0
16380;На север, к памятнику героям Плевны, восточный;96;both;55.7568708041;37.6312202938;740;72;68;0;0;0;0;4
16381;На север, к памятнику героям Плевны, восточный;227;both;55.7568708041;37.6312202938;740;72;68;0;0;0;0;4
16390;На север, улица Маросейка, южная сторона;96;both;55.7572153041;37.6320649484;740;72;72;0;0;0;0;0
16391;На север, улица Маросейка, южная сторона;227;both;55.7572153041;37.6320649484;740;72;72;0;0;0;0;0
16392;На север, Лубянский проезд, угол с Маросейкой;96;both;55.7570127244;37.6318886925;740;54;54;0;0;0;0;0
16393;На север, Лубянский проезд, угол с Маросейкой;227;both;55.7570127244;37.6318886925;740;54;54;0;0;0;0;0
16400;На юг, на Варварку;96;both;55.7531385296;37.6330675465;740;35;35;0;0;0;0;0
16401;На юг, на Варварку;227;both;55.7531385296;37.6330675465;740;35;35;0;0;0;0;0
16402;На юг, Китайгородский проезд, троллейбусная остановка;96;both;55.7529738673;37.6333069206;740;6;6;0;0;0;0;5
16403;На юг, Китайгородский проезд, троллейбусная остановка;227;both;55.7529738673;37.6333069206;740;6;6;0;0;0;0;5
16410;На юг, Китайгородский проезд, лицом на площадь;96;both;55.7532361938;37.6337378856;740;26;26;0;0;0;0;0
16411;На юг, Китайгородский проезд, лицом на площадь;227;both;55.7532361938;37.6337378856;740;26;26;0;0;0;0;0
16412;На юг, Китайгородский проезд, восточная сторона;96;both;55.7530011874;37.6336535399;740;22;22;0;0;0;0;0
16413;На юг, Китайгородский проезд, восточная сторона;227;both;55.7530011874;37.6336535399;740;22;22;0;0;0;0;0
16420;На юг, в сквер;96;both;55.75418955;37.63409557;740;38;38;0;0;0;0;0
16421;На юг, в сквер;227;both;55.75418955;37.63409557;740;38;38;0;0;0;0;0
16430;На юг, троллейбусная остановка на север;96;both;55.7541148038;37.6350704537;740;33;33;0;0;0;0;0
16431;На юг, троллейбусная остановка на север;227;both;55.7541148038;37.6350704537;740;33;33;0;0;0;0;0
16440;На север, Новая площадь, западная сторона;96;both;55.7566556346;37.6295309847;740;69;69;0;0;0;0;0
16441;На север, Новая площадь, западная сторона;227;both;55.7566556346;37.6295309847;740;69;69;0;0;0;0;0
16450;На юг, троллейбусная остановка на восток, на Солянку;96;both;55.7537657257;37.6355351281;740;31;31;0;0;0;0;0
16451;На юг, троллейбусная остановка на восток, на Солянку;227;both;55.7537657257;37.6355351281;740;31;31;0;0;0;0;0
16460;Со второго этажа вестибюля, к жилым домам;154;both;55.70621492;37.68544243;700;26;26;0;0;315;760;20
16470;С первого этажа вестибюля, на улицы;154;both;55.7063415069;37.6856446879;700;63;63;0;0;315;760;20
16480;В сторону области, на проспект Андропова;28;out;55.6767572311;37.6627855326;720;55;24;0;0;350;790;20
16481;В сторону области, на проспект Андропова;28;in;55.6767572311;37.6627855326;540;55;24;0;0;350;790;20
16490;В сторону области, на Нагатинскую улицу;28;out;55.6777537448;37.662986685;720;53;24;0;0;350;830;20
16491;В сторону области, на Нагатинскую улицу;28;in;55.6777537448;37.662986685;540;53;24;0;0;350;830;20
16500;В сторону центра, к автобусам по проспекту Андропова в Орехово, Бирюлёво;28;out;55.6792612319;37.663368181;720;56;32;0;0;320;780;20
16501;В сторону центра, к автобусам по проспекту Андропова в Орехово, Бирюлёво;28;in;55.6792612319;37.663368181;540;56;32;0;0;320;780;20
16510;В сторону области, к кинотеатру Орбита, парку Коломенское.;28;out;55.6765318016;37.6642722108;720;32;24;0;0;480;680;20
16511;В сторону области, к кинотеатру Орбита, парку Коломенское.;28;in;55.6765318016;37.6642722108;540;32;24;0;0;480;680;20
16520;В сторону области, к трамваям;28;out;55.6776739774;37.6645450382;720;51;25;0;0;340;770;20
16521;В сторону области, к трамваям;28;in;55.6776739774;37.6645450382;540;51;25;0;0;340;770;20
16530;В сторону центра, к автобусам про проспекту Андропова в центр;28;out;55.6795317472;37.665016706;720;54;0;0;0;320;680;20
16531;В сторону центра, к автобусам про проспекту Андропова в центр;28;in;55.6795317472;37.665016706;540;54;0;0;0;320;680;20
16540;В сторону центра, на Судостроительную улицу;28;out;55.6791502512;37.6649496552;720;55;31;0;0;320;780;20
16541;В сторону центра, на Судостроительную улицу;28;in;55.6791502512;37.6649496552;540;55;31;0;0;320;780;20
16550;В сторону центра, к Высокой улице;28;out;55.6796265431;37.6634306076;720;55;1;0;0;320;720;20
16551;В сторону центра, к Высокой улице;28;in;55.6796265431;37.6634306076;540;55;1;0;0;320;720;20
16560;Ленинградский и Ярославский вокзалы, Комсомольская площадь;70;in;55.7758404599999;37.6559069899999;700;71;47;0;0;325;775;19
16561;Ленинградский и Ярославский вокзалы, Комсомольская площадь;6;in;55.7758404599999;37.6559069899999;700;68;68;0;0;0;0;0
16570;Казанский вокзал, Комсомольская площадь;70;in;55.7749230193837;37.6562295240408;700;65;24;0;0;325;730;23
16571;Казанский вокзал, Комсомольская площадь;70;in;55.7751489982246;37.6566520831376;700;76;52;0;0;325;775;19
16572;Казанский вокзал, Комсомольская площадь;6;in;55.7749230193837;37.6562295240408;700;62;21;0;0;320;730;23
16573;Казанский вокзал, Комсомольская площадь;6;in;55.7751489982246;37.6566520831376;700;73;73;0;0;0;0;0
16580;Казанский вокзал, Комсомольская площадь;70;in;55.7744461256;37.655666333;725;33;33;0;0;0;0;0
16581;Казанский вокзал, поезда;70;in;55.773892794362;37.6557684467885;725;30;23;0;0;360;650;20
16583;Казанский вокзал, Комсомольская площадь;6;in;55.7744461256;37.655666333;725;54;54;0;0;0;0;0
16584;Казанский вокзал, поезда;6;in;55.773892794362;37.6557684467885;725;51;44;0;0;360;650;20
16586;Казанский вокзал, поезда;70;in;55.7735602068878;37.6558157512647;725;41;6;0;0;500;600;25
16587;Казанский вокзал, поезда;6;in;55.7735602068878;37.6558157512647;725;62;27;0;0;500;600;25
16590;Ленинградский и Ярославский вокзалы;70;out;55.7767378472;37.6559332597;540;24;0;0;0;325;775;19
16591;Ленинградский и Ярославский вокзалы;6;out;55.7767378472;37.6559332597;540;21;21;0;0;0;0;0
16592;Ленинградский и Ярославский вокзалы, Комсомольская площадь;70;out;55.7761919702;37.6562987809;540;24;0;0;0;325;775;19
16593;Ленинградский и Ярославский вокзалы, Комсомольская площадь;6;out;55.7761919702;37.6562987809;540;21;21;0;0;0;0;0
16594;Ленинградский вокзал, электрички;70;in;55.7781936958;37.654779014;740;48;24;0;0;325;775;19
16595;Ленинградский вокзал, электрички;6;in;55.7781936958;37.654779014;740;45;45;0;0;0;0;0
16600;Комсомольская площадь, трамвайная остановка;6;in;55.7754917;37.65612513;700;67;67;0;0;0;0;0
16601;Комсомольская площадь, трамвайная остановка;70;in;55.7754917;37.65612513;700;70;46;0;0;325;775;19
16602;Комсомольская площадь, трамвайная остановка;6;in;55.7752757625;37.6557384754;700;68;68;0;0;0;0;0
16603;Комсомольская площадь, трамвайная остановка;70;in;55.7752757625;37.6557384754;700;71;47;0;0;325;775;19
16610;Ленинградский и Ярославский вокзалы, Комсомольская площадь;6;in;55.77570816;37.65528109;700;66;45;0;0;320;740;26
16611;Ленинградский и Ярославский вокзалы, Комсомольская площадь;70;in;55.77570816;37.65528109;700;69;24;0;0;325;740;26
16612;Казанский вокзал, Комсомольская площадь;70;out;55.7744461256;37.655666333;540;33;33;0;0;0;0;0
16613;Казанский вокзал, поезда;70;out;55.773892794362;37.6557684467885;540;30;17;0;0;360;510;22
16615;Казанский вокзал, Комсомольская площадь;6;out;55.7744461256;37.655666333;540;54;54;0;0;0;0;0
16616;Казанский вокзал, поезда;6;out;55.773892794362;37.6557684467885;540;51;38;0;0;360;510;22
16618;Казанский вокзал, поезда;70;out;55.7735602068878;37.6558157512647;540;41;0;0;0;500;510;25
16619;Казанский вокзал, поезда;6;out;55.7735602068878;37.6558157512647;540;62;21;0;0;500;510;25
16620;Вещевой рынок "Коньково";106;both;55.6324377819;37.5181354951;520;68;43;0;0;310;1000;20
16621;Вещевой рынок "Коньково";106;both;55.6320476185;37.5178579562;520;66;0;0;0;310;1000;20
16630;ул.Островитянова (четн.);106;both;55.6343483758;37.5190083349;540;63;25;0;0;400;960;20
16631;ул.Островитянова (четн.);106;both;55.6340306139;37.5192054278;540;62;62;0;0;0;0;0
16640;Продуктовый рай;106;both;55.6321924214;37.5194145875;520;57;32;0;0;310;780;15
16641;Продуктовый рай;106;both;55.6317741018;37.5191410709;520;60;0;0;0;310;1030;22
16650;ул.Островитянова (нечет.);106;both;55.6347023385;37.519301963;540;59;34;0;0;0;0;0
16651;ул.Островитянова (нечет.);106;both;55.6345615579;37.51992542;540;56;25;0;0;400;940;15
16660;ул.Профсоюзная;106;both;55.6339179894;37.5199857546;540;54;54;0;0;0;0;0
16670;ТЦ Виктория;106;both;55.6338093872;37.5205689885;540;54;25;0;0;350;920;18
16680;К улице Мусы Джалиля;20;in;55.6141664369;37.746071294;800;64;64;0;0;0;0;0
16681;К улице Мусы Джалиля;20;out;55.6141664369;37.746071294;800;34;34;0;0;0;0;0
16690;К магазину ТУК;20;in;55.613590196;37.7461625048;800;62;62;0;0;0;0;0
16691;К магазину ТУК;20;out;55.613590196;37.7461625048;800;32;32;0;0;0;0;0
16700;К автостанции;20;in;55.6136175159;37.7467726495;800;66;32;0;0;420;820;20
16701;К автостанции;20;out;55.6136175159;37.7467726495;800;36;2;0;0;420;820;20
16710;К Кустанайской улице;20;in;55.614191234;37.7466178366;800;66;30;0;0;320;750;20
16711;К Кустанайской улице;20;out;55.614191234;37.7466178366;800;36;0;0;0;320;750;20
16720;К ТЦ Облака;20;both;55.6134126165;37.7423513769;800;63;38;0;0;320;750;20
16730;К Мусы Джалиля на север.;20;both;55.6139681214;37.7428932218;800;62;37;0;0;320;740;20
16740;К рынку;20;both;55.6134353831;37.7429842882;800;61;0;0;0;320;820;20
16750;К Ореховому проезду;20;both;55.6139408015;37.7422876304;800;67;25;0;0;320;750;20
16751;К рынку;20;both;55.6133730859;37.7442715625;800;37;1;2;37;0;0;0
16752;К автостанции;20;both;55.61342628;37.74559789;800;42;1;2;42;0;0;0
16760;Выход на ул. Красная пресня;78;out;55.7603447471;37.5773749825;750;2;2;0;0;0;0;0
16761;Вход с ул. Красная пресня;78;in;55.7603875443;37.5770517895;600;2;2;0;0;0;0;0
16770;Краснопрудная улица, верхняя Красносельская улица;5;both;55.78007357;37.66609759;780;59;59;0;0;0;0;0
16780;Площадь Красные ворота, Садовое кольцо (внутренняя сторона);7;both;55.7683616161;37.6480432082;730;41;41;0;0;0;0;0
16790;Каланчевская улица, Садовое кольцо (внешняя сторона);7;in;55.7698506489;37.650350681;730;5;5;0;0;0;0;0
16791;Каланчевская улица, Садовое кольцо (внешняя сторона);7;out;55.7698506489;37.650350681;700;2;2;0;0;0;0;0
16800;На Воронцовскую улицу;153;both;55.732304914;37.6654816515;720;44;1;0;0;320;790;20
16801;На Воронцовскую улицу;115;both;55.732304914;37.6654816515;720;95;54;0;0;320;790;20
16810;ул. Волхонка, музей им. Пушкина;12;both;55.74571998;37.60517249;720;49;49;0;0;0;0;0
16811;Храм Христа Спасителя, ул. Волхонка;12;both;55.7454179066;37.6052280196;720;33;33;0;0;0;0;0
16820;Гоголевский бульвар;12;in;55.7449504083;37.601575021;700;47;47;0;0;0;0;0
16821;Гоголевский бульвар;12;out;55.7450370138;37.6016870109;700;48;48;0;0;0;0;0
16830;Осенний бульвар (север);66;both;55.7579053533;37.4072899322;740;28;28;0;0;0;0;0
16840;Осенний бульвар (юг);66;both;55.7556186382;37.4076061801;740;32;32;0;0;0;0;0
16850;Осенний бульвар (юг);66;both;55.7553023903;37.4085995226;740;35;1;0;0;400;780;20
16860;Осенний бульвар (север);66;both;55.7576499224;37.4086279039;740;35;0;0;0;360;630;15
16870;Осенний бульвар (север);66;both;55.7573580013;37.4073872392;740;39;0;0;0;350;820;18
16880;Осенний бульвар (север);66;both;55.7581324031;37.4085549236;740;26;0;0;0;370;860;18
16890;Осенний бульвар (юг);66;both;55.7556551283;37.4088630625;740;32;0;0;0;420;780;19
16900;Осенний бульвар (юг);66;both;55.7552861725;37.4076629425;740;33;0;0;0;410;900;23
16910;улица  Рождественка;118;both;55.761595376;37.6241906619;710;1;1;0;0;0;0;0
16920;К центру, на улицу Маршала Чуйкова;112;both;55.705286869;37.7637516423;740;49;1;0;0;410;730;26
16922;К центру, к рынку и торговым центрам;112;both;55.7052373513;37.7641415942;740;48;24;0;0;330;770;21
16930;К центру, на северную сторону Волгоградского проспекта;112;both;55.7060007491;37.7639827249;740;52;1;0;0;330;770;21
16932;К центру, на Жигулёвскую улицу;112;both;55.7059594843;37.7643582341;740;52;1;0;0;430;770;24
16940;К области, на Зеленодольскую улицу;112;out;55.7048453362;37.7670425058;550;22;22;0;0;0;0;0
16941;К области, на Зеленодольскую улицу;112;in;55.7048453362;37.7670425058;740;56;56;0;0;0;0;0
16942;К области, к автобусам по Волгоградскому проспекту в область;112;out;55.7047937553;37.7674654695;550;25;1;0;0;290;800;26
16943;К области, к автобусам по Волгоградскому проспекту в область;112;in;55.7047937553;37.7674654695;740;59;35;0;0;290;800;26
16950;К области, на Зеленодольскую улицу на север, макдональдсу, театру;112;out;55.7055674692;37.7672859678;550;27;3;0;0;310;840;25
16951;К области, на Зеленодольскую улицу на север, макдональдсу, театру;112;in;55.7055674692;37.7672859678;740;61;37;0;0;310;840;25
16952;К области, на северную сторону Волгоградского проспекта;112;out;55.7055055721;37.7677522595;550;28;28;0;0;0;0;0
16953;К области, на северную сторону Волгоградского проспекта;112;in;55.7055055721;37.7677522595;740;62;62;0;0;0;0;0
16960;Молдавская ул.;210;in;55.7306920536;37.4454977688;850;42;40;1;40;0;0;5
16961;Молдавская ул.;210;out;55.7307416413;37.4454836009;850;42;40;1;40;0;0;5
16970;Малая Филевская ул.;210;in;55.7308514427;37.4464541035;800;40;40;1;38;0;0;0
16971;Малая Филевская ул.;210;out;55.730794771;37.4464859813;800;40;40;1;38;0;0;0
16980;Рублевское ш.;64;in;55.7305680842;37.44564299;550;32;32;0;0;0;0;0
16981;Рублевское ш.;64;out;55.7305149545;37.4456642419;550;32;32;0;0;0;0;0
16990;Кастанаевская ул.;64;in;55.7306778856;37.4465249431;550;29;29;0;0;0;0;0
16991;Кастанаевская ул.;64;out;55.7307274734;37.4465072332;550;29;29;0;0;0;0;0
17000;Старый выход на Садовое кольцо;46;both;55.7586200673;37.6588607328;800;0;0;0;0;0;0;0
17001;Старый выход на Садовое кольцо;71;both;55.7586200673;37.6588607328;800;0;0;0;0;0;0;0
17010;На улицу в пристройку к Курскому вокзалу;46;both;55.7584696984;37.660199732;700;43;43;0;0;0;0;0
17011;На улицу в пристройку к Курскому вокзалу;71;both;55.7584696984;37.660199732;700;43;43;0;0;0;0;0
17012;На нижний уровень Курского вокзала;46;both;55.7579523;37.6600452;720;15;0;0;0;310;720;23
17013;На нижний уровень Курского вокзала;71;both;55.7579523;37.6600452;720;15;0;0;0;310;720;23
17014;На платформу №1, к поездам дальнего следования;46;both;55.7586021662;37.6610518224;730;15;15;0;0;0;0;0
17015;На платформу №1, к поездам дальнего следования;71;both;55.7586021662;37.6610518224;730;15;15;0;0;0;0;0
17020;Через переход под путями, на Нижний Сусальный переулок;46;both;55.7601917802;37.6619683566;730;15;15;0;0;0;0;0
17021;Через переход под путями, на Нижний Сусальный переулок;71;both;55.7601917802;37.6619683566;730;15;15;0;0;0;0;0
17030;К пригородным поездам Горьковского направления, трамвайному кольцу;71;in;55.7560208335;37.6595624543;720;32;0;0;0;0;0;7
17031;К пригородным поездам Горьковского направления, трамвайному кольцу;71;out;55.7560208335;37.6595624543;600;32;0;0;0;0;0;7
17032;На Садовое кольцо на юг;71;in;55.7560208335;37.6595624543;720;66;66;0;0;0;0;0
17033;На Садовое кольцо на юг;71;out;55.7560208335;37.6595624543;600;58;58;0;0;0;0;0
17034;К пригородным поездам Горьковского направления, трамвайному кольцу;151;in;55.75602493;37.65934368;720;32;0;0;0;0;0;7
17035;К пригородным поездам Горьковского направления, трамвайному кольцу;151;out;55.75602493;37.65934368;600;32;0;0;0;0;0;7
17036;На Садовое кольцо на юг;151;in;55.7559227;37.6582024;720;66;66;0;0;0;0;0
17037;На Садовое кольцо на юг;151;out;55.7559227;37.6582024;600;58;58;0;0;0;0;0
17040;Кутузовский проспект (юг);59;in;55.739462883;37.5349365164;660;31;31;0;0;0;0;0
17041;Кутузовский проспект (юг);59;out;55.7395324881;37.5348858945;540;32;32;0;0;0;0;0
17050;Кутузовский проспект (север);59;in;55.7405734009;37.5342594485;800;34;34;0;0;0;0;0
17051;Кутузовский проспект (север);59;out;55.7405417622;37.5342784317;560;36;36;0;0;0;0;0
17060;Площадь Гагарина;100;in;55.7068826274;37.5850109175;600;0;0;0;0;0;0;0
17061;Площадь Гагарина;100;out;55.7068636169;37.5851202279;600;0;0;0;0;0;0;0
17070;ул.Орджоникидзе;100;in;55.708327425;37.5873777241;600;0;0;0;0;0;0;0
17071;ул.Орджоникидзе;100;out;55.7083797039;37.5872874243;600;0;0;0;0;0;0;0
17090;Лубянская площадь, Малый Черкасский переулок;9;both;55.7588336531;37.6262759744;720;22;22;0;0;0;0;0
17100;Политехнический музей, Лубянская площадь;9;both;55.758950394;37.6271320741;720;20;20;0;0;0;0;0
17110;Политехнический музей, Лубянская площадь;9;both;55.7592420352623;37.628021263033;720;34;34;0;0;0;0;15
17120;Лубянская площадь, ФСБ;9;both;55.7600306699999;37.6279527;720;25;25;0;0;0;0;0
17130;Мясницкая улица, Лубянский проезд;9;both;55.75961894;37.62854544;720;32;32;0;0;0;0;0
17140;Мясницкая улица, ФСБ;9;both;55.7600093;37.62846718;720;26;26;0;0;0;0;0
17150;Лубянская площадь, Никольская улица;9;both;55.7590373774;37.6259738215;720;21;21;0;0;0;0;0
17160;Лубянский проезд, Мясницка улица;9;both;55.7593624206;37.6283406855;720;30;30;0;0;0;0;0
17170;К области, южный выход, к улицам Судакова, Новороссийской, Совхозной;157;both;55.6744150842;37.760986755;720;73;29;0;0;490;885;19
17180;К центру, южная часть Краснодарской улицы;157;both;55.6767213935;37.7616733034;720;71;29;0;0;415;860;18
17190;К центру, северная часть Краснодарской улицы на запад;157;both;55.6770461679;37.7617760801;720;70;60;0;0;415;860;18
17200;К центру, западная сторона Совхозной улицы;157;both;55.6771489446;37.7621419652;720;64;29;0;0;415;860;18
17210;К центру, восточная сторона Совхозной улицы;157;both;55.6770920723;37.7629469636;720;60;29;0;0;420;880;20
17220;К центру, на восток по Краснодарской улице, к ТЦ Москвв;157;both;55.676867594;37.763221326;720;56;56;0;0;0;0;0
17230;Марксистская улица, южная сторона;84;in;55.7406605071;37.6564802891;740;43;39;0;0;0;800;26
17231;Марксистская улица, южная сторона;84;out;55.7410618321;37.6568020722;740;43;43;0;0;0;0;0
17240;Марксистская улица, северная сторона;84;in;55.74120492;37.65660879;740;43;39;0;0;0;800;26
17241;Марксистская улица, северная сторона;84;out;55.74120492;37.65660879;740;43;43;0;0;0;0;0
17250;К центру, на северную сторону Сущёвского вала в восточном направлении, на Шереметьевскую улицу на юг;217;both;55.7935400442;37.6169652933;740;39;0;1;26;410;1200;18
17251;К центру, к концентному залу;217;both;55.7938762731;37.6171441385;740;41;1;1;35;0;0;5
17260;К центру, на Сущёвский Вал в западном направлении;217;both;55.7935507749;37.6158779148;740;40;0;0;0;410;680;21
17261;К центру, на западную сторону Шереметьевской улицы;217;both;55.7937424;37.6160021;740;42;29;0;0;410;1200;19
17270;К области, выход к театру, на север;217;both;55.7970336031;37.6169924503;730;46;33;0;0;0;0;5
17271;К области, выход к театру, на север;217;both;55.7972314083;37.6168114865;740;12;0;0;0;0;0;5
17280;К центру, на правую сторону Люблинской улицы;159;both;55.6512930682;37.7437329464;590;73;37;0;0;420;800;21
17290;К центрю, на Новомарьинскую улицу;159;both;55.6509324617;37.7438882846;590;74;74;0;0;0;0;0
17300;К области, на левую сторону Люблинской улицы;159;both;55.6491839827;37.7438586964;725;71;33;0;0;420;800;19
17310;К области, на Новочеркасском бульваре;159;both;55.6488122807;37.7440232809;725;72;72;0;0;0;0;0
17320;К области, к Макдональдсу,;159;both;55.6492671996;37.7445225821;725;64;64;0;0;0;0;0
17330;К области, к Марьинскому бульвару;159;both;55.6489176887;37.7446520306;725;64;33;0;0;420;800;19
17340;К центру, на западную сторону Люблинскй улицы;159;both;55.651235741;37.7430764578;590;73;37;0;0;420;800;21
17350;К центру, на запад, к жилым домам;159;both;55.6508399985;37.7432280974;590;74;74;0;0;0;0;0
17360;В сторону области;34;both;55.7711394733;37.5945542458;750;37;1;0;0;410;880;20
17370;В сторону центра;34;both;55.769327318;37.5964727471;780;41;0;0;0;420;900;20
17371;В сторону центра;34;in;55.7696894134;37.5972629804;790;48;0;0;0;330;760;24
17372;В сторону центра;34;out;55.7696894134;37.5972629804;850;48;0;0;0;330;760;24
17380;К центру;86;both;55.8860093033;37.6612996793;800;2;2;0;0;0;0;0
17390;К области, выход;86;out;55.8881416559;37.6618624703;800;2;2;0;0;0;0;0
17391;К области, вход;86;in;55.8879540589;37.6614935295;800;6;0;0;0;0;0;20
17400;На Тестовскую улицу;189;both;55.7481391838;37.5330238519;780;11;11;0;0;0;0;0
17410;Новослободская улица западная сторона на юг;137;both;55.7813359895;37.5988233766;750;33;3;0;0;390;860;20
17420;Новослободская улица восточная сторона, во дворы к Сущёвской;137;both;55.7818800208;37.5990735059;750;43;43;0;0;0;0;0
17430;Новослободская улица западная сторона на север;137;both;55.781463057;37.59871399;750;35;3;0;0;390;860;20
17440;Дубравная ул. (запад);213;both;55.8461813568;37.3593954945;800;60;60;1;31;0;0;0
17441;Митинская ул., к-тр Люксор;213;both;55.8464952634;37.3593077853;800;61;31;1;31;400;900;18
17450;Митинская ул. (север);213;both;55.8463983217;37.3611081321;800;76;31;2;76;0;0;5
17460;Митинская ул. (юг);213;both;55.8448580864;37.363496702;800;59;27;0;0;400;900;18
17461;Митинская ул. (юг);213;both;55.8447687771;37.3637163267;800;57;57;0;0;0;0;0
17470;Дубравная ул. (восток);213;both;55.8470122861;37.360568028;800;67;31;1;31;400;900;21
17480;Митинская ул. (юг);213;both;55.8455627761;37.363924059;800;65;27;0;0;400;900;20
17490;Дубравная ул. (восток);213;both;55.8467860887;37.3612558528;800;69;31;2;62;400;900;21
17500;Дубравная ул. (запад);213;both;55.8461028802;37.3601202495;800;61;61;2;61;0;0;5
17501;Дубравная ул. (запад);213;both;55.8460521011;37.3605634118;800;65;31;2;65;0;0;5
17510;на Ярцевскую ул.;65;in;55.7411976639;37.4157678381;730;47;47;0;0;0;0;0
17511;на Ярцевскую ул.;65;out;55.7412984049;37.415937083;730;0;0;0;0;0;0;0
17520;на Ельнинскую ул.;65;in;55.7402104025;37.4179720504;730;43;43;0;0;0;0;0
17521;на Ельнинскую ул.;65;out;55.7403474102;37.4181654731;730;0;0;0;0;0;0;0
17530;Крокус Экспо, пав. 1,2;215;both;55.8235522598;37.3855503584;800;56;0;0;0;400;950;23
17531;Крокус Экспо, пав. 1,2;215;both;55.8230865775;37.3855859314;800;57;0;0;0;400;950;20
17532;Крокус Экспо, пав. 3;215;both;55.8264083775;37.385546953;800;31;0;0;0;380;970;22
17540;К области, на 742 автобус;144;both;55.6821833796;37.6216016506;800;30;30;0;0;0;0;0
17550;К области, вход с пригородных поездов;144;both;55.6821958861;37.6213140018;800;30;0;0;0;310;780;20
17560;К области, к пригородным поездам, северная лестница;144;both;55.6823522169;37.6208950352;800;48;8;0;0;310;780;20
17562;К области, к пригородным поездам, южная лестница;144;both;55.6817143871;37.6210075934;800;48;48;0;0;0;0;0
17570;К центру за западную сторону;144;both;55.6840906158;37.6227084729;800;58;25;0;0;420;770;20
17572;К центру на восточную сторону, на троллейбус к центру;144;both;55.68404059;37.6236589644;800;58;25;0;0;420;920;20
17574;К центру на восточную сторону, на трамвай и на Нагатинскую ул.;144;both;55.6838029671;37.6237214967;800;62;25;0;0;420;920;20
17580;На улицу Ремизова;145;both;55.6729450412;37.6102594122;800;39;25;0;0;320;790;20
17590;На Криворожскую улицу;145;both;55.6728137233;37.6109847873;800;65;65;0;0;0;0;0
17592;На Электролитный проезд;145;both;55.6730575994;37.6114412734;800;64;64;0;0;0;0;0
17600;К центру, налево;146;out;55.6634411197;37.6062048513;790;39;0;0;0;320;800;20
17601;К центру, налево;146;in;55.6634411197;37.6062048513;790;71;32;0;0;320;800;20
17610;К центру, На троллейбусы по Нахимовскому проспекту;146;out;55.6635474247;37.6070865572;790;28;0;0;0;320;800;20
17611;К центру, На троллейбусы по Нахимовскому проспекту;146;in;55.6635474247;37.6070865572;790;60;32;0;0;320;800;20
17620;К области, на западную сторону;146;both;55.6615901626;37.6040850052;790;40;0;0;0;320;800;20
17630;К области, на восточную сторону;146;both;55.6617402402;37.6048729126;790;36;0;0;0;320;800;20
17640;К центру, Нахимовский проспект на запад;146;out;55.6637787943;37.606142319;790;31;31;0;0;0;0;0
17641;К центру, Нахимовский проспект на запад;146;in;55.6637787943;37.606142319;790;63;63;0;0;0;0;0
17650;К центру, Зелёный проспект, северная сторона;79;in;55.7522557;37.8144915;720;64;27;0;0;355;780;18
17651;К центру, Зелёный проспект, северная сторона;79;out;55.7522557;37.8144915;720;37;0;0;0;355;780;18
17652;К центру, 5-й проспект, северная сторона;79;in;55.7521484;37.8152651;720;64;27;0;0;410;920;20
17653;К центру, 5-й проспект, северная сторона;79;out;55.7521484;37.8152651;720;37;0;0;0;410;920;20
17660;К центру, 5-й проспект, южная сторона;79;in;55.7517192;37.8150193;720;64;64;0;0;0;0;0
17661;К центру, 5-й проспект, южная сторона;79;out;55.7517192;37.8150193;720;37;37;0;0;0;0;0
17662;К центру, Зелёный проспект, южная сторона;79;in;55.7518222;37.8143058;720;62;27;0;0;355;780;18
17663;К центру, Зелёный проспект, южная сторона;79;out;55.7518222;37.8143058;720;35;0;0;0;355;780;18
17670;В область, Свободный проспект, на юг;79;both;55.751274;37.818077;720;55;33;0;0;310;760;21
17671;В область, на трамвай;79;both;55.751189;37.818662;720;56;34;0;0;310;760;21
17680;Свободный проспект на север, к троллейбусам в Ивановское;79;both;55.751673;37.818253;720;58;36;0;0;310;760;21
17681;В область, на север, к  улице Молостовых;79;both;55.751582;37.818878;720;58;36;0;0;310;760;21
17690;В область, в Реутов;186;both;55.7461492292;37.8661727259;800;75;68;2;68;0;0;5
17700;В область, к Городецкой улице;186;both;55.7444651771;37.8659600035;800;68;68;2;68;0;0;5
17710;В центр, к Городецкой улице;186;both;55.7439466663;37.8631502954;800;68;68;2;68;0;0;3
17720;В центр, на Суздальскую улицу;186;both;55.7442657499;37.8629287096;800;68;68;1;29;0;0;0
17730;В центр, в Реутов, к Макдональдсу;186;both;55.7455420841;37.8624146305;800;68;68;2;68;0;0;3
17740;На Пятницкую улицу, Садовнический проезд;31;both;55.7422799751;37.6290703334;720;1;1;0;0;0;0;0
17750;На Новослободскую улицу, и к трамваям;68;both;55.7795037921;37.60111206;860;0;0;0;0;0;0;0
17760;Западный, к центру. Юг Новоясеневского проспекта.;109;both;55.6014489167;37.5529533379;830;67;25;0;0;0;0;0
17761;Битцевский парк;109;both;55.6003871603;37.5560135212;900;67;0;0;0;400;1000;22
17770;Битцевский парк;232;both;55.6003871603;37.5560135212;900;65;0;0;0;400;1000;20
17780;ТЦ Черемушки;103;in;55.6696081208;37.5536839177;550;50;24;0;0;310;780;17
17781;ТЦ Черемушки;103;out;55.6696081208;37.5536839177;750;50;24;0;0;310;780;17
17782;ТЦ Черемушки;103;in;55.6694384587;37.5534777129;550;67;67;0;0;0;0;0
17783;ТЦ Черемушки;103;out;55.6694384587;37.5534777129;750;67;67;0;0;0;0;0
17790;Росбанк;103;in;55.6694358485;37.554219006;550;52;52;0;0;0;0;0
17791;Росбанк;103;out;55.6694358485;37.554219006;750;52;52;0;0;0;0;0
17792;Росбанк;103;in;55.669247915;37.5540180216;550;50;24;0;0;310;780;22
17793;Росбанк;103;out;55.669247915;37.5540180216;750;50;24;0;0;310;780;22
17800;ТЦ Панорама;103;both;55.6712420979;37.5554014207;550;51;24;0;0;320;780;22
17801;ТЦ Панорама;103;both;55.6710385033;37.5551795548;550;50;50;0;0;0;0;0
17810;Магазин Охотник;103;both;55.6710541644;37.5559417294;550;51;24;0;0;310;780;20
17811;Магазин Охотник;103;both;55.6708610106;37.5557303043;550;51;51;0;0;0;0;0
17820;ул. Крымский Вал;75;in;55.7292228966;37.6115408384;720;0;0;0;0;0;0;0
17821;ул. Крымский Вал;75;out;55.7293125017;37.6115497989;740;0;0;0;0;0;0;0
17822;МИСиС;75;both;55.729419;37.6113577;750;7;0;0;0;0;0;10
17830;ул. Большая Якиманка;98;in;55.7312930478;37.6128503697;720;0;0;0;0;0;0;0
17831;ул. Большая Якиманка;98;out;55.7311765237;37.6128503697;730;0;0;0;0;0;0;0
17840;К области, к троллейбусам по улице Народного Ополчения на юг;124;both;55.7939584062;37.4923188399;740;60;25;0;0;310;750;17
17850;К области, на южную сторону улицы Маршала Бирюзова;124;both;55.7941710161;37.4919624055;740;57;57;0;0;0;0;0
17860;К области, на западную сторону улицы Народного Ополчения;124;both;55.7941272435;37.4926565145;740;58;25;0;0;430;850;19
17870;К области, на северную сторону ул. Маршала Бирюзова;124;both;55.7943398534;37.492268814;740;59;25;0;0;280;710;19
17880;К центру, на улицу Маршала Малиновского;124;both;55.7928765968;37.4943636472;740;58;58;0;0;0;0;0
17890;На улицу Маршала Бирюзова;124;both;55.7926639868;37.4947388412;740;56;25;0;0;310;770;18
17900;К троллейбусам по Народного Ополчения к Соколу;124;both;55.7930641938;37.4947388412;740;60;25;0;0;430;900;19
17910;На улицу Маршала Бирюзова;124;both;55.7928640903;37.4951327949;740;57;25;0;0;330;870;18
17920;На Шипиловский проспект, в сторону области;22;both;55.6121228407;37.6959319427;720;1;0;0;0;0;0;0
17930;К парку Царицыно;22;both;55.6137455425;37.6934730527;720;47;25;0;0;330;730;23
17940;К автостанции;22;both;55.6141835716;37.6941672923;720;48;0;0;0;430;730;23
17950;К центру, улица Декабристов на восток;131;in;55.8625668017;37.6045379352;740;65;0;0;0;420;760;22
17951;К центру, улица Декабристов на восток;131;out;55.8625668017;37.6045379352;740;65;0;0;0;420;760;22
17952;К центру, улица Хачатуряна восточная сторона;131;in;55.8622447602;37.60423778;740;63;39;0;0;300;760;22
17953;К центру, улица Хачатуряна восточная сторона;131;out;55.8622447602;37.60423778;740;63;39;0;0;300;760;22
17960;К области, Северный бульвар, западная сторона;131;in;55.86434272;37.6054634137;740;64;40;0;0;300;770;24
17961;К области, Северный бульвар, западная сторона;131;out;55.86434272;37.6054634137;740;64;40;0;0;300;770;24
17962;К области, улица Декабристов на запад;131;in;55.8643489733;37.6046911394;740;24;0;0;0;300;770;24
17963;К области, улица Декабристов на запад;131;out;55.8643489733;37.6046911394;740;24;0;0;0;300;770;24
17970;К области, Северный бульвар, западная сторона;131;in;55.8641832626;37.6061575226;740;64;40;0;0;300;770;24
17971;К области, Северный бульвар, западная сторона;131;out;55.8641832626;37.6061575226;740;64;40;0;0;300;770;24
17972;К области, улица Декабристов на восток;131;in;55.8639487663;37.6061293831;740;24;0;0;0;300;770;24
17973;К области, улица Декабристов на восток;131;out;55.8639487663;37.6061293831;740;24;0;0;0;300;770;24
17980;К центру, к ТЦ;131;in;55.8150468159;37.7320865333;750;61;1;0;0;410;760;22
17981;К центру, к ТЦ;131;out;55.8628231843;37.6037625342;750;61;1;0;0;410;760;22
17982;К центру, улица Хачатуряна западная сторона;131;in;55.8624448637;37.6033529475;750;59;35;0;0;300;760;22
17983;К центру, улица Хачатуряна западная сторона;131;out;55.8624448637;37.6033529475;750;59;35;0;0;300;760;22
17990;улица Тверская, улица Моховая;10;both;55.7570418859;37.6144082727;730;51;51;0;0;0;0;0
18000;улица Тверская, улица Моховая;10;both;55.7568993271;37.6145799251;730;49;49;0;0;0;0;0
18010;улица Тверская, улица Моховая;10;both;55.7572862747;37.6147987032;730;51;25;0;0;415;815;23
18020;улица Тверская, улица Моховая;10;both;55.7571859498;37.6151472003;730;50;50;0;0;0;0;0
18030;Манежная площадь, гостиница Москва;10;both;55.7567362494;37.6159508594;730;58;34;0;0;415;815;25
18040;Манежная площадь, Исторический музей, Красная площадь;10;both;55.7561050709;37.6177220376;730;59;59;0;0;0;0;0
18050;Манежная площадь, гостиница Москва;10;both;55.7569080552;37.61570003;730;57;33;0;0;415;815;25
18060;На ул. Новокузнецкая;30;in;55.7314463454;37.6360323383;720;1;1;0;0;0;0;0
18061;На ул. Валовая;30;out;55.7313658139;37.6366111589;560;1;1;0;0;0;0;0
18062;На ул. Новокузнецкая;30;out;55.7314983554;37.6359870392;560;1;1;0;0;0;0;0
18063;На ул. Новокузнецкая;73;in;55.7314463454;37.6360323383;720;1;1;0;0;0;0;0
18064;На ул. Валовая;73;out;55.7313658139;37.6366111589;560;1;1;0;0;0;0;0
18065;На ул. Новокузнецкая;73;out;55.7314983554;37.6359870392;560;1;1;0;0;0;0;0
18066;На ул. Валовая;73;in;55.7312852823;37.6362068233;720;1;1;0;0;0;0;0
18067;На ул. Валовая;73;in;55.7312852823;37.6362068233;720;1;1;0;0;0;0;0
18070;В здание Павелецкого вокзала, выход к Аэроэкспрессам;30;out;55.7295119461;37.6400971211;590;0;0;0;0;0;0;0
18071;В здание Павелецкого вокзала;30;in;55.7295119461;37.6400971211;720;9;0;0;0;310;560;20
18072;В здание Павелецкого вокзала;30;out;55.7295119461;37.6400971211;540;9;0;0;0;310;560;20
18080;Крымская площадь, Зубовский бульвар (внешняя сторона Садового кольца);13;in;55.7351206599;37.5934010479;740;63;63;0;0;0;0;0
18081;Крымская площадь, Зубовский бульвар (внешняя сторона Садового кольца);76;in;55.7351206599;37.5934010479;740;0;0;0;0;0;0;0
18082;Крымская площадь, Зубовский бульвар (внешняя сторона Садового кольца);13;out;55.7352608397;37.593454215;740;21;21;0;0;0;0;0
18083;Крымская площадь, Зубовский бульвар (внешняя сторона Садового кольца);76;out;55.7352608397;37.593454215;740;0;0;0;0;0;0;0
18090;ул. Остоженка, внутренняя сторона Садового кольца;13;in;55.7361460234;37.5949497441;720;59;59;0;0;0;0;0
18091;ул. Остоженка, внутренняя сторона Садового кольца;13;out;55.7361460234;37.5949497441;550;60;60;0;0;0;0;0
18100;улица Генерала Ермолова;165;out;55.736456544;37.5159071924;740;39;0;0;0;310;670;17
18101;улица Генерала Ермолова;165;in;55.736456544;37.5159071924;740;39;12;0;0;310;670;17
18102;улица Генерала Ермолова;233;out;55.736456544;37.5159071924;740;39;0;0;0;310;670;17
18103;улица Генерала Ермолова;233;in;55.736456544;37.5159071924;740;39;12;0;0;310;670;17
18110;Парк Победы;165;out;55.7358180205;37.5171017988;740;51;31;0;0;390;620;19
18111;Парк Победы;165;in;55.7358180205;37.5171017988;740;51;43;0;0;390;620;19
18112;Парк Победы;233;out;55.7358180205;37.5171017988;740;51;31;0;0;390;620;19
18113;Парк Победы;233;in;55.7358180205;37.5171017988;740;51;43;0;0;390;620;19
18120;Триумфальная арка;165;out;55.7363269001;37.517630918;740;49;33;0;0;390;620;19
18121;Триумфальная арка;165;in;55.7363269001;37.517630918;740;49;45;0;0;390;620;19
18122;Триумфальная арка;233;out;55.7363269001;37.517630918;740;49;33;0;0;390;620;19
18123;Триумфальная арка;233;in;55.7363269001;37.517630918;740;49;45;0;0;390;620;19
18130;Парк Победы;165;out;55.7359365663;37.5178043997;740;48;0;0;0;390;620;24
18131;Парк Победы;165;in;55.7359365663;37.5178043997;740;48;12;0;0;390;620;24
18132;Парк Победы;233;out;55.7359365663;37.5178043997;740;48;0;0;0;390;620;24
18133;Парк Победы;233;in;55.7359365663;37.5178043997;740;48;12;0;0;390;620;24
18140;площадь Победы;165;out;55.736653624;37.5174053918;740;39;0;0;0;310;670;16
18141;площадь Победы;165;in;55.736653624;37.5174053918;740;39;12;0;0;310;670;16
18142;площадь Победы;233;out;55.736653624;37.5174053918;740;39;0;0;0;310;670;16
18143;площадь Победы;233;in;55.736653624;37.5174053918;740;39;12;0;0;310;670;16
18150;г-ца Измайловская;50;in;55.7885146638;37.7496783263;950;66;66;0;0;0;0;
18151;г-ца Измайловская;50;out;55.7883724466;37.7497036094;950;66;66;0;0;0;0;
18160;К области, на 9-ю Парковую, западную сторону;52;both;55.7957195677;37.7990077011;520;52;24;0;0;300;810;25
18170;К центру, на западную сторону;52;both;55.7935985598;37.799110863;550;53;24;0;0;400;805;25
18180;К области, на 9-ю Парковую, восточную сторону;52;both;55.7957360736;37.7997009489;520;53;53;0;0;0;0;0
18190;К центру, на Первомайскую улицу в направлении 16-й Парковой;52;both;55.7935903068;37.799762846;550;53;24;0;0;390;805;25
18200;К центру, Зелёный проспект в центр, северная сторона;80;both;55.7509784;37.7841057;720;59;24;0;0;325;790;19
18201;К центру, 2-я Владимирская на север, западная сторона;80;both;55.7512271;37.7843379;720;58;58;0;0;0;0;0
18210;К центру, 2-я Владимирская на юг, западная сторона;80;both;55.7505691;37.7847455;720;58;24;0;0;310;865;17
18211;К центру, 2-я Владимирская на юг, восточная сторона;80;both;55.7507838;37.7850613;720;58;24;0;0;310;865;17
18220;К центру, Зелёный проспект в сторону области на север;80;both;55.7511507;37.7850557;720;58;24;0;0;325;790;19
18221;К центру, 2-я Владимирская на север;80;both;55.7512811190738;37.784681354429;720;57;24;0;0;325;790;19
18230;К области, Зелёный проспект, северная сторона;80;both;55.7517542;37.7884106;720;62;24;0;0;310;865;17
18240;К области, Зелёный проспект, южная сторона;80;both;55.7512134748;37.7884164394;720;60;24;0;0;310;865;17
18250;К автобусам;133;out;55.8366285489;37.5752213838;740;2;2;0;0;0;0;0
18251;К автобусам;133;in;55.8366235413;37.5758323219;740;1;1;0;0;0;0;0
18260;На улицу Гурьянова, юго-западное направление;155;both;55.6926282222;37.7278343427;720;82;32;0;0;320;775;23
18270;На улицу Гурьянова, Речной проезд;155;both;55.6928511107;37.7278343427;720;82;32;0;0;315;780;23
18280;Центральный вход в вестибюль;155;both;55.6927903229;37.7282699884;720;22;0;0;0;320;770;23
18290;На улицы Шоссейная, Полбина;155;both;55.6923614018;37.7284468248;720;80;32;0;0;320;770;25
18300;На Шоссейную улицу в северном направлении;155;both;55.6926079596;37.7285637959;720;82;60;0;0;320;770;23
18310;Малая Филевская ул. (запад);63;out;55.73589993;37.4668050685;550;28;28;0;0;0;0;0
18311;Малая Филевская ул. (запад);63;in;55.7359567218;37.466773265;550;28;28;0;0;0;0;0
18320;Малая Филевская ул. (восток);63;out;55.7360226003;37.4675138303;550;28;28;0;0;0;0;0
18321;Малая Филевская ул. (восток);63;in;55.7360748488;37.4674888419;550;28;28;0;0;0;0;0
18330;Южный выход;128;out;55.8617397557;37.4362503847;710;3;0;0;0;0;0;17
18331;Южный вход;128;in;55.8617178694;37.436028395;710;47;44;0;0;0;0;17
18340;Северный выход;128;out;55.8595323643;37.4370289123;710;3;3;0;0;0;0;0
18341;Северный вход;128;in;55.8594854651;37.4368225556;710;47;47;0;0;0;0;0
18350;К пл. Серп и Молот, Золоторожскому валу;83;both;55.7473206031;37.6808201353;720;38;38;0;0;0;0;0
18351;К пл. Серп и Молот, Золоторожскому валу;152;both;55.7473206031;37.6808201353;720;54;40;0;0;480;870;19
18360;Площадь Революции;32;out;55.7567442733;37.6201967497;700;0;0;0;0;0;0;0
18361;Площадь Революции;45;out;55.7567442733;37.6201967497;700;0;0;0;0;0;0;0
18362;Площадь Революции;32;in;55.756670186;37.6195241151;700;0;0;0;0;0;0;0
18363;Площадь Революции;45;in;55.756670186;37.6195241151;700;0;0;0;0;0;0;0
18370;Богоявленский переулок;45;both;55.7564044716;37.6234319252;700;0;0;0;0;0;0;0
18380;К области, на троллейбусы по Хорошёвскому шоссе в области;123;both;55.7774545068;37.517108999;740;57;57;0;0;0;0;0
18390;К области, на западную сторону улицы Куусинена;123;both;55.7777609152;37.5172278104;740;59;24;0;0;310;710;17
18400;К области, вход с троллейбусного кольца;123;both;55.777068608;37.5171318669;740;57;24;0;0;310;820;18
18410;К области, на восточную сторону улицы Куусинена;123;both;55.7776671167;37.5176905497;740;56;23;0;0;310;790;18
18420;К центру, к Макдональдсу;123;out;55.7775418927;37.5211032115;740;38;1;0;0;320;750;17
18421;К центру, к Макдональдсу;123;in;55.7775418927;37.5211032115;740;86;49;0;0;320;750;17
18430;К центру, на Хорошёвское шоссе, к проезду Берёзовой Рощи;123;out;55.7780819228;37.5214976155;740;42;34;0;0;320;750;16
18431;К центру, на Хорошёвское шоссе, к проезду Берёзовой Рощи;123;in;55.7780819228;37.5214976155;740;90;82;0;0;320;750;16
18440;К центру, на Хорошёвское шоссе;123;out;55.7779848387;37.5209545515;740;36;0;0;0;320;750;20
18441;К центру, на Хорошёвское шоссе;123;in;55.7779848387;37.5209545515;740;84;48;0;0;320;750;20
18450;К центру на южную сторону Хорошёвского шоссе, к Магистральным улицам;123;out;55.7776541462;37.5217190885;740;38;38;0;0;0;0;0
18451;К центру на южную сторону Хорошёвского шоссе, к Магистральным улицам;123;in;55.7776541462;37.5217190885;740;86;86;0;0;0;0;0
18460;На Полянку;141;both;55.7368410129;37.6187424164;740;52;0;0;0;395;760;25
18470;К области, к Электронному Раю и Подольских Курсантов;150;out;55.6106015056;37.6044777436;800;33;0;0;0;420;760;20
18471;К области, к Электронному Раю и Подольских Курсантов;150;in;55.6106015056;37.6044777436;800;72;39;0;0;420;760;20
18472;К области, Кировоградская улица, восточная сторона;150;out;55.6105452265;37.603846167;800;36;36;0;0;0;0;0
18473;К области, Кировоградская улица, восточная сторона;150;in;55.6105452265;37.603846167;800;75;75;0;0;0;0;0
18480;К центру, Кировоградская улица, западная сторона на север;150;out;55.6137218691;37.6044027048;800;37;0;0;0;400;830;20
18481;К центру, Кировоградская улица, западная сторона на север;150;in;55.6137218691;37.6044027048;800;76;39;0;0;400;830;20
18482;К центру, Кировоградская улица, западная сторона на юг;150;out;55.6133154089;37.6042088545;800;35;35;0;0;0;0;0
18483;К центру, Кировоградская улица, западная сторона на юг;150;in;55.6133154089;37.6042088545;800;74;74;0;0;0;0;0
18490;К области, к бывшему рынку;150;out;55.6114581986;37.6044214645;800;39;39;0;0;0;0;0
18491;К области, к бывшему рынку;150;in;55.6114581986;37.6044214645;800;78;78;0;0;0;0;0
18500;К области, к ТЦ Пражский пассаж;150;out;55.6110767514;37.6046590873;800;33;0;0;0;420;760;20
18501;К области, к ТЦ Пражский пассаж;150;in;55.6110767514;37.6046590873;800;72;39;0;0;420;760;20
18510;К центру, Кировоградская улица, восточная сторона;150;out;55.6136593368;37.604890457;800;35;0;0;0;410;820;20
18511;К центру, Кировоградская улица, восточная сторона;150;in;55.6136593368;37.604890457;800;74;39;0;0;410;820;20
18512;К центру, Кировоградская улица, восточная сторона на юг;150;out;55.6132528766;37.6046903535;800;34;34;0;0;0;0;0
18513;К центру, Кировоградская улица, восточная сторона на юг;150;in;55.6132528766;37.6046903535;800;73;73;0;0;0;0;0
18520;К области, улица Красного Маяка, северная ст.;150;out;55.6114269324;37.6025392412;800;36;36;0;0;0;0;0
18521;К области, улица Красного Маяка, северная ст.;150;in;55.6114269324;37.6025392412;800;75;75;0;0;0;0;0
18530;К области, улица Красного Маяка, южная ст.;150;out;55.6109454335;37.6023766571;800;36;36;0;0;0;0;0
18531;К области, улица Красного Маяка, южная ст.;150;in;55.6109454335;37.6023766571;800;75;75;0;0;0;0;0
18532;К области, Кировоградская улица, западная сторона;150;out;55.6107140638;37.6029519546;800;36;0;0;0;400;860;20
18533;К области, Кировоградская улица, западная сторона;150;in;55.6107140638;37.6029519546;800;75;39;0;0;400;860;20
18540;К области, ТЦ Пражский Град;150;out;55.6116583021;37.6032708695;800;42;0;0;0;410;890;20
18541;К области, ТЦ Пражский Град;150;in;55.6116583021;37.6032708695;800;81;39;0;0;410;890;20
18550;Краснобогатырская улица, Преображенская площадь, KFC;3;both;55.7961978777957;37.7134335467632;730;51;51;0;0;0;0;0
18560;Краснобогатырская улица, Преображенская площадь, KFC;3;both;55.7962752201329;37.713889310424;730;51;24;0;0;310;805;25
18561;Краснобогатырская улица, Преображенская площадь;3;both;55.7959000442787;37.7135169017192;730;58;24;0;0;410;1100;18
18562;ул. Преображенский вал, ктр. Моссовета, Деловой центр;3;both;55.7952955213488;37.7138411901981;730;64;24;0;0;410;1100;18
18563;ул. Преображенский вал, ктр. Моссовета, Деловой центр;3;both;55.7951955506994;37.7141801239631;730;62;24;0;0;410;1100;18
18564;ул. Преображенский вал;3;both;55.7955636766469;37.7148370696557;730;53;24;0;0;410;1100;18
18565;ул. Преображенский вал;3;both;55.7952508286196;37.7148579914931;730;53;53;0;0;410;1100;18
18570;Большая и Малая Черкизовские улицы;3;both;55.7969098399999;37.71701697;750;53;53;0;0;0;0;0
18580;Большая Черкизовская улица, Российская государственная библиотека молодежи;3;both;55.7959609099999;37.7170028099999;750;53;53;0;0;0;0;0
18590;Большая и Малая Черкизовские улицы;3;both;55.79682502;37.71657837;750;53;24;0;0;405;890;24
18600;Большая Черкизовская улица, Российская государственная библиотека молодежи;3;both;55.79607044;37.71755995;750;57;24;0;0;395;705;17
18601;Большая Черкизовская улица, трамвай в сторону области;3;both;55.7963590350317;37.7174209073593;750;58;58;0;0;0;0;0
18602;Большая Черкизовская улица, трамвай в сторону центра;3;both;55.7964330539683;37.7173859684393;750;58;58;0;0;0;0;0
18610;3-й Крутицкий переулок северная сторона, к Москве-реке;115;both;55.7316390180461;37.6640246855337;720;57;5;0;0;320;750;21
18611;3-й Крутицкий переулок северная сторона, к автобусной остановка;115;both;55.7317647702203;37.6644483285638;720;58;34;0;0;320;750;21
18612;К трамваям на Павелецкую, Угрешскую;115;both;55.7314834477855;37.6641720396311;720;59;35;0;0;320;750;21
18613;К трамваям на Абельмановскую, шоссе Энтузиастов;115;both;55.7313952910294;37.6642388094565;720;59;35;0;0;320;750;21
18620;К Крутицкому валу;115;both;55.73117528;37.66451377;720;58;34;0;0;320;750;21
18630;Выход со станции Пролетарская на 1-ю Дубровскую улицу;115;both;55.73132245;37.66501164;720;58;6;0;0;320;750;21
18640;К области, на Абельмановскую;115;both;55.73244426;37.66796565;720;63;39;0;0;320;750;21
18650;К области, на 1-ю Дубровскую улицу;115;both;55.7318835477;37.6678189177;720;62;12;0;0;320;750;21
18660;К области, к Волгоградскому проспекту;115;both;55.73222956;37.66837582;720;61;11;0;0;320;750;21
18670;ктр "Звездный", гостиница "Комета", проспект Вернадского (в сторону области);18;both;55.6765260271;37.5045412413;720;52;52;0;0;0;0;0
18680;ктр "Звездный", гостиница "Комета", проспект Вернадского (в сторону области);18;both;55.6766655548;37.5047982661;720;52;52;0;0;0;0;0
18690;ктр "Звездный", гостиница "Комета", проспект Вернадского (в сторону области);18;both;55.6763595729;37.5053245549;720;52;24;0;0;330;775;22
18700;ктр "Звездный", гостиница "Комета", проспект Вернадского (в сторону области);18;both;55.6762127016;37.5050724259;720;52;52;0;0;0;0;22
18710;проспект Вернадского (в сторону центра);18;both;55.6759997382;37.5054396041;720;52;52;0;0;0;0;22
18720;проспект Вернадского (в сторону центра);18;both;55.6761441617;37.5056794939;720;52;24;0;0;320;775;22
18730;проспект Вернадского (в сторону области);18;both;55.6777952346;37.5076344028;720;36;36;0;0;0;0;0
18731;парк 50-летия Октября;18;both;55.6780669141;37.5071673046;720;49;36;0;0;0;0;18
18740;Вход на радиальную;93;in;55.7817532281;37.6333502866;740;1;1;0;0;0;0;0
18741;Выход с радиальной;93;out;55.7817532281;37.6333502866;540;1;1;0;0;0;0;0
18750;Вход на кольцевую;69;in;55.7795899504;37.6335555779;750;0;0;0;0;0;0;0
18751;Выход с кольцевой;69;out;55.7796514192;37.6335725322;750;1;1;0;0;0;0;0
18760;ул.Архитектора Власова;102;both;55.6772773575;37.5619198851;740;49;1;0;0;310;770;20
18762;ул.Архитектора Власова;102;both;55.6771041718;37.5617385813;740;51;27;0;0;300;770;20
18770;ИНИОН;102;both;55.6770906417;37.5624583841;740;51;27;0;0;300;770;10
18772;ИНИОН;102;both;55.676909338;37.5622716684;740;47;0;0;0;310;770;22
18780;ул.Ивана Бабушкина;102;both;55.6789187765;37.5635616766;740;53;29;0;0;300;770;20
18781;ул.Ивана Бабушкина;102;both;55.678735191;37.5633627923;740;48;0;0;0;310;770;22
18790;Инстит океанологии РАН им.ПП.Ширшова;102;both;55.6787313663;37.5641315566;740;52;0;0;0;310;770;20
18791;Инстит океанологии РАН им.ПП.Ширшова;102;both;55.6785554302;37.5639288476;740;50;26;0;0;300;770;20
18810;На Пушкинскую площадь, южную сторону, выход из длинного перехода;33;both;55.7648699982;37.6063946094;720;35;35;0;0;0;0;0
18811;На Пушкинскую площадь, южную сторону, выход из длинного перехода;119;both;55.7648699982;37.6063946094;720;35;35;0;0;0;0;0
18812;На Тверскую, восточную сторону, в направлении центра;33;both;55.7647478816;37.6060696551;720;40;40;0;0;0;0;0
18813;На Тверскую, восточную сторону, в направлении центра;119;both;55.7647478816;37.6060696551;720;40;40;0;0;0;0;0
18830;К памятнику Пушкину, северный вход в сквере;33;both;55.7653105895;37.6051036892;720;39;14;0;0;320;750;20
18831;К памятнику Пушкину, северный вход в сквере;119;both;55.7653105895;37.6051036892;720;39;14;0;0;320;750;20
18832;К памятнику Пушкину, южный вход в сквере;33;both;55.7650831848;37.6054280256;720;51;51;0;0;0;0;0
18833;К памятнику Пушкину, южный вход в сквере;119;both;55.7650831848;37.6054280256;720;51;51;0;0;0;0;0
18840;Митинская ул. (восток);212;both;55.8544891739;37.3543182246;800;75;29;1;29;400;900;21
18850;Митинская ул. (восток);212;both;55.8549780472;37.3546682821;800;69;29;2;61;0;0;5
18860;Митинская ул. (запад);212;both;55.8552617145;37.3529662785;800;70;63;2;63;0;0;5
18861;Митинская ул. (запад);212;both;55.8548694087;37.3527791788;800;73;29;2;66;0;0;5
18870;Журавская ул., Пятницкое шоссе;212;in;55.8571462611;37.3551028388;800;0;0;0;0;0;0;0
18871;Журавская ул., Пятницкое шоссе;212;out;55.8571462611;37.3551028388;850;0;0;0;0;0;0;0
18880;В область;41;in;55.8557081836;37.4756698337;720;0;0;0;0;0;0;0
18881;В область;41;out;55.8557288814;37.4758395551;720;0;0;0;0;0;0;0
18890;В центр;41;in;55.85425309;37.47662482;720;42;42;0;0;0;0;0
18891;В центр;41;out;55.8542924591;37.4768206274;550;0;0;0;0;0;0;0
18900;К центру;92;both;55.792479358;37.635978079;800;0;0;0;0;0;0;0
18910;Улица Сергия Радонежского к центру, южная сторона;152;both;55.7464513972;37.6788622705;720;32;0;0;0;480;680;19
18911;Улица Сергия Радонежского к центру, южная сторона;83;both;55.7464513972;37.6788622705;720;29;10;0;0;399;680;17
18912;Улица Сергия Радонежского к центру, северная сторона;152;both;55.7469515;37.6801577;720;28;0;0;0;480;870;19
18913;Улица Сергия Радонежского к центру, северная сторона;83;both;55.7469515;37.6801577;720;24;10;0;0;480;870;19
18920;К троллейбусам в область, на Рабочую улицу;152;both;55.7464513972;37.6815000093;720;32;0;0;0;480;870;19
18921;К троллейбусам в область, на Рабочую улицу;83;both;55.7464513972;37.6815000093;720;29;10;0;0;480;870;19
18930;Южный вестибюль(из центра);111;out;55.7162059013;37.7929157332;700;4;0;0;0;360;770;22
18931;Южный вестибюль (в центр);111;in;55.7162492293;37.7927032197;700;44;40;0;0;300;765;22
18940;Северный вестибюль (в центр);111;out;55.7176439777;37.7938998973;800;3;3;0;0;0;0;0
18941;Северный вестибюль (в центр);111;in;55.7176790528;37.7937203957;800;45;45;0;0;0;0;0
18950;Выход с пригородных поездов;136;out;55.7942088588;37.588839327;740;36;4;0;0;480;840;18
18951;Выход с пригородных поездов;136;in;55.7942088588;37.588839327;740;36;1;0;0;480;870;18
18952;На проход между путями к Складочной улице;136;out;55.7940087553;37.5897804386;740;42;42;0;0;0;0;0
18953;На проход между путями к Складочной улице;136;in;55.7940087553;37.5897804386;740;42;39;0;0;400;840;17
18954;На платформу Савёловская;136;out;55.7939977124;37.5899962473;740;59;59;0;0;0;0;0
18955;На платформу Савёловская;136;in;55.7939977124;37.5899962473;740;59;56;0;0;400;840;17
18956;ТК "Савеловский";136;out;55.7938899439;37.590152506;740;54;17;0;0;700;1000;26
18957;ТК "Савеловский";136;in;55.7938899439;37.590152506;740;54;14;0;0;700;840;26
18958;На Сущёвский Вал;136;out;55.7935153561;37.5900410564;740;75;15;0;0;310;710;19
18959;На Сущёвский Вал;136;in;55.7935153561;37.5900410564;740;75;12;0;0;400;710;19
18960;К Савёловскому вокзалу и Бутырской улице;136;out;55.7940400215;37.5871228144;740;41;4;0;0;400;840;20
18961;К Савёловскому вокзалу и Бутырской улице;136;in;55.7940400215;37.5871228144;740;41;1;0;0;400;840;20
18970;К области, на северо-запад, Кольская улица;88;in;55.8561248771;37.653884449;800;66;27;0;0;320;800;20
18971;К области, на северо-запад, Кольская улица;88;out;55.8561248771;37.653884449;830;66;27;0;0;320;800;20
18980;К центру, на проезд Русанова;88;in;55.854811698;37.6514144217;800;60;60;0;0;0;0;0
18981;К центру, на проезд Русанова;88;out;55.854811698;37.6514144217;830;60;60;0;0;0;0;0
18982;К центру, на западную сторону Снежной улицы;88;in;55.8545365558;37.6511080133;800;66;27;0;0;370;890;20
18983;К центру, на западную сторону Снежной улицы;88;out;55.8545365558;37.6511080133;830;66;27;0;0;370;890;20
18990;К центру, на восточную сторону Снежной улицы;88;in;55.8542989329;37.6514081685;800;66;27;0;0;320;800;20
18991;К центру, на восточную сторону Снежной улицы;88;out;55.8542989329;37.6514081685;830;66;27;0;0;320;800;20
19000;К области, на восток, Берингов проезд;88;in;55.8557309234;37.6545222788;800;63;27;0;0;320;800;20
19001;К области, на восток, Берингов проезд;88;out;55.8557309234;37.6545222788;830;63;27;0;0;320;800;20
19010;На площадь между выходами;147;both;55.6516602091;37.5982086181;720;35;35;0;0;0;0;0
19020;Азовская улица на юг, западная сторона;147;both;55.6513600539;37.5982211245;720;40;40;0;0;0;0;0
19030;Азовская улица на юг, восточная сторона;147;both;55.6509223276;37.5987338897;720;28;28;0;0;0;0;0
19040;К Чонгарскому бульвару на восток;147;both;55.6512162295;37.5987213832;720;35;35;0;0;0;0;0
19050;Выход;49;out;55.7830886048;37.7192921432;840;0;0;0;0;0;0;0
19051;Вход;49;in;55.7829606841;37.7194675184;680;0;0;0;0;0;0;0
19060;На западную сторону;142;both;55.7268882719;37.624828675;720;42;4;0;0;330;670;20
19070;На восточную сторону;142;both;55.7268325645;37.6256663494;720;35;0;0;0;330;670;20
19080;Рублевское шоссе;216;both;55.7293358152;37.4693116766;800;37;37;0;0;400;900;20
19090;Кутузовский проспект;216;both;55.7293308612;37.4728455295;800;63;26;2;63;0;0;0
19100;Кутузовский проспект;216;both;55.730797245;37.4725449869;730;78;53;1;25;400;700;16
19110;улица Герасима Курина;216;both;55.7302027651;37.4731064402;730;62;37;1;25;400;900;20
19120;Смоленская площадь;56;in;55.748907956;37.582240876;550;55;55;0;0;0;0;0
19121;Смоленская площадь;56;out;55.7489349931;37.5818275939;550;55;55;0;0;0;0;0
19130;Арбат, Трилинский переулок;43;in;55.7479021458;37.5838150783;750;0;0;0;0;0;0;0
19131;Арбат, Трилинский переулок;43;out;55.7478742212;37.5835988672;750;0;0;0;0;0;0;0
19140;На мост, на юг, по лестнице направо;38;in;55.8044792389;37.5144035606;790;56;23;0;0;420;820;20
19141;На мост, на юг, по лестнице налево;38;out;55.8044378434;37.514627096;790;55;55;0;0;0;0;0
19150;На мост, на север к Метромаркету, по лестнице налево.;38;in;55.8055306834;37.5150493297;720;57;57;0;0;0;0;0
19151;На мост, на север к Метромаркету, по лестнице направо.;38;out;55.8054396134;37.5153473769;720;57;57;0;0;0;0;0
19160;В сторону центра, из стеклянных дверей направо, потом направо. К пожарной части;38;out;55.8042810016;37.5158198997;550;62;0;0;0;370;520;20
19170;В сторону центра, из стеклянных дверей налево, потом налево;38;out;55.805086405;37.5164185521;550;59;0;0;0;310;520;20
19180;В сторону центра, из стеклянных дверей налево, потом направо;38;out;55.8049814866;37.5168382259;550;60;0;0;0;360;520;20
19190;В сторону центра, из стеклянных дверей направо, потом налево. К пожарной части;38;out;55.8042192849;37.5161192259;550;62;0;0;0;370;520;20
19200;Сокольническая площадь, Русаковская улица, парк "Сокольники";4;both;55.78930272;37.67989579;730;39;39;0;0;0;0;0
19210;Сокольническая площадь, Русаковская улица, парк "Сокольники";4;both;55.7892344763;37.6796138713;730;39;39;0;0;0;0;0
19220;Со стороны области, к стадиону;15;both;55.7222775402;37.5619226581;730;0;0;0;0;0;0;0
19230;Со стороны центра, на ул. 10-летия Октября;15;out;55.7240052053;37.5655314611;730;0;0;0;0;0;0;0
19231;Со стороны центра, на ул. 10-летия Октября;15;in;55.7238385777;37.5657375532;730;0;0;0;0;0;0;0
19240;Тургеневская площадь, проспект ак. Сахарова;219;out;55.76611907;37.6371236499999;790;46;1;0;0;420;670;20
19241;Тургеневская площадь, проспект ак. Сахарова;219;in;55.76611907;37.6371236499999;790;44;1;0;0;420;670;20
19242;Тургеневская площадь, проспект ак. Сахарова;95;out;55.7661190699999;37.6371236499999;850;26;1;0;0;290;670;18
19243;Тургеневская площадь, проспект ак. Сахарова;95;in;55.7661190699999;37.6371236499999;790;48;23;0;0;290;670;18
19244;Сретенский бульвар, проспект ак. Сахарова, здание Lukoil;219;out;55.7663399296;37.6367092064;790;46;1;0;0;420;580;20
19245;Сретенский бульвар, проспект ак. Сахарова, здание Lukoil;219;in;55.7663399296;37.6367092064;790;44;1;0;0;420;580;20
19246;Сретенский бульвар, проспект ак. Сахарова, здание Lukoil;95;out;55.7663399296;37.6367092064;850;26;1;0;0;285;580;20
19247;Сретенский бульвар, проспект ак. Сахарова, здание Lukoil;95;in;55.7663399296;37.6367092064;790;48;23;0;0;285;580;20
19250;Сретенский бульвар, проспект ак. Сахарова, здание Lukoil;219;out;55.76567532;37.6375741499999;790;42;22;0;0;420;890;20
19251;Сретенский бульвар, проспект ак. Сахарова, здание Lukoil;219;in;55.76567532;37.6375741499999;790;40;22;0;0;420;870;20
19252;Тургеневская площадь (внешняя сторона Бульварного кольца);95;out;55.7656753199999;37.6375741499999;850;22;22;0;0;0;0;0
19253;Тургеневская площадь (внешняя сторона Бульварного кольца);95;in;55.7656753199999;37.6375741499999;790;44;44;0;0;0;0;0
19254;Сретенский бульвар, проспект ак. Сахарова, здание Lukoil;219;out;55.766302883;37.6362626148;790;51;31;0;0;420;890;20
19255;Сретенский бульвар, проспект ак. Сахарова, здание Lukoil;219;in;55.766302883;37.6362626148;790;49;31;0;0;420;870;20
19256;Сретенский бульвар, проспект ак. Сахарова, здание Lukoil;95;out;55.766302883;37.6362626148;850;31;31;0;0;0;0;0
19257;Сретенский бульвар, проспект ак. Сахарова, здание Lukoil;95;in;55.766302883;37.6362626148;790;53;53;0;0;0;0;0
19260;Строгинский бульвар (запад);211;both;55.8036358091;37.4013830402;800;42;35;0;0;0;0;5
19261;Строгинский бульвар (запад);211;both;55.8038234711;37.4004916456;800;44;0;0;0;0;0;5
19270;Строгинский бульвар (запад);211;both;55.8043523369;37.4018394001;800;38;38;0;0;0;0;0
19271;Строгинский бульвар (запад);211;both;55.8045399989;37.4009437405;800;37;1;0;0;0;0;5
19280;Строгинский бульвар (восток);211;both;55.8030259075;37.4042491512;800;76;69;1;30;0;0;5
19281;Строгинский бульвар (восток);211;both;55.8028382455;37.4051405458;800;75;31;1;30;0;0;5
19290;Строгинский бульвар (восток);211;both;55.803716845;37.4047268364;800;67;67;1;30;0;0;0
19291;Строгинский бульвар (восток);211;both;55.8035206529;37.4056310261;800;66;31;1;30;0;0;5
19300;Киевская улица;58;in;55.7388971564;37.5483342554;730;23;23;0;0;0;0;0
19301;Киевская улица;58;out;55.7388652216;37.5482327484;570;23;23;0;0;0;0;0
19302;Киевская улица;58;out;55.7389290912;37.5484836646;550;23;23;0;0;0;0;0
19310;На юго-запад;94;out;55.772271448;37.6321228094;830;35;0;0;0;300;770;17
19311;На юго-запад;94;in;55.772271448;37.6321228094;550;35;0;0;0;300;770;17
19312;На северо-запад, за Садовое кольцо;94;out;55.7730250194;37.6318757881;830;35;0;0;0;380;900;16
19313;На северо-запад, за Садовое кольцо;94;in;55.7730250194;37.6318757881;550;35;0;0;0;380;900;16
19320;На юго-восток, в сквер;94;out;55.7723183508;37.6331108948;830;40;34;0;0;300;760;16
19321;На юго-восток, в сквер;94;in;55.7723183508;37.6331108948;550;40;34;0;0;300;760;16
19322;На северо-восток, на проспект Мира, к Склифу;94;out;55.7729593555;37.6329232837;830;41;0;0;0;360;820;16
19323;На северо-восток, на проспект Мира, к Склифу;94;in;55.7729593555;37.6329232837;550;41;0;0;0;360;820;16
19330;К области, на улицу Яниса Райниса, на троллейбус в запданом на наравлении;127;out;55.8514236165;37.4385711124;740;34;34;0;0;0;0;0
19331;К области, на улицу Яниса Райниса, на троллейбус в запданом на наравлении;127;in;55.8514236165;37.4385711124;740;67;34;0;0;0;0;0
19340;К области, на травмай;127;out;55.8516237199;37.4388837741;740;37;1;0;0;280;540;20
19341;К области, на травмай;127;in;55.8516237199;37.4388837741;740;70;1;0;0;280;540;20
19350;К центру, на южную сторону бульвара Яна Райниса, на запад;127;both;55.8495476464;37.4392996141;740;60;60;0;0;0;0;0
19360;К центру, на западную сторону Сходненской улицы;127;both;55.8493319099;37.4393621464;740;59;25;0;0;350;800;20
19370;К области, на ул. Героев-Панфиловцев;127;out;55.851664366;37.4400531287;740;37;0;0;0;300;560;18
19371;К области, на ул. Героев-Панфиловцев;127;in;55.851664366;37.4400531287;740;70;0;0;0;300;560;18
19380;К области, на северо-восток;127;out;55.8515518078;37.4402626121;740;36;1;0;0;400;880;20
19381;К области, на северо-восток;127;in;55.8515518078;37.4402626121;740;69;1;0;0;400;880;20
19390;К центру, на автобусную остановку на север;127;both;55.849682091;37.4407628707;740;58;25;0;0;300;600;16
19400;К центру на Сходненскую улицу, восточную сторону;127;both;55.8492130985;37.4407753772;740;54;54;0;0;0;0;0
19410;К центру, на Химкинский бульвар и ТРЦ Калейдоскоп;127;both;55.8496133054;37.4410755324;740;58;58;0;0;0;0;0
19420;Улица Большие Каменщики, западная сторона;72;both;55.7393028717;37.6530166016;740;28;28;0;0;0;0;0
19430;На южную часть площади;72;both;55.7397548143;37.6534287732;740;32;32;0;0;0;0;0
19440;На улицу Большие Каменщики, восточную сторону;116;both;55.7394836488;37.6536384745;740;30;30;0;0;0;0;0
19450;Вход с северной стороны площади на Кольцевую;116;in;55.7423543877;37.6537107853;750;0;0;0;0;0;0;0
19451;Выход с Кольцевой на северную сторону площади;116;out;55.7424520073;37.653634859;750;0;0;0;0;0;0;0
19460;К Макдональдсу;119;both;55.7652963714;37.6040681849;720;44;44;0;0;0;0;0
19461;К Макдональдсу;33;both;55.7652963714;37.6040681849;720;44;44;0;0;0;0;0
19462;На Тверскую, западную сторону, в направлении области;119;both;55.7732407711;37.5483637603;720;43;43;0;0;310;750;20
19463;На Тверскую, западную сторону, в направлении области;33;both;55.7732407711;37.5483637603;720;43;43;0;0;310;750;20
19470;На Тверской бульвар со стороны центра;119;both;55.7643637639;37.605507222;720;35;35;0;0;0;0;0
19471;На Тверской бульвар со стороны центра;33;both;55.7643637639;37.605507222;720;35;35;0;0;0;0;0
19472;На Тверскую, западную сторону, в направлении центра;119;both;55.7643519532;37.6057394994;720;37;37;0;0;0;0;0
19473;На Тверскую, западную сторону, в направлении центра;33;both;55.7643519532;37.6057394994;720;37;37;0;0;0;0;0
19474;На Тверскую, восточную сторону, в направлении области;119;both;55.7657082169;37.6041194629;720;46;14;0;0;320;750;20
19475;На Тверскую, восточную сторону, в направлении области;33;both;55.7657082169;37.6041194629;720;46;14;0;0;320;750;20
19480;Большая Дмитровка;32;in;55.7587994993;37.6175664518;790;44;44;0;0;0;0;0
19481;Большая Дмитровка;10;in;55.7587994993;37.6175664518;790;44;44;0;0;0;0;0
19482;Большая Дмитровка;32;out;55.7587994993;37.6175664518;540;43;43;0;0;0;0;0
19483;Большая Дмитровка;10;out;55.7587994993;37.6175664518;540;43;43;0;0;0;0;0
19484;Большой театр, Малый театр;32;in;55.7588932826;37.6180289002;790;45;45;0;0;0;0;0
19485;Большой театр, Малый театр;10;in;55.7588932826;37.6180289002;790;45;45;0;0;0;0;0
19486;Большой театр, Малый театр;32;out;55.7588932826;37.6180289002;540;43;43;0;0;0;0;0
19487;Большой театр, Малый театр;10;out;55.7588932826;37.6180289002;540;43;43;0;0;0;0;0
19490;На Шоссейную улицу;113;out;55.7085241632;37.7288833537;700;31;0;0;0;330;715;22
19491;С Шоссейной улицы;113;in;55.7085241632;37.7288833537;800;31;0;0;0;330;715;22
19500;В область, на север по Люблинской улице;113;out;55.7095516554;37.7331315593;740;26;1;0;0;310;750;25
19501;В область, на север по Люблинской улице;113;in;55.7095516554;37.7331315593;540;26;1;0;0;310;750;25
19510;В область, на южную сторону Волгоградского проспекта;113;out;55.7089780754;37.7336721275;740;27;1;0;0;360;820;25
19511;В область, на южную сторону Волгоградского проспекта;113;in;55.7089780754;37.7336721275;540;27;1;0;0;360;820;25
19520;На Люблинскую улицу;113;out;55.7081899188;37.7298551385;700;25;0;0;0;330;770;22
19521;С Люблинской улицы;113;in;55.7081899188;37.7298551385;740;25;0;0;0;330;770;22
19530;В область, вход с троллейбусов по Волгоградскому проспекту;113;out;55.7095578451;37.7336267363;740;26;26;0;0;0;0;0
19531;В область, вход с троллейбусов по Волгоградскому проспекту;113;in;55.7095578451;37.7336267363;540;26;26;0;0;0;0;0
19540;В область, на автобусы и троллейбусы по Волгоградскому проспекту в область;113;out;55.7089698225;37.7331604446;740;27;27;0;0;0;0;0
19541;В область, на автобусы и троллейбусы по Волгоградскому проспекту в область;113;in;55.7089698225;37.7331604446;540;27;27;0;0;0;0;0
19550;К пригородным  поездам от Москвы;113;out;55.7082683218;37.7293661512;700;59;0;0;0;330;770;25
19551;С платформы пригородных поездов от Москвы;113;in;55.7082683218;37.7293661512;740;59;0;0;0;330;770;25
19552;С платформы пригородных поездов к Москве;113;in;55.7082868909;37.7296219927;740;59;0;0;0;330;765;25
