id_entrance;name_ru;name_en;id_station;direction;lat;lon;max_width;min_step;min_step_ramp;lift;lift_minus_step;min_rail_width;max_rail_width;max_angle;escalator
14800;"шоссе Энтузиастов, кинотеатр ""Факел""";"shosse Entuziastov, cinema ""Fakel""";82;in;55.7516306;37.7162886;740;43;15;0;0;290;690;19;1
14801;"шоссе Энтузиастов, кинотеатр ""Факел""";"shosse Entuziastov, cinema ""Fakel""";82;out;55.7516306;37.7162886;740;43;10;0;0;350;690;19;1
14810;шоссе Энтузиастов, трамвайная остановка;shosse Entuziastov, tramway stop;82;in;55.7515293;37.7163578;740;41;41;0;0;0;0;0;1
14811;"шоссе Энтузиастов, кинотеатр ""Факел""";shosse Entuziastov, tramway stop;82;out;55.7515293;37.7163578;740;41;36;0;0;350;950;19;1
14820;ул. Авиамоторная, ул. Красноказарменная;ul. Aviamotornaja, ul. Krasnokazarmennaja;82;in;55.7519587988;37.7167891091;740;44;44;0;0;0;0;0;1
14821;ул. Авиамоторная, ул. Красноказарменная;ul. Aviamotornaja, ul. Krasnokazarmennaja;82;out;55.7519587988;37.7167891091;740;44;39;0;0;350;950;19;1
14830;шоссе Энтузиастов, 2-й Кабельный проезд;shosse Entuziastov, Vtoroj Kabel'nyj proezd;82;in;55.7512042;37.7165431;740;41;15;0;0;280;680;15;1
14831;шоссе Энтузиастов, 2-й Кабельный проезд;shosse Entuziastov, Vtoroj Kabel'nyj proezd;82;out;55.7512042;37.7165431;740;41;10;0;0;350;680;18;1
14840;сквер им. Калинина, Лефортовский рынок;skver im. Kalinina, Lefortovskij market;82;in;55.7522830788;37.717153178;740;42;42;0;0;0;0;0;1
14841;сквер им. Калинина, Лефортовский рынок;skver im. Kalinina, Lefortovskij market;82;out;55.7522830788;37.717153178;740;42;37;0;0;350;950;19;1
14850;Дангауэровский путепровод;Dangaujerovskij overpass;82;in;55.7519110521;37.7175590253;740;41;41;0;0;0;0;0;1
14851;Дангауэровский путепровод;Dangaujerovskij overpass;82;out;55.7519110521;37.7175590253;740;41;36;0;0;350;950;19;1
14860;ул. Авиамоторная, ж/д платформа;ul. Aviamotornaja, railway platform;82;in;55.7509103;37.7178209;740;43;15;0;0;280;680;15;1
14861;ул. Авиамоторная, ж/д платформа;ul. Aviamotornaja, railway platform;82;out;55.7509103;37.7178209;740;43;10;0;0;350;680;18;1
14870;"ж/д платформа ""Новая"", ул. 2-я Кабельная";"railway platform ""Novaja"", ul. Vtoraja Kabel'naja";82;in;55.7510902;37.7179455;740;43;16;0;0;280;680;15;1
14871;"ж/д платформа ""Новая"", ул. 2-я Кабельная";"railway platform ""Novaja"", ul. Vtoraja Kabel'naja";82;out;55.7510902;37.7179455;740;43;11;0;0;350;680;18;1
14880;"ул. Авиамоторная, НИИ ""Интеграл""";"ul. Aviamotornaja, NII ""Integral""";82;in;55.7508406;37.7175337;740;44;44;0;0;0;0;0;1
14881;"ул. Авиамоторная, НИИ ""Интеграл""";"ul. Aviamotornaja, NII ""Integral""";82;out;55.7508406;37.7175337;740;44;39;0;0;350;950;19;1
14890;Автозаводская пл., 1-й, 2-й Автозаводский пр-д;Avtozavodskaja square, Pervyj i Vtoroj Avtozavodskij proezd;29;both;55.7063848977;37.6571586945;720;1;1;0;0;0;0;0;1
14900;"ул. Мастеркова, стадион ""Торпедо""";"ul. Masterkova, staduim ""Torpedo""";29;both;55.70865724;37.65732061;720;36;5;0;0;330;820;20;1
14910;ул. Автозаводская;ul. Avtozavodskaja;29;both;55.7084058706;37.6582850423;720;35;3;0;0;310;800;20;1
14920;ул. Дмитрия Ульянова, ул. Ивана Бабушкина;ul. Dmitrija Ul'janova, ul. Ivana Babushkina;101;out;55.6871860715;37.5723893715;740;31;31;0;0;0;0;0;1
14921;ул. Профсоюзная, ул. Львова, ул. Кедрова;ul. Profsojuznaja, ul. L'vova, ul. Kedrova;101;out;55.6869882565;37.5721915565;740;34;34;0;0;0;0;0;1
14922;ул. Дмитрия Ульянова, ул. Ивана Бабушкина;ul. Dmitrija Ul'janova, ul. Ivana Babushkina;101;in;55.6871860715;37.5723893715;740;58;58;0;0;0;0;0;0
14923;ул. Профсоюзная, ул. Львова, ул. Кедрова;ul. Profsojuznaja, ul. L'vova, ul. Kedrova;101;in;55.6869882565;37.5721915565;740;61;61;0;0;0;0;0;0
14930;ул. Дмитрия Ульянова, ул. Новочеремушкинская;ul. Dmitrija Ul'janova, ul. Novocheremushkinskaja;101;out;55.6869715981;37.5730589672;740;31;31;0;0;0;0;0;1
14931;ул. Профсоюзная, ул. Кедрова;ul. Profsojuznaja, ul. Kedrova;101;out;55.6867753562;37.5728476298;740;34;34;0;0;0;0;0;1
14932;ул. Дмитрия Ульянова, ул. Новочеремушкинская;ul. Dmitrija Ul'janova, ul. Novocheremushkinskaja;101;in;55.6869715981;37.5730589672;740;58;58;0;0;0;0;0;0
14933;ул. Профсоюзная, ул. Кедрова;ul. Profsojuznaja, ul. Kedrova;101;in;55.6867753562;37.5728476298;740;61;61;0;0;0;0;0;0
14940;проспект 60-летия Октября, Черемушкинский пр-д;prospekt Shestidesjatiletija Oktjabrja, Cheremushkinskij proezd;101;both;55.6888019309;37.5741496191;740;48;23;0;0;290;760;22;0
14941;ул. Дмитрия Ульянова, Эндокринологический центр;ul. Dmitrija Ul'janova, Endocrinology center;101;both;55.6886170107;37.5739307339;740;51;51;0;0;0;0;0;0
14950;проспект 60-летия Октября, ул. Гримау;prospekt Shestidesjatiletija Oktjabrja, ul. Grimau;101;both;55.6886132368;37.574855335;740;47;47;0;0;0;0;0;0
14951;площадь Хо Ши Мина;square Ho Shi Mina;101;both;55.6883339695;37.5745458767;740;51;23;0;0;290;760;24;0
14960;ул. Воздвиженка, РГБ;ul. Vozdvizhenka, RGB;54;in;55.7522714905;37.6101026316;730;77;46;0;0;310;860;20;0
14961;ул. Воздвиженка, РГБ;ul. Vozdvizhenka, RGB;54;out;55.7522714905;37.6101026316;550;80;49;0;0;310;860;20;0
14962;ул. Воздвиженка, РГБ;ul. Vozdvizhenka, RGB;44;in;55.7522714905;37.6101026316;730;62;31;0;0;310;860;20;1
14963;ул. Воздвиженка, РГБ;ul. Vozdvizhenka, RGB;44;out;55.7522714905;37.6101026316;550;65;34;0;0;310;860;20;1
14964;ул. Воздвиженка, РГБ;ul. Vozdvizhenka, RGB;11;in;55.7522714905;37.6101026316;730;87;56;0;0;310;860;20;0
14965;ул. Воздвиженка, РГБ;ul. Vozdvizhenka, RGB;11;out;55.7522714905;37.6101026316;550;90;59;0;0;310;860;20;0
14970;ул. Моховая, РГБ;ul. Mohovaja, RGB;54;in;55.7519823491;37.6102607558;730;71;71;0;0;0;0;0;0
14971;ул. Моховая, РГБ;ul. Mohovaja, RGB;54;out;55.7519823491;37.6102607558;550;74;74;0;0;0;0;0;0
14972;ул. Моховая, РГБ;ul. Mohovaja, RGB;44;in;55.7519823491;37.6102607558;730;56;56;0;0;0;0;0;1
14973;ул. Моховая, РГБ;ul. Mohovaja, RGB;44;out;55.7519823491;37.6102607558;550;59;59;0;0;0;0;0;1
14974;ул. Моховая, РГБ;ul. Mohovaja, RGB;11;in;55.7519823491;37.6102607558;730;81;81;0;0;0;0;0;0
14975;ул. Моховая, РГБ;ul. Mohovaja, RGB;11;out;55.7519823491;37.6102607558;550;84;84;0;0;0;0;0;0
14976;ул. Моховая, ул. Знаменка;ul. Mohovaja, ul. Znamenka;11;out;55.7504768240987;37.6091400800502;730;29;29;0;0;0;0;0;1
14977;ул. Моховая, ул. Знаменка;ul. Mohovaja, ul. Znamenka;140;out;55.7504768240987;37.6091400800502;730;23;23;0;0;0;0;0;2
14978;ул. Моховая, ул. Знаменка;ul. Mohovaja, ul. Znamenka;11;in;55.7504768240987;37.6091400800502;730;69;69;0;0;0;0;0;0
14979;ул. Моховая, ул. Знаменка;ul. Mohovaja, ul. Znamenka;140;in;55.7504768240987;37.6091400800502;730;63;63;0;0;0;0;0;1
14980;Александровский сад, кассы Московского Кремля;Aleksandrovskij sad, Moscow Kremlin ticket office;54;in;55.7518946194;37.612542833;730;83;52;0;0;350;710;20;0
14981;Александровский сад, кассы Московского Кремля;Aleksandrovskij sad, Moscow Kremlin ticket office;54;out;55.7518946194;37.612542833;550;86;55;0;0;350;710;20;0
14982;Александровский сад, кассы Московского Кремля;Aleksandrovskij sad, Moscow Kremlin ticket office;44;in;55.7518946194;37.612542833;730;68;37;0;0;350;710;20;1
14983;Александровский сад, кассы Московского Кремля;Aleksandrovskij sad, Moscow Kremlin ticket office;44;out;55.7518946194;37.612542833;550;71;40;0;0;350;710;20;1
14984;Александровский сад, кассы Московского Кремля;Aleksandrovskij sad, Moscow Kremlin ticket office;11;in;55.7518946194;37.612542833;730;93;62;0;0;350;710;20;0
14985;Александровский сад, кассы Московского Кремля;Aleksandrovskij sad, Moscow Kremlin ticket office;11;out;55.7518946194;37.612542833;550;96;65;0;0;350;710;20;0
14990;проспект Мира;prospekt Mira;91;out;55.8076782158;37.6386520152;740;1;1;0;0;0;0;0;1
14991;проспект Мира;prospekt Mira;91;in;55.8079141083;37.6385764087;740;3;3;0;0;0;0;0;1
15000;ул. Ключевая;ul. Kljuchevaja;225;both;55.6321826509;37.7671080498;800;71;30;2;71;0;1000;2;0
15010;ул. Братеевская;ul. Brateevskaja;225;both;55.633708429394;37.7652156136226;800;3;0;0;0;0;1000;6;1
15011;ул. Братеевская;ul. Brateevskaja;225;both;55.6337779005953;37.7654835906599;800;3;0;0;0;0;1000;6;1
15020;ул. Череповецкая, парк Чермянка;ul. Cherepoveckaja, park Chermjanka;129;both;55.8987623686;37.586449957;740;64;34;0;0;300;770;22;0
15022;Алтуфьевское шоссе, пандус;Altuf'evskoe shosse, ramp;129;both;55.8990187512;37.5864249441;900;30;0;0;0;300;770;22;0
15030;ул. Череповецкая;ul. Cherepoveckaja;129;both;55.8970739956;37.5865906547;740;61;36;0;0;300;780;22;0
15032;Алтуфьевское шоссе, ул. Илимская;Altuf'evskoe shosse, ul. Ilimskaja;129;both;55.8966393959;37.5865687684;740;56;1;0;0;400;780;22;0
15040;ул. Лескова, Шенкурский пр-д;ul. Leskova, Shenkurskij proezd;129;both;55.8970614891;37.5878162885;740;63;0;0;0;420;780;22;0
15042;ул. Пришвина;ul. Prishvina;129;both;55.8966143829;37.5878100353;740;62;37;0;0;300;780;22;0
15050;ул. Лескова;ul. Leskova;129;both;55.8987436089;37.5878413014;740;67;37;0;0;300;770;22;0
15052;Алтуфьевский лесопарк;Altuf'evskij lesopark;129;both;55.8992313611;37.5878569345;740;71;1;0;0;390;770;22;0
15060;"дублер Варшавского шоссе, ЖК ""Аннинский"", лесопарк";"dubler Varshavskogo shosse, housing estate ""Anninskij"", lesopark";163;both;55.58378375;37.59656057;740;39;0;0;0;420;870;20;1
15062;Варшавское шоссе (четная сторона);Varshavskoe shosse (even side);163;both;55.5834835962;37.5971640043;740;36;1;0;0;410;870;20;1
15070;Варшавское шоссе, перехватывающая парковка, ГАИ;Varshavskoe shosse, parking, GAI;163;both;55.5814559495;37.5961940092;800;66;2;0;0;370;940;23;0
15072;Варшавское шоссе (нечетная сторона), Макдональдс;Varshavskoe shosse (odd side), McDonalds;163;both;55.5836992732;37.5978924977;740;31;31;0;0;0;0;0;1
15074;Варшавское шоссе;Varshavskoe shosse;163;both;55.583634881;37.5975598046;740;0;0;0;0;0;1000;5;1
15076;Варшавское шоссе (нечетная сторона), пандус;Varshavskoe shosse (odd side), ramp;163;both;55.5835168287;37.5978603016;740;1;1;0;0;0;1000;5;1
15080;улица Воздвиженка, Генштаб;ulica Vozdvizhenka, Genshtab;44;both;55.7524138022;37.6033981675;735;0;0;0;0;0;0;0;1
15090;"кинотеатр ""Художественный""";"cinema ""Hudozhestvennyj""";55;in;55.7521439397;37.6017436358;750;67;67;0;0;0;0;0;0
15091;ул. Воздвиженка;ul. Vozdvizhenka;55;in;55.7521926879;37.601636736;750;67;67;0;0;0;0;0;0
15092;Гоголевский бульвар;Gogolevskiy boulevard;55;out;55.7521540715;37.601529973;550;68;68;0;0;0;0;0;0
15100;Финансовая академия, ул. Викторенко;Finansovaja akademija, ul. Viktorenko;37;out;55.8004353056;37.5306640955;720;49;21;0;0;300;620;20;1
15101;Финансовая академия, ул. Викторенко;Finansovaja akademija, ul. Viktorenko;37;in;55.8004353056;37.5306640955;720;70;42;0;0;300;620;20;0
15110;"галерея ""Аэропорт"", МАДИ";"galereja ""Aeroport"", MADI";37;out;55.8013473014;37.5318384463;720;52;21;0;0;300;620;20;1
15111;"галерея ""Аэропорт"", МАДИ";"galereja ""Aeroport"", MADI";37;in;55.8013473014;37.5318384463;720;73;42;0;0;300;620;20;0
15120;Ленинградский проспект, ул. 1-я Аэропортовская;Leningradskij prospekt, ul. Pervaja Aeroportovskaja;37;both;55.7999949241;37.5343901605;720;58;58;0;0;0;0;0;0
15130;Ленинградский проспект;Leningradskij prospekt;37;both;55.8009787552;37.5321132943;720;58;58;0;0;0;0;0;0
15140;ул. Менжинского, ул. Енисейская;ul. Menzhinskogo, ul. Enisejskaja;87;both;55.8687860517;37.6634401742;750;33;33;0;0;0;0;0;1
15142;ул. Енисейская, ул. Ленская;ul. Enisejskaja, ul. Lenskaja;87;both;55.8684046045;37.663246324;750;34;0;0;0;320;750;18;1
15150;ул. Енисейская, Староватутинский пр-д, к Яузе;ul. Enisejskaja, Starovatutinskij proezd, Jauza river;87;both;55.8707245541;37.6644094254;740;61;37;0;0;310;770;22;0
15152;ул. Менжинского, Олонецкий пр-д;ul. Menzhinskogo, Oloneckij proezd;87;both;55.870374373;37.6642155752;740;67;30;0;0;370;770;22;0
15160;ул. Енисейская, Староватутинский пр-д, ул. Тайнинская;ul. Enisejskaja, Starovatutinskij proezd, ul. Tajninskaja;87;both;55.8706119959;37.6652911313;740;54;30;0;0;310;770;22;0
15162;ул. Менжинского, ул. Тайнинская;ul. Menzhinskogo, ul. Tajninskaja;87;both;55.8702368019;37.6651035343;740;59;35;0;0;350;800;22;0
15170;ул. Барклая, ул. Сеславинская;ul. Barklaja, ul. Seslavinskaja;61;in;55.7436635459;37.4974001378;550;28;28;0;0;0;0;0;0
15171;"ул. Барклая, ТЦ ""Горбушкин двор""";"ul. Barklaja, shopping mall ""Gorbushkin dvor""";61;out;55.7436105773;37.4974464853;560;28;28;0;0;0;0;0;0
15180;"ул. Барклая, ТЦ ""Горбушкин двор""";"ul. Barklaja, shopping mall ""Gorbushkin dvor""";61;in;55.7438312796;37.4982101153;550;28;28;0;0;0;0;0;0
15181;ул. Барклая, ул. Сеславинская;ul. Barklaja, ul. Seslavinskaja;61;out;55.7438732131;37.4981659749;560;28;28;0;0;0;0;0;0
15190;ул. Баррикадная;ul. Barrikadnaja;120;out;55.7607458833;37.5815686799;730;0;0;0;0;0;0;0;1
15191;ул. Баррикадная;ul. Barrikadnaja;120;in;55.7606388237;37.5812906368;730;0;0;0;0;0;0;0;1
15200;ул. Бауманская;ul. Baumanskaja;47;out;55.7723959516;37.6792845414;720;0;0;0;0;0;0;0;1
15201;ул. Бауманская;ul. Baumanskaja;47;in;55.7723815089;37.6788450718;720;0;0;0;0;0;0;0;1
15210;Хорошевское шоссе, ул. Розанова;Horoshevskoe shosse, ul. Rozanova;122;out;55.7733625391;37.5444708477;810;31;1;0;0;300;840;24;1
15211;Хорошевское шоссе, ул. Розанова;Horoshevskoe shosse, ul. Rozanova;122;in;55.7733625391;37.5444708477;810;78;48;0;0;300;840;24;0
15220;"Хорошевское шоссе, ТЦ ""На Беговой""";"Horoshevskoe shosse, shopping mall ""Na Begovoj""";122;out;55.7739818026;37.5445253398;810;36;1;0;0;310;810;22;1
15221;"Хорошевское шоссе, ТЦ ""На Беговой""";"Horoshevskoe shosse, shopping mall ""Na Begovoj""";122;in;55.7739818026;37.5445253398;810;83;48;0;0;310;810;22;0
15230;Хорошевское шоссе, автобусная остановка, ж/д платформа;Horoshevskoe shosse, bus stop, railway platform;122;out;55.7732627443;37.5490669016;740;40;40;0;0;0;0;0;1
15231;Хорошевское шоссе, автобусная остановка, ж/д платформа;Horoshevskoe shosse, bus stop, railway platform;122;in;55.7732627443;37.5490669016;740;73;73;0;0;0;0;0;0
15232;ж/д платформа ;railway platform ;122;out;55.7729483569;37.5489786447;740;55;55;0;0;0;0;0;1
15233;ж/д платформа ;railway platform ;122;in;55.7729483569;37.5489786447;740;88;88;0;0;0;0;0;0
15234;Хорошевское шоссе, автобусная остановка, пандус;Horoshevskoe shosse, bus stop, ramp;122;out;55.7732407711;37.5483637603;740;2;2;0;0;0;1000;5;1
15235;Хорошевское шоссе, автобусная остановка, пандус;Horoshevskoe shosse, bus stop, ramp;122;in;55.7732407711;37.5483637603;740;35;35;0;0;0;1000;5;0
15240;"ул. Беговая, ОЦ ""На Беговой""";"ul. Begovaja, office center ""Na Begovoj""";122;out;55.7743579378;37.5492757884;740;48;37;0;0;0;1000;4;1
15241;"ул. Беговая, ОЦ ""На Беговой""";"ul. Begovaja, office center ""Na Begovoj""";122;in;55.7743579378;37.5492757884;740;81;70;0;0;0;1000;4;0
15250;Грузинский вал, Белорусский вокзал;Gruzinskij val, Belorusskij railway station;67;in;55.7754196298;37.5827102001;720;2;2;0;0;0;0;0;1
15251;Грузинский вал, Белорусский вокзал;Gruzinskij val, Belorusskij railway station;67;out;55.775302476;37.5828010458;800;0;0;0;0;0;0;0;1
15260;вход в здание Белорусского вокзала;entrance to Belorusskij railway station building;35;in;55.7772410298;37.5821803383;720;0;0;0;0;0;0;0;1
15261;Белорусский вокзал, аэроэкспресс;Belorusskij railway station, aeroexpress;35;out;55.7774904851;37.5822168634;720;0;0;0;0;0;0;0;1
15262;Ленинградский пр-т, путепровод;Leningradskij prospekt, overpass;35;in;55.777539077;37.5821223847;720;40;40;0;0;0;0;0;1
15270;Бутырский вал;Butyrskij val;67;both;55.7774314489;37.5857155101;550;68;30;0;0;320;770;20;1
15271;ул. Лесная;ul. Lesnaja;67;both;55.7776549843;37.5862453719;550;73;63;0;0;320;970;20;1
15281;НИИ вычислительных комплексов им.М.А.Карцева;NII vychislitel'nyh kompleksov im.M.A.Karceva;105;both;55.6418457923;37.5254266438;740;56;24;0;0;320;770;18;0
15283;НИИ вычислительных комплексов им.М.А.Карцева;NII vychislitel'nyh kompleksov im.M.A.Karceva;105;both;55.6415752669;37.525248343;740;50;50;0;0;0;0;0;0
15291;АШАН Сити;"""AUCHAN City"" shopping mall";105;both;55.6417228262;37.5260783641;740;59;25;0;0;310;780;20;0
15293;АШАН Сити;"""AUCHAN City"" shopping mall";105;both;55.6414338559;37.5258877667;740;53;53;0;0;0;0;0;0
15300;ул. Профсоюзная (дублер);ul. Profsojuznaja (dubler);105;both;55.6437855825;37.5267977158;740;38;38;0;0;0;0;0;1
15301;ул. Профсоюзная (дублер);ul. Profsojuznaja (dubler);105;both;55.6434904638;37.5266071183;740;32;0;0;0;330;780;17;1
15310;ул. Генерала Антонова;ul. Generala Antonova;105;both;55.6436687647;37.5274555844;740;31;31;0;0;0;0;0;1
15311;ул. Генерала Антонова;ul. Generala Antonova;105;both;55.6433982393;37.5272496161;740;28;0;0;0;330;780;20;1
15320;"ТВК ""Миллион мелочей""";"shopping mall ""Million melochej""";130;out;55.8840584012;37.6046887952;720;39;34;0;0;500;1000;17;1
15321;"ТВК ""Миллион мелочей""";"shopping mall ""Million melochej""";130;in;55.8840584012;37.6046887952;720;76;71;0;0;500;1000;17;0
15322;"БЦ ""Бибиревский""";"business center ""Bibirevskij""";130;out;55.8838301582;37.6041541437;720;37;1;0;0;500;960;17;1
15323;"БЦ ""Бибиревский""";"business center ""Bibirevskij""";130;in;55.8838301582;37.6041541437;720;74;38;0;0;500;960;17;0
15330;"ул. Костромская, ТЦ ""Александр Лэнд""";"ul. Kostromskaja, shopping mall ""Alexander Land""";130;both;55.8844367218;37.6013089225;730;49;27;0;0;300;740;24;0
15332;ул. Костромкая, ул. Бибиревская;ul. Kostromkaja, ul. Bibirevskaja;130;both;55.884199099;37.6016778633;730;50;0;0;0;350;740;24;0
15340;ул. Пришвина, ул. Плещеева;ul. Prishvina, ul. Plescheeva;130;out;55.8835956619;37.6054360566;720;43;38;0;0;500;1000;17;0
15341;ул. Пришвина, ул. Плещеева;ul. Prishvina, ul. Plescheeva;130;in;55.8835956619;37.6054360566;720;80;75;0;0;500;1000;17;0
15342;"ТК ""Гран плюс""";"shopping mall ""Gran plus""";130;out;55.8833705455;37.6048982785;720;38;0;0;0;500;870;20;0
15343;"ТК ""Гран плюс""";"shopping mall ""Gran plus""";130;in;55.8833705455;37.6048982785;720;75;37;0;0;500;870;20;0
15350;ул. Воздвиженка, Староваганьковский пер.;ul. Vozdvizhenka, Starovagan'kovskij per.;54;both;55.7522963385;37.6088986291;800;41;41;0;0;0;0;0;0
15351;ул. Воздвиженка, Староваганьковский пер.;ul. Vozdvizhenka, Starovagan'kovskij per.;44;both;55.7522963385;37.6088986291;800;60;60;0;0;0;0;0;1
15352;ул. Воздвиженка, Староваганьковский пер.;ul. Vozdvizhenka, Starovagan'kovskij per.;11;both;55.7522963385;37.6088986291;800;85;85;0;0;0;0;0;0
15353;ул. Манежная;ul. Manezhnaja;54;in;55.7517553465;37.612200378;730;100;69;0;0;350;710;20;0
15354;ул. Манежная;ul. Manezhnaja;54;out;55.7517553465;37.612200378;550;103;72;0;0;350;710;20;0
15355;ул. Манежная;ul. Manezhnaja;44;in;55.7517553465;37.612200378;730;85;54;0;0;350;710;20;1
15356;ул. Манежная;ul. Manezhnaja;44;out;55.7517553465;37.612200378;550;88;57;0;0;350;710;20;1
15357;ул. Манежная;ul. Manezhnaja;11;in;55.7517553465;37.612200378;730;110;79;0;0;350;710;20;0
15358;ул. Манежная;ul. Manezhnaja;11;out;55.7517553465;37.612200378;550;113;82;0;0;350;710;20;0
15360;ул. Воздвиженка, ул. Моховая, факультет журналистики МГУ;ul. Vozdvizhenka, ul. Mohovaja, MSU faculty of journalism;54;in;55.7525965287;37.6108505739;730;71;46;0;0;430;710;23;0
15361;ул. Воздвиженка, ул. Моховая, факультет журналистики МГУ;ul. Vozdvizhenka, ul. Mohovaja, MSU faculty of journalism;54;out;55.7525965287;37.6108505739;550;74;49;0;0;430;710;23;0
15362;ул. Воздвиженка, ул. Моховая, факультет журналистики МГУ;ul. Vozdvizhenka, ul. Mohovaja, MSU faculty of journalism;44;in;55.7525965287;37.6108505739;730;56;31;0;0;430;710;23;1
15363;ул. Воздвиженка, ул. Моховая, факультет журналистики МГУ;ul. Vozdvizhenka, ul. Mohovaja, MSU faculty of journalism;44;out;55.7525965287;37.6108505739;550;59;34;0;0;430;710;23;1
15364;ул. Воздвиженка, ул. Моховая, факультет журналистики МГУ;ul. Vozdvizhenka, ul. Mohovaja, MSU faculty of journalism;11;in;55.7525965287;37.6108505739;730;81;56;0;0;430;710;23;0
15365;ул. Воздвиженка, ул. Моховая, факультет журналистики МГУ;ul. Vozdvizhenka, ul. Mohovaja, MSU faculty of journalism;11;out;55.7525965287;37.6108505739;550;84;59;0;0;430;710;23;0
15370;Братеевский проезд;Brateevskij proezd;220;both;55.6322978835;37.7435165293;725;39;1;0;0;355;900;21;1
15380;ул. Борисовские пруды;ul. Borisovskie prudy;220;both;55.6341131889;37.744575886;780;39;0;2;39;0;1000;5;0
15400;пр-д Серебрякова, ул. Вильгельма Пика;proezd Serebrjakova, ul. Vil'gel'ma Pika;89;both;55.8459218829;37.6384264754;740;57;25;0;0;370;830;20;0
15410;пр-д Серебрякова, 1-й Ботанический пр-д;proezd Serebrjakova, Pervyj Botanicheskij proezd;89;both;55.8466222451;37.638789163;740;50;50;0;0;0;0;0;0
15412;пр-д Серебрякова, ул. Снежная;proezd Serebrjakova, ul. Snezhnaja;89;both;55.8466410048;37.6393582072;740;57;24;0;0;370;830;20;0
15420;Ботанический сад;Botanicheskij sad;89;out;55.843796976;37.6375904993;740;1;1;0;0;0;0;0;1
15421;Ботанический сад;Botanicheskij sad;89;in;55.8439149222;37.6373667039;740;1;1;0;0;0;0;0;1
15440;ул. Перерва, ул. Люблинская, 1-й мкр. Марьинского парка;ul. Pererva, ul. Ljublinskaja, Pervyj mikrorajon Mar'inskogo parka;158;both;55.6586660023;37.7489336659;740;59;1;0;0;410;720;19;0
15450;"ул. Перерва, ""Ашан""";"ul. Pererva, ""AUCHAN"" shopping mall";158;both;55.6592834565;37.749752625;740;64;1;0;0;410;720;19;0
15460;ул. Перерва, Мячковский б-р;ul. Pererva, Mjachkovskij boulevard;158;both;55.6590283463;37.7499451169;740;64;38;0;0;310;720;19;0
15470;ул. Перерва, 5-й мкр. Марьинского парка;ul. Pererva, Pjatyj mikrorajon Mar'inskogo parka;158;both;55.6598671002;37.7520871998;740;64;1;0;0;410;720;19;0
15480;ул. Перерва, ул. Братиславская, парк;ul. Pererva, ul. Bratislavskaja, park;158;both;55.6601520573;37.752761619;740;58;32;0;0;310;720;19;0
15490;"ул. Перерва, ТЦ ""БУМ""";"ul. Pererva, shopping mall ""BUM""";158;both;55.6600217408;37.7517529765;740;60;0;0;0;410;720;19;0
15500;ул. Адмирала Лазарева, ул. Южнобутовская;ul. Admirala Lazareva, ul. Juzhnobutovskaja;193;both;55.5450344982;37.5415677647;800;0;0;1;0;0;0;0;0
15510;б-р Дмитрия Донского, мкр. 2 и 2А Северного Бутова;boulevard Dmitrija Donskogo, mikrorajon 2 and 2A Severnogo Butova;164;both;55.5702548144;37.576433133;740;61;37;0;0;300;770;20;0
15511;б-р Дмитрия Донского, мкр. 2 и 2А Северного Бутова;boulevard Dmitrija Donskogo, mikrorajon 2 and 2A Severnogo Butova;191;both;55.5702548144;37.576433133;740;61;37;0;0;300;770;20;0
15512;ул. Знаменские Садки;ul. Znamenskie Sadki;164;both;55.5706487663;37.5767270337;740;58;1;0;0;420;770;20;0
15513;ул. Знаменские Садки;ul. Znamenskie Sadki;191;both;55.5706487663;37.5767270337;740;58;1;0;0;420;770;20;0
15520;"ТРК ""Круг""";"shopping mall ""Krug""";164;both;55.5699546605;37.5779213958;740;67;43;0;0;300;770;20;0
15521;"ТРК ""Круг""";"shopping mall ""Krug""";191;both;55.5699546605;37.5779213958;740;67;43;0;0;300;770;20;0
15522;ул. Старокачаловская;ul. Starokachalovskaja;164;both;55.5703235996;37.5782090433;740;64;2;0;0;420;770;21;0
15523;ул. Старокачаловская;ul. Starokachalovskaja;191;both;55.5703235996;37.5782090433;740;64;2;0;0;420;770;21;0
15524;б-р Дмитрия Донского, автобусы на Подольск;boulevard Dmitrija Donskogo, buses to Podolsk;164;both;55.5700859778;37.5771397452;740;60;1;0;0;410;770;20;0
15525;б-р Дмитрия Донского, автобусы на Подольск;boulevard Dmitrija Donskogo, buses to Podolsk;191;both;55.5700859778;37.5771397452;740;60;1;0;0;410;770;20;0
15540;Чонгарский б-р, ул. Артековская;Chongarskij boulevard, ul. Artekovskaja;27;out;55.6530417319;37.6180533197;540;29;0;0;0;320;830;22;1
15541;Чонгарский б-р, ул. Артековская;Chongarskij boulevard, ul. Artekovskaja;27;in;55.6530417319;37.6180533197;740;76;47;0;0;320;830;22;0
15550;Варшавское шоссе;Varshavskoe shosse;27;out;55.653166796;37.6207547044;740;28;28;0;0;0;0;0;1
15551;Варшавское шоссе;Varshavskoe shosse;27;in;55.653166796;37.6207547044;740;69;69;0;0;0;0;0;0
15553;вход в торговый центр;entrance to shopping mall;27;both;55.6537612008;37.6202167419;740;24;24;0;0;0;0;0;1
15554;"ж/д станция ""Коломенское"", платформа №1";"railway station ""Kolomenskoe,"" platform №1";27;both;55.6537272089;37.622019714;740;85;85;0;0;0;0;0;0
15556;"ж/д станция ""Коломенское"", платформа №2";"railway station ""Kolomenskoe"", platform №2";27;both;55.653730014;37.6222441291;740;87;47;0;0;300;765;25;0
15560;ул. Болотниковская, Чонгарский б-р;ul. Bolotnikovskaja, Chongarskij boulevard;27;out;55.6534732031;37.6180095473;540;29;0;0;0;310;800;22;1
15561;ул. Болотниковская, Чонгарский б-р;ul. Bolotnikovskaja, Chongarskij boulevard;27;in;55.6534732031;37.6180095473;740;76;47;0;0;310;800;22;0
15570;Каширский пр-д, пригородные кассы;Kashirskij proezd, suburban trains ticket office;27;both;55.6536318325;37.6231333737;740;87;48;0;0;310;750;20;0
15580;ВДНХ, Аллея Космонавтов;VDNH, Alleja Kosmonavtov;90;both;55.8202442077;37.6400193656;800;65;26;0;0;410;1000;20;1
15590;ул. Церковная горка, ул. Кибальчича;ul. Cerkovnaja gorka, ul. Kibalchicha;90;both;55.8195751117;37.6407447407;800;62;62;0;0;0;0;0;1
15600;Останкинский пр-д, Звездный б-р;Ostankinskij proezd, Zvezdnyj boulevard;90;both;55.8199002798;37.6396254119;800;64;64;0;0;0;0;0;1
15610;ул. Космонавтов;ul. Kosmonavtov;90;both;55.8199377992;37.6411512009;800;69;26;0;0;410;1000;20;1
15620;"Главный вход ВДНХ, гостиница ""Космос""";"VDNH main entrance, hotel ""Cosmos""";90;out;55.8222744745;37.6417014564;800;0;0;0;0;0;0;0;1
15621;"Главный вход ВДНХ, гостиница ""Космос""";"VDNH main entrance, hotel ""Cosmos""";90;in;55.8224390838;37.6414949466;800;0;0;0;0;0;0;0;1
15630;ул. Станционная, Ботанический сад;ul. Stancionnaja, Botanicheskij sad;132;out;55.8460327815;37.5896400891;750;2;2;0;0;0;0;0;1
15631;ул. Станционная, Ботанический сад;ul. Stancionnaja, Botanicheskij sad;132;in;55.8460984404;37.5891773498;750;2;2;0;0;0;0;0;1
15640;Сигнальный пр-д;Signal'nyj proezd;132;out;55.8482901988;37.5907250251;740;1;1;0;0;0;0;0;1
15641;Сигнальный пр-д;Signal'nyj proezd;132;in;55.8483308448;37.5903717174;740;2;2;0;0;0;0;0;1
15650;"ТЦ ""Персей""";"shopping mall ""Persej""";40;in;55.8406195405;37.4861842792;720;43;0;0;0;320;770;23;0
15651;Кронштадтский б-р;Kronshtadtskij boulevard;40;out;55.840669215;37.4863415819;550;0;0;0;0;0;0;0;1
15660;ул. Адмирала Макарова;ul. Admirala Makarova;40;in;55.839121025;37.4873681892;530;44;0;0;0;310;760;24;0
15661;Головинское шоссе;Golovinskoe shosse;40;out;55.8391624205;37.4875586083;530;0;0;0;0;0;0;0;1
15670;2-й Войковский пр-д;Vtoroj Vojkovskij proezd;39;both;55.8180467453;37.4980782657;720;51;25;0;0;300;740;20;0
15680;3-й Войковский пр-д;Tretij Vojkovskij proezd;39;both;55.8198865427;37.496617808;720;46;24;0;0;360;820;26;0
15690;"Старопетровский пр-д, ТЦ ""Метрополис""";"Staropetrovskij proezd, shopping mall ""Metropolis""";39;both;55.8200635678;37.4979075629;720;50;24;0;0;780;330;20;0
15700;3-й Войковский пр-д;Tretij Vojkovskij proezd;39;both;55.819632045;37.4967980737;720;50;50;0;0;0;0;0;0
15710;2-й Войковский пр-д;Vtoroj Vojkovskij proezd;39;both;55.8178918482;37.4982173569;720;55;55;0;0;0;0;0;0
15720;парк им. Воровского;park im. Vorovskogo;39;both;55.8183976345;37.4990582265;720;49;24;0;0;320;780;20;0
15730;ул. Космодемьянских;ul. Kosmodem'janskih;39;both;55.8177843687;37.4995671739;720;46;24;0;0;420;880;25;0
15740;Волгоградский пр-т, ул. Мельникова;Volgogradskij prospekt, ul. Mel'nikova;114;both;55.7256807813;37.685131139;740;53;25;0;0;310;750;25;0
15741;ул. Новоостаповская;ul. Novoostapovskaja;114;both;55.7245363533;37.6877733292;740;55;53;0;0;0;1000;10;0
15750;Волгоградский пр-т, под мост;Volgogradskij prospekt, under the bridge;114;both;55.7255119313;37.6856220548;740;53;53;0;0;0;0;0;0
15751;Волгоградский пр-т, МФЮА;Volgogradskij prospekt, Financial Academy;114;both;55.7244488015;37.6885081396;740;52;52;0;0;0;0;0;0
15760;Люблинский парк;Ljublinskij park;156;both;55.691167128;37.7509629281;720;63;39;0;0;315;750;20;0
15770;Люблинский парк;Ljublinskij park;156;both;55.6909693436;37.7516693007;720;64;1;0;0;415;750;20;0
15780;ул. Краснодонская, Люблинский парк;ul. Krasnodonskaja, Ljublinskij park;156;both;55.6907187008;37.7553240613;590;70;5;0;0;410;750;20;0
15790;ул. Краснодонская, Кузьминский лесопарк;ul. Krasnodonskaja, Kuz'minskij  woodland park;156;both;55.6906699593;37.7562826441;590;59;3;0;0;350;750;20;0
15800;Новотушинский пр-д, Цариков пер.;Novotushinskij proezd, Carikov per.;214;in;55.8364438999;37.3813282131;800;0;0;0;0;0;0;0;1
15801;Новотушинский пр-д, Цариков пер.;Novotushinskij proezd, Carikov per.;214;out;55.8364438999;37.3813282131;800;0;0;0;0;0;0;0;1
15810;Новотушинский пр-д;Novotushinskij proezd;214;both;55.8346327959;37.3832984006;800;0;0;1;0;0;1000;2;0
15820;Воробьевская набережная;Vorob'evskaja embankment;16;both;55.709501493005;37.5579026558265;720;74;74;0;0;0;0;0;0
15830;"СК ""Лужники""";"sport center ""Luzhniki""";16;both;55.7117561592;37.5609105966;720;5;1;0;0;605;890;25;1
15840;Лужнецкая набережная;Luzhneckaja embankment;16;both;55.7115787067;37.5612791518;720;5;1;0;0;605;890;25;1
15850;мост через Москва-реку;Luzhneckij bridge;16;both;55.7096608547;37.5580645316;720;72;72;0;0;0;0;0;0
15851;"природный заказник ""Воробьевы горы""";"""Vorob'evy gory"" nature reserve";16;both;55.7085074135;37.5568564895;720;12;12;0;0;0;0;0;1
15860;"ТРЦ ""АФИ Молл""";"shopping mall ""AFIMall""";188;out;55.7501533471;37.5428004005;800;21;17;0;0;0;1000;6;2
15861;"ТРЦ ""АФИ Молл""";"shopping mall ""AFIMall""";188;in;55.7501533471;37.5428004005;800;50;46;0;0;0;1000;6;1
15862;"ТРЦ ""АФИ Молл""";"shopping mall ""AFIMall""";230;both;55.7501533471;37.5428004005;800;21;17;0;0;0;1000;6;2
15863;"Башня ""Федерация""";"Tower ""Federacija""";230;both;55.7490619849;37.537743565;800;3;0;0;0;0;1000;4;1
15870;Выставочный переулок;Vystavochnyj pereulok;188;out;55.7485620153;37.5441888875;860;9;0;0;0;0;1000;6;2
15871;Выставочный переулок;Vystavochnyj pereulok;188;in;55.7485620153;37.5441888875;790;39;30;0;0;0;1000;6;1
15872;Пресненская набережная;Presnenskaja embankment;188;out;55.7480477608;37.543768913;860;8;0;0;0;0;1000;10;2
15873;Пресненская набережная;Presnenskaja embankment;188;in;55.7480477608;37.543768913;790;38;30;0;0;0;1000;10;1
15874;"Мост ""Багратион""";"Bridge ""Bagration""";188;in;55.7482347992;37.544076624;790;30;30;0;0;0;0;0;2
15875;"Мост ""Багратион""";"Bridge ""Bagration""";188;out;55.7482347992;37.544076624;860;0;0;0;0;0;0;0;3
15890;Рязанский пр-т, ул. Ташкентская;Rjazanskij prospekt, ul. Tashkentskaja;110;out;55.7153052646;37.8185065164;890;26;26;0;0;0;0;0;0
15891;Рязанский пр-т, ул. Ташкентская;Rjazanskij prospekt, ul. Tashkentskaja;110;in;55.7153052646;37.8185065164;550;25;25;0;0;0;0;0;0
15894;ул. Косинская, ул. Вешняковская;ul. Kosinskaja, ul. Veshnjakovskaja;110;out;55.7158130305;37.8190566344;820;33;33;0;0;0;0;0;0
15895;ул. Косинская, ул. Вешняковская;ul. Kosinskaja, ul. Veshnjakovskaja;110;in;55.7158130305;37.8190566344;820;33;33;0;0;0;0;0;0
15900;ул. Хлобыстова, автостанция, пригородные кассы;ul. Hlobystova, bus station, suburban trains ticket office;110;out;55.7157680038;37.8171370583;550;25;25;0;0;0;0;0;0
15901;ул. Хлобыстова, автостанция, пригородные кассы;ul. Hlobystova, bus station, suburban trains ticket office;110;in;55.7157680038;37.8171370583;580;26;26;0;0;0;0;0;0
15904;ул. Красный Казанец, кассы дальнего следования;ul. Krasnyj Kazanec, long-distance trains ticket office;110;out;55.7163683142;37.8175059991;820;63;63;0;0;0;0;0;0
15905;ул. Красный Казанец, кассы дальнего следования;ul. Krasnyj Kazanec, long-distance trains ticket office;110;in;55.7163683142;37.8175059991;820;63;63;0;0;0;0;0;0
15906;ул. Красный Казанец;ul. Krasnyj Kazanec;110;out;55.7162620093;37.8178686866;820;58;58;0;0;0;0;0;0
15907;ул. Красный Казанец;ul. Krasnyj Kazanec;110;in;55.7162620093;37.8178686866;820;58;58;0;0;0;0;0;0
15910;"стадион ""Динамо"", Петровский парк";"staduim ""Dinamo"", Petrovskij park";36;in;55.7904958543;37.5565151565;720;3;3;0;0;0;0;0;1
15911;"стадион ""Динамо"", Петровский парк";"staduim ""Dinamo"", Petrovskij park";36;out;55.7905105483;37.5566641767;720;0;0;0;0;0;0;0;1
15920;Ленинградский пр-т, ул. Новая Башиловка;Leningradskij prospekt, ul. Novaja Bashilovka;36;in;55.7889352457;37.5599385606;720;1;1;0;0;0;0;0;1
15921;Ленинградский пр-т, ул. Новая Башиловка;Leningradskij prospekt, ul. Novaja Bashilovka;36;out;55.7889316786;37.5597956501;720;13;13;0;0;0;0;0;1
15930;пригородные поезда, трамвайное кольцо;suburban trains, tramways;135;out;55.8078479353;37.5802311882;740;40;40;0;0;0;0;0;1
15931;пригородные поезда, трамвайное кольцо;suburban trains, tramways;135;in;55.8078479353;37.5802311882;740;40;37;0;0;420;850;24;1
15932;ул. Бутырская, ул. Вятская;ul. Butyrskaja, ul. Vjatskaja;135;out;55.8077103642;37.5806626613;740;39;4;0;0;360;760;22;1
15933;ул. Бутырская, ул. Вятская;ul. Butyrskaja, ul. Vjatskaja;135;in;55.8077103642;37.5806626613;740;39;1;0;0;420;760;24;1
15940;ул. Бутырская, ул. Новодмитровская;ul. Butyrskaja, ul. Novodmitrovskaja;135;out;55.8080918114;37.5815318607;740;39;33;0;0;430;850;21;1
15941;ул. Бутырская, ул. Новодмитровская;ul. Butyrskaja, ul. Novodmitrovskaja;135;in;55.8080918114;37.5815318607;740;39;30;0;0;430;850;24;1
15942;ул. Бутырская, хлебозавод № 9;ul. Butyrskaja, bakery plant № 9;135;out;55.8081387107;37.5818038764;740;36;3;0;0;430;830;21;1
15943;ул. Бутырская, хлебозавод № 9;ul. Butyrskaja, bakery plant № 9;135;in;55.8081387107;37.5818038764;740;36;0;0;0;430;830;24;1
15950;Садовое кольцо, Серпуховская площадь;Sadovoe ring, Serpuhovskaja square;74;out;55.7289906077;37.6228873877;800;0;0;0;0;0;0;0;1
15951;Садовое кольцо, Серпуховская площадь;Sadovoe ring, Serpuhovskaja square;74;in;55.7289906077;37.6228873877;780;0;0;0;0;0;0;0;1
15960;автобусы в аэропорт Домодедово;buses to aeroport Domodedovo;21;in;55.610880977;37.7165013441;720;79;40;0;0;410;880;20;0
15961;дублер Каширского шоссе (четная сторона), Ореховый б-р;dubler Kashirskogo shosse (even side), Orehovyj boulevard;21;in;55.6106206823;37.716752936;720;77;77;0;0;0;0;0;0
15962;автобусы в аэропорт Домодедово, пандус;buses to aeroport Domodedovo, ramp;21;in;55.6109869948;37.7166367882;720;48;39;0;0;420;1000;20;0
15963;дублер Каширского шоссе (нечетная сторона), Ореховый б-р, пандус;dubler Kashirskogo shosse (odd side), Orehovyj boulevard, ramp;21;in;55.6112286989;37.7180660923;720;48;39;0;0;420;1000;20;0
15964;дублер Каширского шоссе (нечетная сторона), Ореховый б-р;dubler Kashirskogo shosse (odd side), Orehovyj boulevard;21;in;55.611145908;37.71808679;720;76;67;0;0;420;1000;20;0
15965;автобусы в аэропорт Домодедово;avtobusy v aeroport Domodedovo;21;out;55.610880977;37.7165013441;720;40;1;0;0;410;880;20;1
15966;дублер Каширского шоссе (четная сторона), Ореховый б-р;dubler Kashirskogo shosse (even side), Orehovyj boulevard;21;out;55.6106206823;37.716752936;720;38;38;0;0;0;0;0;1
15967;автобусы в аэропорт Домодедово, пандус;avtobusy v aeroport Domodedovo, ramp;21;out;55.6109869948;37.7166367882;720;9;0;0;0;420;1000;20;1
15968;дублер Каширского шоссе (нечетная сторона), Ореховый б-р, пандус;dubler Kashirskogo shosse (odd side), Orehovyj boulevard, ramp;21;out;55.6112286989;37.7180660923;720;9;0;0;0;420;1000;20;1
15969;дублер Каширского шоссе (нечетная сторона), Ореховый б-р;dubler Kashirskogo shosse (odd side), Orehovyj boulevard;21;out;55.611145908;37.71808679;720;37;28;0;0;420;1000;20;1
15970;"ТЦ ""Снежная королева""";"shopping mall ""Snezhnaja koroleva""";21;in;55.6102103707;37.7168283682;720;78;40;0;0;410;820;20;0
15971;"ТЦ ""Снежная королева""";"shopping mall ""Snezhnaja koroleva""";21;out;55.6102103707;37.7168283682;720;39;1;0;0;410;820;20;1
15980;Каширское шоссе (нечетная сторона);Kashirskoe shosse (odd side);21;in;55.6100240911;37.7182192555;720;72;40;0;0;410;680;20;0
15981;дублер Каширского шоссе (четная сторона), парк;dubler Kashirskogo shosse (even side), park;21;in;55.6098667884;37.7173292532;720;71;71;0;0;0;0;0;0
15982;Каширское шоссе (четная сторона);Kashirskoe shosse (even side);21;in;55.6099206025;37.7176148818;720;70;40;0;0;410;680;20;0
15983;"ТЦ ""Домодедовский""";"shopping mall ""Domodedovskij""";21;in;55.610053068;37.7183517209;720;65;39;0;0;430;1050;20;0
15984;Каширское шоссе (нечетная сторона), Ореховый б-р;Kashirskoe shosse (odd side), Orehovyj boulevard;21;in;55.6101606961;37.7181530227;720;71;71;0;0;0;0;0;0
15985;Каширское шоссе (нечетная сторона);Kashirskoe shosse (odd side);21;out;55.6100240911;37.7182192555;720;33;1;0;0;410;680;20;1
15986;дублер Каширского шоссе (четная сторона), парк;dubler Kashirskogo shosse (even side), park;21;out;55.6098667884;37.7173292532;720;32;32;0;0;0;0;0;1
15987;Каширское шоссе (четная сторона);Kashirskoe shosse (even side);21;out;55.6099206025;37.7176148818;720;31;1;0;0;410;680;20;1
15988;"ТЦ ""Домодедовский""";"shopping mall ""Domodedovskij""";21;out;55.610053068;37.7183517209;720;26;0;0;0;430;1050;20;1
15989;Каширское шоссе (нечетная сторона), Ореховый б-р;Kashirskoe shosse (odd side), Orehovyj boulevard;21;out;55.6101606961;37.7181530227;720;32;32;0;0;0;0;0;1
15990;"Ореховый б-р, Галерея ""Водолей""";"Orehovyj boulevard, Galereja ""Vodolej""";21;both;55.611564002;37.72090996;720;57;26;0;0;400;750;20;0
16000;Домодедовская ярмарка;Domodedovskaja jarmarka;21;both;55.610893183;37.7210504063;720;58;26;0;0;420;820;20;0
16001;Домодедовская ярмарка, автостанция;Domodedovskaja jarmarka, bus station;21;both;55.6108038385;37.7204905142;720;61;61;0;0;0;0;0;0
16010;театр Российской Армии;theatre Rossijskoj Armii;218;in;55.7815840434;37.6139571863;800;66;0;1;34;470;885;20;1
16011;театр Российской Армии;theatre Rossijskoj Armii;218;out;55.7815840434;37.6139571863;800;66;7;1;34;470;890;20;1
16020;Суворовская пл., ул. Самотечная;Suvorovskaja square, ul. Samotechnaja;218;in;55.781323972;37.6143127269;800;61;1;0;0;470;885;21;1
16021;Суворовская пл., ул. Самотечная;Suvorovskaja square, ul. Samotechnaja;218;out;55.781323972;37.6143127269;800;61;8;0;0;470;890;21;1
16022;ул. Селезнёвская;ul. Seleznjovskaja;218;in;55.7812164;37.6133883;800;63;31;0;0;470;890;18;1
16023;ул. Селезнёвская;ul. Seleznjovskaja;218;out;55.7812164;37.6133883;800;63;38;0;0;470;890;18;1
16030;ул. Шарикоподшипниковская, 1-я ул. Машиностроения;ul. Sharikopodshipnikovskaja, Pervaja ul. Mashinostroenija;161;both;55.7178583712;37.6761432278;550;39;1;0;0;410;740;26;1
16031;"ТЦ ""Дубровка"", ул. Новоостаповская";"shopping mall ""Dubrovka"", ul. Novoostapovskaja";161;both;55.7180268909762;37.676925300042;550;43;40;0;0;410;740;19;1
16032;"ТЦ ""Дубровка"", 2-я ул. Машиностроения";"shopping mall ""Dubrovka"", Vtoraja ul. Mashinostroenija";161;both;55.7176670656545;37.6771960566901;550;41;1;0;0;430;740;18;1
16040;ул. Ясеневая, Ореховый б-р, автостанция;ul. Jasenevaja, Orehovyj boulevard, bus station;222;both;55.6134262765;37.7455978932;800;42;1;2;42;0;0;0;0
16050;ул. Ясеневая, Ореховый б-р, рынок;ul. Jasenevaja, Orehovyj boulevard, market;222;both;55.6133730859;37.7442715625;800;37;1;2;37;0;0;0;0
16051;ул. Ясеневая, ул. Воронежская;ul. Jasenevaja, ul. Voronezhskaja;222;both;55.6111487082;37.7448515647;800;60;1;0;0;410;880;20;0
16060;ул. 1-я Парковая;ul. 1st Parkovaja;51;both;55.7878204637;37.779895934;530;47;47;0;0;0;0;0;0
16061;ул. 2-я Парковая;ul. 2nd Parkovaja;51;both;55.7878184005;37.7801249533;530;52;36;0;0;375;840;24;0
16062;"парк ""Измайлово"", на юго-восток";"park ""Izmajlovo"", to south-east";51;both;55.7876388988;37.7801167004;530;46;46;0;0;0;0;0;0
16063;"парк ""Измайлово"", на юго-запад";"park ""Izmajlovo"", to south-west";51;both;55.7876388988;37.7798979972;530;43;32;0;0;160;290;25;0
16070;ул. 3-я Парковая;ul. 3rd Parkovaja;51;both;55.7879236256;37.78334773;540;39;24;0;0;290;830;24;0
16071;"парк ""Измайлово"", на юг";"park ""Izmajlovo"", to south";51;both;55.7876471518;37.7832940858;540;32;32;0;0;0;0;0;0
16072;"парк ""Измайлово"", на восток";"park ""Izmajlovo"", to east";51;both;55.7876719106;37.7834096271;540;32;24;0;0;300;810;25;0
16080;Институт космических исследований РАН;Institut kosmicheskih issledovanij RAN;104;in;55.6555402477;37.5383943087;550;80;46;0;0;320;820;15;0
16081;Институт космических исследований РАН;Institut kosmicheskih issledovanij RAN;104;out;55.6555402477;37.5383943087;760;34;0;0;0;350;820;15;1
16090;Главное архивное управление г.Москвы;Moscow Archive office;104;in;55.6565637318;37.5394506759;550;80;80;0;0;0;0;0;0
16091;Главное архивное управление г.Москвы;Moscow Archive office;104;out;55.6565637318;37.5394506759;760;34;34;0;0;0;0;0;1
16092;Старокалужское шоссе;Starokaluzhskoe shosse;104;in;55.6563129988;37.5391917221;550;80;50;0;0;310;780;18;0
16093;Старокалужское шоссе;Starokaluzhskoe shosse;104;out;55.6563129988;37.5391917221;760;34;4;0;0;310;780;18;1
16100;Площадь Академика Келдыша;square Akademika Keldysha;104;in;55.6552977354;37.5392533778;550;81;46;0;0;320;680;15;0
16101;Площадь Академика Келдыша;square Akademika Keldysha;104;out;55.6552977354;37.5392533778;760;35;0;0;0;320;680;15;1
16110;"ул. Профсоюзная, ТЦ ""Калужский""";"ul. Profsojuznaja, shopping mall ""Kaluzhskij""";104;in;55.6563006676;37.5403220761;550;84;50;0;0;310;780;15;0
16111;"ул. Профсоюзная, ТЦ ""Калужский""";"ul. Profsojuznaja, shopping mall ""Kaluzhskij""";104;out;55.6563006676;37.5403220761;760;38;4;0;0;310;780;15;1
16112;"ул. Обручева, ТЦ ""Калужский""";"ul. Obrucheva, shopping mall ""Kaluzhskij""";104;in;55.6560334931;37.5400096874;550;81;81;0;0;0;0;0;0
16113;"ул. Обручева, ТЦ ""Калужский""";"ul. Obrucheva, shopping mall ""Kaluzhskij""";104;out;55.6560334931;37.5400096874;760;35;35;0;0;0;0;0;1
16120;"Транспортный комбинат ""Россия"", ул. Наметкина";"Transportnyj kombinat ""Rossija"", ul. Nametkina";104;in;55.6581462274;37.5410948272;730;79;76;0;0;0;1000;18;0
16121;"Транспортный комбинат ""Россия"", ул. Наметкина";"Transportnyj kombinat ""Rossija"", ul. Nametkina";104;out;55.6581462274;37.5410948272;730;32;29;0;0;0;1000;18;1
16122;Главное архивное управление г.Москвы;Moscow Archive office;104;in;55.6578872736;37.5408112111;730;77;47;0;0;310;780;18;0
16123;Главное архивное управление г.Москвы;Moscow Archive office;104;out;55.6578872736;37.5408112111;730;30;0;0;0;310;780;18;1
16130;Хлебобулочный проезд;Hlebobulochnyj proezd;104;in;55.6578420595;37.5419785585;730;81;81;0;0;0;0;0;0
16131;Хлебобулочный проезд;Hlebobulochnyj proezd;104;out;55.6578420595;37.5419785585;730;34;34;0;0;0;0;0;1
16132;"Центр культуры и искусства ""Меридиан""";"Culture center ""Meridian""";104;in;55.6576036575;37.5417237151;730;84;51;0;0;300;780;18;0
16133;"Центр культуры и искусства ""Меридиан""";"Culture center ""Meridian""";104;out;55.6576036575;37.5417237151;730;37;4;0;0;300;780;18;1
16140;ул. Кантемировская;ul. Kantemirovskaja;24;both;55.6369125086;37.6561219341;720;59;0;0;0;410;720;20;0
16150;Пролетарский пр-т (четная сторона), Кавказский б-р;Proletarskij prospekt (even side), Kavkazskij boulevard;24;both;55.6345736655;37.6571940764;720;64;0;0;0;420;750;23;0
16160;Пролетарский пр-т (нечетная сторона), ул. Кантемировская;Proletarskij prospekt (odd side), ul. Kantemirovskaja;24;both;55.6350993877;37.6576287286;720;51;0;0;0;400;750;23;0
16161;Пролетарский пр-т (нечетная сторона), Кавказский б-р;Proletarskij prospekt (odd side), Kavkazskij boulevard;24;both;55.6348178986;37.6578936595;720;54;30;0;0;320;750;23;0
16170;ул. Кантемировская, ул. Бехтерева;ul. Kantemirovskaja, ul. Behtereva;24;both;55.6366931127;37.65533956;720;63;38;0;0;320;720;20;0
16171;Пролетарский пр-т (четная сторона), автобусная остановка;Proletarskij prospekt (even side), bus stop;24;both;55.63644474;37.6555713745;720;58;0;0;0;420;720;20;0
16180;Севастопольская площадь, ул. М. Юшуньская;Sevastopol'skaja square, ul. M. Jushun'skaja;26;out;55.6529182146;37.5963552128;550;51;24;0;0;350;830;20;0
16181;Севастопольская площадь, ул. М. Юшуньская;Sevastopol'skaja square, ul. M. Jushun'skaja;26;in;55.6529182146;37.5963552128;720;51;24;0;0;350;830;20;0
16190;Севастопольская площадь, ул. Азовская;Sevastopol'skaja square, ul. Azovskaja;26;out;55.6530530011;37.596968724;550;55;55;0;0;0;0;0;0
16191;Севастопольская площадь, ул. Азовская;Sevastopol'skaja square, ul. Azovskaja;26;in;55.6530530011;37.596968724;720;55;55;0;0;0;0;0;0
16200;ул. Каховка, ул. Б. Юшуньская;ul. Kahovka, ul. B. Jushun'skaja;26;out;55.6524766725;37.5966015468;550;56;29;0;0;310;780;20;0
16201;ул. Каховка, ул. Б. Юшуньская;ul. Kahovka, ul. B. Jushun'skaja;26;in;55.6524766725;37.5966015468;720;56;29;0;0;310;780;20;0
16210;ул. Каховка, ул. Азовская;ul. Kahovka, ul. Azovskaja;26;out;55.6526161068;37.5972011145;550;58;58;0;0;0;0;0;0
16211;ул. Каховка, ул. Азовская;ul. Kahovka, ul. Azovskaja;26;in;55.6526161068;37.5972011145;720;58;58;0;0;0;0;0;0
16220;Чонгарский б-р (четная сторона), ул. Азовская;Chongarskij boulevard (even side), ul. Azovskaja;26;out;55.653401587;37.5996412157;550;54;54;0;0;0;0;0;0
16221;Чонгарский б-р (четная сторона), ул. Азовская;Chongarskij boulevard (even side), ul. Azovskaja;26;in;55.653401587;37.5996412157;720;54;54;0;0;0;0;0;0
16230;Чонгарский б-р (нечетная сторона), ул. Азовская;Chongarskij boulevard (odd side), ul. Azovskaja;26;out;55.6529600449;37.59978065;550;57;57;0;0;0;0;0;0
16231;Чонгарский б-р (нечетная сторона), ул. Азовская;Chongarskij boulevard (odd side), ul. Azovskaja;26;in;55.6529600449;37.59978065;720;57;57;0;0;0;0;0;0
16234;Каширское шоссе, пр-т Андропова, Онкоцентр;Kashirskoe shosse, prospekt Andropova, Onkocentr;25;in;55.6555984168;37.6495524755;540;46;0;0;0;320;710;20;0
16240;Чонгарский б-р, Внутренний пр-д;Chongarskij boulevard, Vnutrennij proezd;26;out;55.653401587;37.6002965571;550;55;25;0;0;370;800;20;0
16241;Чонгарский б-р, Внутренний пр-д;Chongarskij boulevard, Vnutrennij proezd;26;in;55.653401587;37.6002965571;720;55;25;0;0;370;800;20;0
16250;Чонгарский б-р, Симферопольский б-р;Chongarskij boulevard, Simferopol'skij boulevard;26;out;55.6529553971;37.6004499349;550;44;24;0;0;300;870;18;0
16251;Чонгарский б-р, Симферопольский б-р;Chongarskij boulevard, Simferopol'skij boulevard;26;in;55.6529553971;37.6004499349;720;44;24;0;0;300;870;18;0
16260;Каширское шоссе, ул. Москворечье;Kashirskoe shosse, ul. Moskvorech'e;226;in;55.6544062277;37.6478966573;700;51;1;0;0;320;710;20;0
16261;ул. Маршала Шестопалова, Институт ревматологии РАН;ul. Marshala Shestopalova, Institut revmatologii RAN;226;out;55.654061623;37.6477979024;550;1;1;0;0;0;0;0;1
16262;Каширское шоссе, ул. Москворечье;Kashirskoe shosse, ul. Moskvorech'e;25;in;55.6544062277;37.6478966573;550;51;1;0;0;320;710;20;0
16263;ул. Маршала Шестопалова, Институт ревматологии РАН;ul. Marshala Shestopalova, Institut revmatologii RAN;25;out;55.654061623;37.6477979024;550;1;1;0;0;0;0;0;1
16265;парк Коломенское;park Kolomenskoe;25;out;55.6557143241;37.6501651282;550;3;3;0;0;0;0;0;1
16270;Каширское шоссе, пр-т Андропова, Онкоцентр;Kashirskoe shosse, prospekt Andropova, Onkocentr;226;in;55.6555984168;37.6495524755;720;46;0;0;0;320;710;20;0
16271;парк Коломенское;park Kolomenskoe;226;out;55.6557143241;37.6501651282;550;3;3;0;0;0;0;0;1
16272;ул. Маршала Шестопалова, Котляковский пр-д;ul. Marshala Shestopalova, Kotljakovskij proezd;226;out;55.6542915377;37.6473568842;550;3;3;0;0;0;0;0;1
16273;Онкоцентр, парк Садовники;Onkology center, park Sadovniki;226;out;55.655934383;37.6496769328;550;3;3;0;0;0;0;0;1
16274;ул. Маршала Шестопалова, Котляковский пр-д;ul. Marshala Shestopalova, Kotljakovskij proezd;25;out;55.6542915377;37.6473568842;550;53;3;0;0;0;0;0;0
16275;Онкоцентр, парк Садовники;Onkology center, park Sadovniki;25;out;55.655934383;37.6496769328;550;49;3;0;0;0;0;0;0
16280;площадь Киевского вокзала, ул. Киевская;square Kievskogo vokzala, ul. Kievskaja;42;both;55.7429949517;37.5640660308;740;70;70;0;0;0;0;0;1
16281;площадь Киевского вокзала, ул. Киевская;square Kievskogo vokzala, ul. Kievskaja;57;both;55.7429949517;37.5640660308;740;93;72;0;0;300;760;25;0
16282;площадь Киевского вокзала, ул. Киевская;square Kievskogo vokzala, ul. Kievskaja;77;both;55.7429949517;37.5640660308;740;48;48;0;0;0;0;0;2
16283;пригородные поезда;suburban trains;42;both;55.7425950439;37.5635218939;740;54;54;0;0;0;0;0;1
16284;пригородные поезда;suburban trains;57;both;55.7425950439;37.5635218939;740;77;56;0;0;300;760;25;0
16285;пригородные поезда;suburban trains;77;both;55.7425950439;37.5635218939;740;32;32;0;0;0;0;0;2
16286;площадь Киевского вокзала;square Kievskogo vokzala;42;both;55.7430410437;37.5642734119;740;38;38;0;0;0;0;0;1
16287;площадь Киевского вокзала;square Kievskogo vokzala;57;both;55.7430410437;37.5642734119;740;61;40;0;0;300;760;25;0
16288;площадь Киевского вокзала;square Kievskogo vokzala;77;both;55.7430410437;37.5642734119;740;16;16;0;0;0;0;0;2
16290;"площадь Киевского вокзала, ТРЦ ""Европейский""";"square Kievskogo vokzala, shopping mall ""Evropejskij""";42;out;55.7432997995;37.5651772502;740;22;22;0;0;0;0;0;1
16291;"площадь Киевского вокзала, ТРЦ ""Европейский""";"square Kievskogo vokzala, shopping mall ""Evropejskij""";57;out;55.7432997995;37.5651772502;740;63;42;0;0;300;760;25;0
16292;"площадь Киевского вокзала, ТРЦ ""Европейский""";"square Kievskogo vokzala, shopping mall ""Evropejskij""";77;out;55.7432997995;37.5651772502;740;0;0;0;0;0;0;0;2
16293;"площадь Киевского вокзала, ТРЦ ""Европейский""";"square Kievskogo vokzala, shopping mall ""Evropejskij""";42;in;55.7431752381;37.5647216175;740;39;39;0;0;0;0;0;1
16294;"площадь Киевского вокзала, ТРЦ ""Европейский""";"square Kievskogo vokzala, shopping mall ""Evropejskij""";57;in;55.7431752381;37.5647216175;740;62;41;0;0;300;760;25;0
16295;"площадь Киевского вокзала, ТРЦ ""Европейский""";"square Kievskogo vokzala, shopping mall ""Evropejskij""";77;in;55.7431752381;37.5647216175;740;8;8;0;0;0;0;0;2
16296;поезда дальнего следования;Kievskij railway station, long-distance trains;42;both;55.7427375149;37.5645485253;740;31;31;0;0;0;0;0;1
16297;поезда дальнего следования;Kievskij railway station, long-distance trains;57;both;55.7427375149;37.5645485253;740;54;33;0;0;300;760;25;0
16298;поезда дальнего следования;Kievskij railway station, long-distance trains;77;both;55.7427375149;37.5645485253;740;9;9;0;0;0;0;0;2
16300;"ТРЦ ""Европейский"", выход 4";"shopping mall ""Evropejskij"", exit 4";57;both;55.7440682406;37.5669715807;740;70;18;0;0;400;760;25;0
16301;"ТРЦ ""Европейский"", выход 4";"shopping mall ""Evropejskij"", exit 4";77;both;55.7440682406;37.5669715807;740;54;23;0;0;400;980;25;1
16310;Киевский вокзал, аэроэкспресс;Kievskij railway station, aeroexpress;57;both;55.7438060048;37.5671611161;740;64;43;0;0;300;760;25;0
16311;Киевский вокзал, аэроэкспресс;Kievskij railway station, aeroexpress;77;both;55.7438060048;37.5671611161;740;48;48;0;0;0;0;0;1
16320;площадь Европы;square Evropy;57;both;55.7437205064;37.5676092457;740;68;18;0;0;400;760;25;0
16321;площадь Европы;square Evropy;77;both;55.7437205064;37.5676092457;740;52;23;0;0;400;980;25;1
16330;здание ТРЦ Европейский;"entrance to shopping mall ""Evropejskij"" building";57;both;55.7443581383;37.5671386982;740;72;51;0;0;300;760;25;0
16331;здание ТРЦ Европейский;"entrance to shopping mall ""Evropejskij"" building";77;both;55.7443581383;37.5671386982;740;56;56;0;0;0;0;0;1
16340;Старая площадь;Staraja square;96;both;55.7562284008;37.6300616622;740;61;61;0;0;0;0;0;1
16341;Старая площадь;Staraja square;227;both;55.7562284008;37.6300616622;740;61;61;0;0;0;0;0;1
16350;Политехнический музей;Politehnicheskij museum;96;both;55.7569568699;37.6305421419;740;73;73;0;0;0;0;0;1
16351;Политехнический музей;Politehnicheskij museum;227;both;55.7569568699;37.6305421419;740;73;73;0;0;0;0;0;1
16360;памятник героям Плевны;pamjatnik gerojam Plevny;96;both;55.7567476288;37.6309451248;740;69;67;0;0;0;1000;4;1
16361;памятник героям Плевны;pamjatnik gerojam Plevny;227;both;55.7567476288;37.6309451248;740;69;67;0;0;0;1000;4;1
16370;ул. Маросейка (нечетная сторона);ul. Marosejka (odd side);96;both;55.7573251779;37.6317811078;740;71;71;0;0;0;0;0;1
16371;ул. Маросейка (нечетная сторона);ul. Marosejka (odd side);227;both;55.7573251779;37.6317811078;740;71;71;0;0;0;0;0;1
16380;памятник героям Плевны;pamjatnik gerojam Plevny;96;both;55.7568548326;37.6312111968;740;72;68;0;0;0;1000;4;1
16381;памятник героям Плевны;pamjatnik gerojam Plevny;227;both;55.7568548326;37.6312111968;740;72;68;0;0;0;1000;4;1
16390;ул. Маросейка (четная сторона);ul. Marosejka (even side);96;both;55.7572087343;37.6321179083;740;72;72;0;0;0;0;0;1
16391;ул. Маросейка (четная сторона);ul. Marosejka (even side);227;both;55.7572087343;37.6321179083;740;72;72;0;0;0;0;0;1
16392;Лубянский проезд, ул. Маросейка;Lubjanskij proezd, ul. Marosejka;96;both;55.7570127244;37.6318886925;740;54;54;0;0;0;0;0;1
16393;Лубянский проезд, ул. Маросейка;Lubjanskij proezd, ul. Marosejka;227;both;55.7570127244;37.6318886925;740;54;54;0;0;0;0;0;1
16400;ул. Варварка;ul. Varvarka;96;both;55.753113033;37.6330711179;740;35;35;0;0;0;0;0;1
16401;ул. Варварка;ul. Varvarka;227;both;55.753113033;37.6330711179;740;35;35;0;0;0;0;0;1
16402;Китайгородский проезд, ул. Варварка, пандус;Kitajgorodskij proezd, ul. Varvarka, ramp;96;both;55.7529373738;37.6332183616;740;6;6;0;0;0;1000;5;1
16403;Китайгородский проезд, ул. Варварка, пандус;Kitajgorodskij proezd, ul. Varvarka, ramp;227;both;55.7529373738;37.6332183616;740;6;6;0;0;0;1000;5;1
16410;Китайгородский проезд, Славянская площадь;Kitajgorodskij proezd, Slavjanskaja square;96;both;55.7532266949;37.63364976;740;26;26;0;0;0;0;0;1
16411;Китайгородский проезд, Славянская площадь;Kitajgorodskij proezd, Slavjanskaja square;227;both;55.7532266949;37.63364976;740;26;26;0;0;0;0;0;1
16412;Китайгородский проезд, Москворецкая набережная;Kitajgorodskij proezd, Moskvoreckaja embankment;96;both;55.7529761222;37.6335515975;740;22;22;0;0;0;0;0;1
16413;Китайгородский проезд, Москворецкая набережная;Kitajgorodskij proezd, Moskvoreckaja embankment;227;both;55.7529761222;37.6335515975;740;22;22;0;0;0;0;0;1
16420;Славянская площадь, памятник Кириллу и Мефодию;Slavjanskaja square, pamjatnik Kirillu i Mefodiju;96;both;55.7541540722;37.6342568176;740;38;38;0;0;0;0;0;1
16421;Славянская площадь, памятник Кириллу и Мефодию;Slavjanskaja square, pamjatnik Kirillu i Mefodiju;227;both;55.7541540722;37.6342568176;740;38;38;0;0;0;0;0;1
16430;Лубянский пр-д, Солянский пр-д;Lubjanskij proezd, Soljanskij proezd;96;both;55.7541166154;37.6349517048;740;33;33;0;0;0;0;0;1
16431;Лубянский пр-д, Солянский пр-д;Lubjanskij proezd, Soljanskij proezd;227;both;55.7541166154;37.6349517048;740;33;33;0;0;0;0;0;1
16440;Новая площадь;Novaja square;96;both;55.7566288005;37.6295114356;740;69;69;0;0;0;0;0;1
16441;Новая площадь;Novaja square;227;both;55.7566288005;37.6295114356;740;69;69;0;0;0;0;0;1
16450;Солянский пр-д;Soljanskij proezd;96;both;55.7537394648;37.6354631831;740;31;31;0;0;0;0;0;1
16451;Солянский пр-д;Soljanskij proezd;227;both;55.7537394648;37.6354631831;740;31;31;0;0;0;0;0;1
16460;ул. Петра Романова;ul. Petra Romanova;154;both;55.7061626396;37.6854831482;550;26;1;0;0;315;760;20;1
16470;ул. Южнопортовая;ul. Juzhnoportovaja;154;both;55.7063415069;37.6856446879;550;64;2;0;0;315;760;20;0
16480;ул. Нагатинская, Коломенское шоссе;ul. Nagatinskaja, Kolomenskoe shosse;28;out;55.6767572311;37.6627855326;720;55;24;0;0;350;790;20;0
16481;ул. Нагатинская, Коломенское шоссе;ul. Nagatinskaja, Kolomenskoe shosse;28;in;55.6767572311;37.6627855326;540;55;24;0;0;350;790;20;0
16490;ул. Нагатинская;ul. Nagatinskaja;28;out;55.6777537448;37.662986685;720;53;24;0;0;350;830;20;0
16491;ул. Нагатинская;ul. Nagatinskaja;28;in;55.6777537448;37.662986685;540;53;24;0;0;350;830;20;0
16500;пр-т Андропова (четная сторона), автобусная остановка;prospekt Andropova (even side), bus stop;28;out;55.6792612319;37.663368181;720;56;32;0;0;320;780;20;0
16501;пр-т Андропова (четная сторона), автобусная остановка;prospekt Andropova (even side), bus stop;28;in;55.6792612319;37.663368181;540;56;32;0;0;320;780;20;0
16510;"кинотеатр ""Орбита"", парк Коломенское";"cinema ""Orbita"", park Kolomenskoe";28;out;55.6765318016;37.6642722108;720;32;24;0;0;480;680;20;0
16511;"кинотеатр ""Орбита"", парк Коломенское";"cinema ""Orbita"", park Kolomenskoe";28;in;55.6765318016;37.6642722108;540;32;24;0;0;480;680;20;0
16520;"ул. Новинки, ТЦ ""Коломенский""";"ul. Novinki, shopping mall ""Kolomenskij""";28;out;55.6776739774;37.6645450382;720;51;25;0;0;340;770;20;0
16521;"ул. Новинки, ТЦ ""Коломенский""";"ul. Novinki, shopping mall ""Kolomenskij""";28;in;55.6776739774;37.6645450382;540;51;25;0;0;340;770;20;0
16530;пр-т Андропова (нечетная сторона), автобусная остановка;prospekt Andropova (odd side), bus stop;28;out;55.6795317472;37.665016706;720;54;0;0;0;320;680;20;0
16531;пр-т Андропова (нечетная сторона), автобусная остановка;prospekt Andropova (odd side), bus stop;28;in;55.6795317472;37.665016706;540;54;0;0;0;320;680;20;0
16540;ул. Судостроительная;ul. Sudostroitel'naja;28;out;55.6791502512;37.6649496552;720;55;31;0;0;320;780;20;0
16541;ул. Судостроительная;ul. Sudostroitel'naja;28;in;55.6791502512;37.6649496552;540;55;31;0;0;320;780;20;0
16550;ул. Высокая;ul. Vysokaja;28;out;55.6796265431;37.6634306076;720;55;1;0;0;320;720;20;0
16551;ул. Высокая;ul. Vysokaja;28;in;55.6796265431;37.6634306076;540;55;1;0;0;320;720;20;0
16560;Ленинградский и Ярославский вокзалы, Комсомольская площадь;Leningradskij and Jaroslavskij railway stations, Komsomol'skaja square;70;in;55.7758556778;37.6559473369;700;71;47;0;0;325;775;19;1
16561;Ленинградский и Ярославский вокзалы, Комсомольская площадь;Leningradskiji and Jaroslavskij railway stations, Komsomol'skaja square;6;in;55.7758556778;37.6559473369;700;68;47;0;0;320;750;23;1
16570;Казанский вокзал, Комсомольская площадь;Kazanskij railway station, Komsomol'skaja square;70;in;55.7749230193837;37.6562295240408;700;65;24;0;0;325;730;23;1
16571;Казанский вокзал, Комсомольская площадь;Kazanskij railway station, Komsomol'skaja square;70;in;55.7751489982246;37.6566520831376;700;76;52;0;0;325;775;19;1
16572;Казанский вокзал, Комсомольская площадь;Kazanskij railway station, Komsomol'skaja square;6;in;55.7749230193837;37.6562295240408;700;62;0;0;0;320;730;23;1
16573;Казанский вокзал, Комсомольская площадь;Kazanskij railway station, Komsomol'skaja square;6;in;55.7751489982246;37.6566520831376;700;73;52;0;0;320;750;23;1
16580;Казанский вокзал, Комсомольская площадь;Kazanskij railway station, Komsomol'skaja square;70;in;55.7744461256;37.655666333;725;33;33;0;0;0;0;0;2
16583;Казанский вокзал, Комсомольская площадь;Kazanskij railway station, Komsomol'skaja square;6;in;55.7744461256;37.655666333;725;54;54;0;0;0;0;0;0
16586;Казанский вокзал, поезда;Kazanskij railway station, long-distance trains;70;in;55.7735778766;37.655838368;725;41;6;0;0;480;600;25;2
16587;Казанский вокзал, поезда;Kazanskij railway station, long-distance trains;6;in;55.7735778766;37.655838368;725;62;27;0;0;480;600;25;0
16590;Ленинградский и Ярославский вокзалы;Leningradskij and Jaroslavskij railway stations;70;out;55.7767378472;37.6559332597;540;24;0;0;0;325;775;19;1
16591;Ленинградский и Ярославский вокзалы;Leningradskij and Jaroslavskij railway stations;6;out;55.7767378472;37.6559332597;540;21;0;0;0;320;750;23;1
16592;Ленинградский и Ярославский вокзалы, Комсомольская площадь;Leningradskij and Jaroslavskij railway stations, Komsomol'skaja square;70;out;55.7761919702;37.6562987809;750;24;0;0;0;325;775;19;1
16593;Ленинградский и Ярославский вокзалы, Комсомольская площадь;Leningradskij and Jaroslavskij railway stations, Komsomol'skaja square;6;out;55.7761919702;37.6562987809;750;21;0;0;0;320;750;23;1
16594;Ленинградский вокзал, электрички;Leningradskij railway station, suburban trains;70;in;55.7781936958;37.654779014;740;48;24;0;0;325;775;19;1
16595;Ленинградский вокзал, электрички;Leningradskij railway station, suburban trains;6;in;55.7781936958;37.654779014;740;45;24;0;0;320;750;23;1
16596;Ярославский вокзал, электрички;Jaroslavskij railway station, suburban trains;70;in;55.7773740942;37.6567176046;740;48;24;0;0;325;775;19;1
16597;Ярославский вокзал, электрички;Jaroslavskij railway station, suburban trains;6;in;55.7773740942;37.6567176046;740;45;24;0;0;320;750;23;1
16600;Комсомольская площадь, трамвайная остановка;Komsomol'skaja square, tramway stop;6;in;55.7754917;37.65612513;700;67;46;0;0;320;750;23;1
16601;Комсомольская площадь, трамвайная остановка;Komsomol'skaja square, tramway stop;70;in;55.7754917;37.65612513;700;70;46;0;0;325;775;19;1
16602;Комсомольская площадь, трамвайная остановка;Komsomol'skaja square, tramway stop;6;in;55.7752757625;37.6557384754;700;68;47;0;0;320;750;23;1
16603;Комсомольская площадь, трамвайная остановка;Komsomol'skaja square, tramway stop;70;in;55.7752757625;37.6557384754;700;71;47;0;0;325;775;19;1
16610;Ленинградский и Ярославский вокзалы, Комсомольская площадь;Leningradskij i Jaroslavskij railway stations, Komsomol'skaja square;6;in;55.77570816;37.65528109;700;66;24;0;0;320;740;26;1
16611;Ленинградский и Ярославский вокзалы, Комсомольская площадь;Leningradskij i Jaroslavskij railway stations, Komsomol'skaja square;70;in;55.77570816;37.65528109;700;69;24;0;0;325;740;26;1
16612;Казанский вокзал, Комсомольская площадь;Kazanskij railway station, Komsomol'skaja square;70;out;55.7744461256;37.655666333;540;33;33;0;0;0;0;0;2
16615;Казанский вокзал, Комсомольская площадь;Kazanskij railway station, Komsomol'skaja square;6;out;55.7744461256;37.655666333;540;54;54;0;0;0;0;0;0
16618;Казанский вокзал, поезда;Kazanskij railway station, long-distance trains;70;out;55.7735778766;37.655838368;540;41;0;0;0;480;510;25;2
16619;Казанский вокзал, поезда;Kazanskij railway station, long-distance trains;6;out;55.7735778766;37.655838368;540;62;21;0;0;480;510;25;0
16620;"Вещевой рынок ""Коньково-пассаж""";"market ""Konkovo-passazh""";106;both;55.6324377819;37.5181354951;740;68;43;0;0;320;770;19;0
16621;"Вещевой рынок ""Коньково-пассаж"", продуктовый рынок";"market ""Konkovo-passazh"", food market";106;both;55.6320476185;37.5178579562;740;66;0;0;0;410;770;19;0
16630;ул.Островитянова (четная сторона);ul.Ostrovitjanova (even side);106;both;55.6343483758;37.5190083349;740;64;26;0;0;400;960;20;0
16631;"ул.Островитянова (четная сторона), вещевой рынок ""Коньково-пассаж""";"ul.Ostrovitjanova (even side), market ""Konkovo-passazh""";106;both;55.6340306139;37.5192054278;740;62;62;0;0;0;0;0;0
16640;"ул. Профсоюзная, ""Продуктовый рай""";"ul. Profsojuznaja, ""Produktovyj raj""";106;both;55.6321924214;37.5194145875;740;57;32;0;0;320;770;19;0
16641;"ул. Профсоюзная, ""Продуктовый рай""";"ul. Profsojuznaja, ""Produktovyj raj""";106;both;55.6317741018;37.5191410709;740;59;0;0;0;410;770;19;0
16650;ул. Островитянова (нечетная сторона);ul. Ostrovitjanova (odd side);106;both;55.6347023385;37.519301963;740;59;59;0;0;0;0;0;0
16651;ул. Островитянова (нечетная сторона), ул. Профсоюзная;ul. Ostrovitjanova (odd side), ul. Profsojuznaja;106;both;55.6345615579;37.51992542;740;56;25;0;0;400;940;19;0
16660;ул. Профсоюзная (четная сторона), автобусная остановка;ul. Profsojuznaja (even side), bus stop;106;both;55.6339179894;37.5199857546;740;54;54;0;0;0;0;0;0
16670;"ул. Профсоюзная, ТЦ Виктория, ТЦ ""Мир кожи и меха""";"ul. Profsojuznaja, shopping mall Viktorija, shopping mall ""Mir kozhi i meha""";106;both;55.6338093872;37.5205689885;740;54;25;0;0;350;920;18;0
16680;Ореховый б-р, ул. Мусы Джалиля (нечетная сторона);Orehovyj boulevard, ul. Musy Dzhalilja (odd side);20;in;55.6141664369;37.746071294;800;64;64;0;0;0;0;0;0
16681;Ореховый б-р, ул. Мусы Джалиля (нечетная сторона);Orehovyj boulevard, ul. Musy Dzhalilja (odd side);20;out;55.6141664369;37.746071294;800;34;34;0;0;0;0;0;1
16690;"Ореховый б-р, магазин ""Тук-тук""";"Orehovyj boulevard, shop ""Tuk-tuk""";20;in;55.613590196;37.7461625048;800;62;62;0;0;0;0;0;0
16691;"Ореховый б-р, магазин ""Тук-тук""";"Orehovyj boulevard, shop ""Tuk-tuk""";20;out;55.613590196;37.7461625048;800;32;32;0;0;0;0;0;1
16700;Ореховый б-р, автостанция;Orehovyj boulevard, bus station;20;in;55.6136175159;37.7467726495;800;66;32;0;0;420;820;20;0
16701;Ореховый б-р, автостанция;Orehovyj boulevard, bus station;20;out;55.6136175159;37.7467726495;800;36;2;0;0;420;820;20;1
16710;Ореховый б-р, ул. Кустанайская;Orehovyj boulevard, ul. Kustanajskaja;20;in;55.614191234;37.7466178366;800;66;30;0;0;320;750;20;0
16711;Ореховый б-р, ул. Кустанайская;Orehovyj boulevard, ul. Kustanajskaja;20;out;55.614191234;37.7466178366;800;36;0;0;0;320;750;20;1
16720;"Ореховый б-р, ТЦ ""Облака""";"Orehovyj boulevard, shopping mall ""Oblaka""";20;both;55.6134126165;37.7423513769;800;63;38;0;0;320;750;20;0
16730;Ореховый б-р, ул. Мусы Джалиля (четная сторона);Orehovyj boulevard, ul. Musy Dzhalilja (even side);20;both;55.6139681214;37.7428932218;800;62;37;0;0;320;740;20;0
16740;Ореховый б-р, рынок;Orehovyj boulevard, market;20;both;55.6134353831;37.7429842882;800;61;0;0;0;320;820;20;0
16750;"Ореховый б-р, магазин ""Пятерочка, Ореховый пр-д";"Orehovyj boulevard, shop ""Pjaterochka, Orehovyj proezd";20;both;55.6139408015;37.7422876304;800;67;25;0;0;320;750;20;0
16760;ул. Красная пресня;ul. Krasnaja presnja;78;out;55.7603447471;37.5773749825;750;2;2;0;0;0;0;0;1
16761;ул. Красная пресня;ul. Krasnaja presnja;78;in;55.7603875443;37.5770517895;600;2;2;0;0;0;0;0;1
16770;ул. Краснопрудная, ул. Верхняя Красносельская;ul. Krasnoprudnaja, ul. Verhnjaja Krasnosel'skaja;5;both;55.779979797;37.6661544444;750;61;61;0;0;0;0;0;0
16780;пл. Красные ворота, Садовое кольцо, ул. Мясницкая;square Krasnye vorota, Sadovoe Ring, ul. Mjasnickaja;7;both;55.7683616161;37.6480432082;730;41;41;0;0;0;0;0;1
16790;ул. Каланчевская улица, ул. Новая Басманная;ul. Kalanchevskaja ulica, ul. Novaja Basmannaja;7;in;55.7698506489;37.650350681;730;6;6;0;0;0;0;0;2
16791;ул. Каланчевская улица, ул. Новая Басманная;ul. Kalanchevskaja ulica, ul. Novaja Basmannaja;7;out;55.7698506489;37.650350681;730;2;2;0;0;0;0;0;2
16800;ул. Воронцовская;ul. Voroncovskaja;153;both;55.732304914;37.6654816515;720;44;1;0;0;320;790;20;1
16801;ул. Воронцовская;ul. Voroncovskaja;115;both;55.732304914;37.6654816515;720;95;54;0;0;320;790;20;0
16810;ул. Волхонка, музей им. Пушкина;ul. Volhonka, museum im. Pushkina;12;both;55.74571998;37.60517249;720;49;49;0;0;0;0;0;0
16811;Храм Христа Спасителя, ул. Волхонка;Hram Hrista Spasitelja, ul. Volhonka;12;both;55.7454179066;37.6052280196;720;33;33;0;0;0;0;0;0
16820;Гоголевский бульвар;Gogolevskij boulevard;12;in;55.7449504083;37.601575021;700;47;47;0;0;0;0;0;0
16821;Гоголевский бульвар;Gogolevskij boulevard;12;out;55.7450370138;37.6016870109;700;48;48;0;0;0;0;0;0
16830;ул. Крылатские холмы, Осенний бульвар (нечетная сторона);ul. Krylatskie holmy, Osennij boulevard (odd side);66;both;55.7579053533;37.4072899322;740;28;28;0;0;0;0;0;1
16840;Осенний бульвар (нечетная сторона);Osennij boulevard (odd side);66;both;55.7556186382;37.4076061801;740;32;32;0;0;0;0;0;1
16850;Рублевское шоссе, ул. Рублевская, Осенний бульвар;Rublevskoe shosse, ul. Rublevskaja, Osennij boulevard;66;both;55.7553023903;37.4085995226;740;35;1;0;0;400;780;20;1
16860;"Осенний бульвар (четная сторона), ТЦ ""Бульвар""";"Osennij boulevard (even side), shopping mall ""boulevard""";66;both;55.7576499224;37.4086279039;740;35;0;0;0;360;630;15;1
16870;"Осенний бульвар (нечетная сторона), кафе ""Му-му""";"Osennij boulevard (odd side), cafe ""Mu-mu""";66;both;55.7573580013;37.4073872392;740;39;0;0;0;350;820;18;1
16880;ул. Крылатские холмы, Перекресток, Осенний бульвар (нечетная сторона);ul. Krylatskie holmy, Perekrestok, Osennij boulevard (odd side);66;both;55.7581324031;37.4085549236;740;26;0;0;0;370;860;18;1
16890;Осенний бульвар (четная сторона);Osennij boulevard (even side);66;both;55.7556551283;37.4088630625;740;32;0;0;0;420;780;19;1
16900;"Рублевское шоссе, ТЦ ""Рублевский"", Осенний бульвар";"Rublevskoe shosse, shopping mall ""Rublevskij"", Osennij boulevard";66;both;55.7552861725;37.4076629425;740;33;0;0;0;410;900;23;1
16910;улица  Рождественка;ulica  Rozhdestvenka;118;both;55.761595376;37.6241906619;710;1;1;0;0;0;0;0;1
16920;Волгоградский пр-т, Волжский б-р;Volgogradskij prospekt, Volzhskij boulevard;112;both;55.705286869;37.7637516423;740;49;1;0;0;410;730;26;0
16922;ул. Маршала Чуйкова;ul. Marshala Chujkova;112;both;55.7052373513;37.7641415942;740;48;24;0;0;330;770;21;0
16930;Волгоградский пр-т, ул. Окская;Volgogradskij prospekt, ul. Okskaja;112;both;55.7060007491;37.7639827249;740;52;1;0;0;330;770;21;0
16932;ул. Жигулевская, пл. Славы;ul. Zhigulevskaja, square Slavy;112;both;55.7059594843;37.7643582341;740;52;1;0;0;430;770;24;0
16940;ул. Зеленодольская;ul. Zelenodol'skaja;112;out;55.7048453362;37.7670425058;550;22;22;0;0;0;0;0;1
16941;ул. Зеленодольская;ul. Zelenodol'skaja;112;in;55.7048453362;37.7670425058;740;56;56;0;0;0;0;0;0
16942;Волгоградский пр-т, Есенинский б-р;Volgogradskij prospekt, Eseninskij boulevard;112;out;55.7047937553;37.7674654695;550;25;1;0;0;290;800;26;1
16943;Волгоградский пр-т, Есенинский б-р;Volgogradskij prospekt, Eseninskij boulevard;112;in;55.7047937553;37.7674654695;740;59;35;0;0;290;800;26;0
16950;ул. Зеленодольская, пл. Славы, Макдональдс;ul. Zelenodol'skaja, square Slavy, McDonalds;112;out;55.7055674692;37.7672859678;550;27;3;0;0;310;840;25;1
16951;ул. Зеленодольская, пл. Славы, Макдональдс;ul. Zelenodol'skaja, square Slavy, McDonalds;112;in;55.7055674692;37.7672859678;740;61;37;0;0;310;840;25;0
16952;Волгоградский пр-т, ул. Шумилова;Volgogradskij prospekt, ul. Shumilova;112;out;55.7055055721;37.7677522595;550;28;28;0;0;0;0;0;1
16953;Волгоградский пр-т, ул. Шумилова;Volgogradskij prospekt, ul. Shumilova;112;in;55.7055055721;37.7677522595;740;62;62;0;0;0;0;0;0
16960;ул. Кастанаевская;ul. Kastanaevskaja;210;in;55.7306983659;37.4465199378;850;42;40;1;40;0;1000;5;0
16961;ул. Кастанаевская;ul. Kastanaevskaja;210;out;55.7306571652;37.446533122;850;42;40;1;40;0;1000;5;0
16970;Рублевское шоссе, ул. Ивана Франко;Rublevskoe shosse, ul. Ivana Franko;210;in;55.7305385072;37.4456744992;800;40;40;1;38;0;0;0;0
16971;Рублевское шоссе, ул. Ивана Франко;Rublevskoe shosse, ul. Ivana Franko;210;out;55.7305764118;37.4456547228;800;40;40;1;38;0;0;0;0
16980;ул. Малая Филевская ;ul. Malaja Filevskaja ;64;in;55.7307939516;37.4464803851;550;32;32;0;0;0;0;0;0
16981;ул. Малая Филевская ;ul. Malaja Filevskaja ;64;out;55.7308466885;37.4464573127;550;32;32;0;0;0;0;0;0
16990;ул. Молдавская;ul. Moldavskaja;64;in;55.7307115502;37.4454948641;550;29;29;0;0;0;0;0;0
16991;ул. Молдавская;ul. Moldavskaja;64;out;55.7306687014;37.4455129924;550;29;29;0;0;0;0;0;0
17000;площадь Курского вокзала, ул. Земляной вал;square Kurskogo vokzala, ul. Zemljanoj val;46;both;55.7586200673;37.6588607328;800;0;0;0;0;0;0;0;1
17001;площадь Курского вокзала, ул. Земляной вал;square Kurskogo vokzala, ul. Zemljanoj val;71;both;55.7586200673;37.6588607328;800;0;0;0;0;0;0;0;1
17010;площадь Курского вокзала, Курский вокзал;square Kurskogo vokzala, Kurskij railway station;46;both;55.7584696984;37.660199732;750;47;47;0;0;0;0;0;1
17011;площадь Курского вокзала, Курский вокзал;square Kurskogo vokzala, Kurskij railway station;71;both;55.7584696984;37.660199732;750;47;47;0;0;0;0;0;1
17012;нижний уровень Курского вокзала;Kurskij railway station, underground level;46;both;55.7579523;37.6600452;740;15;0;0;0;310;720;23;1
17013;нижний уровень Курского вокзала;Kurskij railway station, underground level;71;both;55.7579523;37.6600452;740;15;0;0;0;310;720;23;1
17014;платформа №1, поезда дальнего следования;platform №1, long-distance trains;46;both;55.7586021662;37.6610518224;730;45;15;0;0;430;760;21;1
17015;платформа №1, поезда дальнего следования;platform №1, long-distance trains;71;both;55.7586021662;37.6610518224;730;45;15;0;0;430;760;21;1
17020;ул. Казакова, Нижний Сусальный пер.;ul. Kazakova, Nizhnij Susal'nyj per.;46;both;55.7601917802;37.6619683566;730;15;15;0;0;0;0;0;1
17021;ул. Казакова, Нижний Сусальный пер.;ul. Kazakova, Nizhnij Susal'nyj per.;71;both;55.7601917802;37.6619683566;730;15;15;0;0;0;0;0;1
17030;пригородные поезда Горьковского направления;suburban trains (Gor'kovskoe direction);71;in;55.7560117671;37.6595502303;720;32;0;0;0;0;1000;7;1
17031;пригородные поезда Горьковского направления;suburban trains (Gor'kovskoe direction);71;out;55.7560117671;37.6595502303;600;32;0;0;0;0;1000;7;1
17032;ул. Земляной вал, ул. Верхняя Сыромятническая;ul. Zemljanoj val, ul. Verhnjaja Syromjatnicheskaja;71;in;55.7559450683;37.6582059927;720;66;66;0;0;0;0;0;1
17033;ул. Земляной вал, ул. Верхняя Сыромятническая;ul. Zemljanoj val, ul. Verhnjaja Syromjatnicheskaja;71;out;55.7559450683;37.6582059927;600;58;58;0;0;0;0;0;1
17034;пригородные поезда Горьковского направления;suburban trains (Gor'kovskoe direction);151;in;55.7560117671;37.6595502303;720;32;0;0;0;0;1000;7;1
17035;пригородные поезда Горьковского направления;suburban trains (Gor'kovskoe direction);151;out;55.7560117671;37.6595502303;600;32;0;0;0;0;1000;7;1
17036;ул. Земляной вал, ул. Верхняя Сыромятническая;ul. Zemljanoj val, ul. Verhnjaja Syromjatnicheskaja;151;in;55.7559450683;37.6582059927;720;66;66;0;0;0;0;0;1
17037;ул. Земляной вал, ул. Верхняя Сыромятническая;ul. Zemljanoj val, ul. Verhnjaja Syromjatnicheskaja;151;out;55.7559450683;37.6582059927;600;58;58;0;0;0;0;0;1
17040;Кутузовский проспект, ТТК, ул. Поклонная;Kutuzovskij prospekt, Tretje Transport Ring, ul. Poklonnaja;59;in;55.739462883;37.5349365164;660;31;31;0;0;0;0;0;0
17041;Кутузовский проспект, ТТК, ул. Поклонная;Kutuzovskij prospekt, Tretje Transport Ring, ul. Poklonnaja;59;out;55.7395324881;37.5348858945;540;32;32;0;0;0;0;0;0
17050;Кутузовский проспект, ТТК, ул. Кульнева, набережная;Kutuzovskij prospekt, Tretje Transport Ring, ul. Kul'neva, embankment;59;in;55.7405734009;37.5342594485;800;34;34;0;0;0;0;0;0
17051;Кутузовский проспект, ТТК, ул. Кульнева, набережная;Kutuzovskij prospekt, Tretje Transport Ring, ul. Kul'neva, embankment;59;out;55.7405417622;37.5342784317;560;36;36;0;0;0;0;0;0
17060;Площадь Гагарина;square Gagarina;100;out;55.7069185888;37.585011169;740;0;0;0;0;0;0;0;1
17061;Площадь Гагарина;square Gagarina;100;in;55.7068636169;37.5851202279;740;0;0;0;0;0;0;0;1
17070;ул. Орджоникидзе;ul. Ordzhonikidze;100;out;55.7084817354;37.5874533718;740;0;0;0;0;0;0;0;1
17071;ул. Орджоникидзе;ul. Ordzhonikidze;100;in;55.7084509513;37.5875183604;740;0;0;0;0;0;0;0;1
17080;Лубянская площадь, ул. Никольская, Театральный пр-д;Lubjanskaja square, ul. Nikol'skaja, Teatral'nyj proezd;9;out;55.7590861162;37.6257228576;700;33;33;0;0;0;0;0;1
17081;Лубянская площадь, ул. Никольская, Театральный пр-д;Lubjanskaja square, ul. Nikol'skaja, Teatral'nyj proezd;9;in;55.7590360365;37.6258042371;700;33;33;0;0;0;0;0;1
17090;Лубянская площадь, пер. Малый Черкасский;Lubjanskaja square, per. Malyj Cherkasskij;9;both;55.7588336531;37.6262759744;720;22;22;0;0;0;0;0;2
17100;Политехнический музей, Новая площадь;Politehnicheskij museum, Novaja square;9;both;55.758950394;37.6271320741;720;20;20;0;0;0;0;0;2
17110;Политехнический музей, Лубянский пр-д;Politehnicheskij museum, Lubjanskij proezd;9;both;55.7592420352623;37.628021263033;720;34;34;0;0;0;1000;15;2
17120;Лубянская площадь, ФСБ;Lubjanskaja square, FSB;9;both;55.7600306699999;37.6279527;720;25;25;0;0;0;0;0;2
17130;"ул. Мясницкая, Лубянский пр-д, ""Библио-глобус""";"ul. Mjasnickaja, Lubjanskij proezd, ""Biblio-globus""";9;both;55.75961894;37.62854544;720;32;32;0;0;0;0;0;2
17150;Лубянская площадь, ул. Никольская;Lubjanskaja square, ul. Nikol'skaja;9;both;55.7590373774;37.6259738215;720;21;21;0;0;0;0;0;2
17160;Лубянский пр-д, ул. Мясницкая;Lubjanskij proezd, ul. Mjasnickaja;9;both;55.7593624206;37.6283406855;720;30;30;0;0;0;0;0;2
17170;ул. Судакова, ул. Новороссийская, ул. Совхозная;ul. Sudakova, ul. Novorossijskaja, ul. Sovhoznaja;157;both;55.6744150842;37.760986755;570;75;22;0;0;490;885;19;0
17180;ул. Краснодарская (четная сторона);ul. Krasnodarskaja (even side);157;both;55.6767213935;37.7616733034;720;71;29;0;0;415;860;18;0
17190;ул. Краснодарская (нечетная сторона), школа;ul. Krasnodarskaja (odd side), school;157;both;55.6770461679;37.7617760801;720;70;60;0;0;415;860;18;0
17200;ул. Совхозная (нечетная сторона), школа;ul. Sovhoznaja (odd side), school;157;both;55.6771489446;37.7621419652;720;62;28;0;0;415;860;18;0
17210;ул. Совхозная (четная сторона);ul. Sovhoznaja (even side);157;both;55.6770920723;37.7629469636;720;61;30;0;0;420;880;20;0
17220;"ул. Краснодарская, ТЦ ""Москва""";"ul. Krasnodarskaja, shopping mall ""Moskva""";157;both;55.676867594;37.763221326;720;57;57;0;0;0;0;0;0
17230;ул. Марксистская, ул. Воронцовская;ul. Marksistskaja, ul. Voroncovskaja;84;in;55.7406605071;37.6564802891;700;42;38;0;0;0;0;22;1
17231;ул. Марксистская, ул. Воронцовская;ul. Marksistskaja, ul. Voroncovskaja;84;out;55.7406605071;37.6564802891;550;42;42;0;0;0;0;0;1
17240;ул. Марксистская, ул. Таганская;ul. Marksistskaja, ul. Taganskaja;84;in;55.7410618321;37.6568020722;700;46;6;0;0;410;890;22;1
17241;ул. Марксистская, ул. Таганская;ul. Marksistskaja, ul. Taganskaja;84;out;55.7410618321;37.6568020722;550;46;10;0;0;410;890;18;1
17250;"ул. Сущёвский вал, концертный зал ""Планета КВН""";"ul. Suschjovskij val, concert hall ""Planeta KVN""";217;both;55.7935400442;37.6169652933;740;39;0;1;26;410;1200;18;1
17251;"1-й пр-д Марьиной рощи, ТРЦ ""Райкин Плаза""";"Pervyj proezd Mar'inoj roschi, shopping mall ""Rajkin Plaza""";217;both;55.7938762731;37.6171441385;740;41;1;1;35;0;1000;5;1
17260;ул. Сущёвский вал, ул. Шереметьевская;ul. Suschjovskij val, ul. Sheremet'evskaja;217;both;55.7935507749;37.6158779148;740;40;0;0;0;410;680;21;1
17261;ул. Шереметьевская, 3-й пр-д Марьиной рощи;ul. Sheremet'evskaja, Tretij proezd Mar'inoj roschi;217;both;55.7937424;37.6160021;740;42;29;0;0;410;1200;19;1
17270;"3-й пр-д Марьиной рощи, театр ""Сатирикон""";"Tretij proezd Mar'inoj roschi, theatre ""Satirikon""";217;both;55.7970336031;37.6169924503;730;46;33;0;0;0;1000;5;1
17271;"4-й пр-д Марьиной рощи, театр ""Сатирикон"", пандус";"Chetvertyj proezd Mar'inoj roschi, theatre ""Satirikon"", ramp";217;both;55.7972314083;37.6168114865;740;12;0;0;0;0;1000;5;1
17280;ул. Люблинская, 1-й мкр. Марьинского парка;ul. Ljublinskaja, Pervyj mikrorajon Mar'inskogo parka;159;both;55.6512930682;37.7437329464;590;71;7;0;0;420;770;21;0
17290;ул. Новомарьинская;ul. Novomar'inskaja;159;both;55.6509324617;37.7438882846;590;69;39;0;0;310;770;20;0
17300;ул. Люблинская, 3-й мкр. Марьинского парка;ul. Ljublinskaja, Tretij mikrorajon Mar'inskogo parka;159;both;55.6491839827;37.7438586964;725;70;34;0;0;420;800;19;0
17310;Новочеркасский б-р;Novocherkasskij boulevard;159;both;55.6488122807;37.7440232809;725;68;68;0;0;0;0;0;0
17320;"ТРЦ ""МариЭль"", Макдональдс";"shopping mall ""MariJel'"", McDonalds";159;both;55.6492671996;37.7445225821;725;67;67;0;0;0;0;0;0
17330;"ТРЦ ""МариЭль"",  Марьинский б-р";"shopping mall ""MariJel'"",  Mar'inskij boulevard";159;both;55.6489176887;37.7446520306;725;65;34;0;0;420;800;19;0
17340;"ул. Люблинская, ТК ""Марьинский пассаж""";"ul. Ljublinskaja, shopping mall ""Mar'inskij passazh""";159;both;55.651235741;37.7430764578;590;77;7;0;0;420;770;21;0
17350;ул. Люблинская, Новочеркасский б-р, 3-й мкр. Марьинского парка;ul. Ljublinskaja, Novocherkasskij boulevard, Tretij mikrorajon Mar'inskogo parka;159;both;55.6508399985;37.7432280974;590;73;43;0;0;310;770;20;0
17360;ул. 1-я Тверская-Ямская;ul. Pervaja Tverskaja-Jamskaja;34;both;55.7711394733;37.5945542458;750;37;1;0;0;410;880;20;2
17370;Триумфальная площадь, концертный зал им. Чайковского;Triumfal'naja square, concert hall im. Chajkovskogo;34;both;55.769327318;37.5964727471;780;41;0;0;0;420;900;20;1
17371;Триумфальная площадь, ул. Садовая-Триумфальная;Triumfal'naja square, ul. Sadovaja-Triumfal'naja;34;in;55.7696894134;37.5972629804;790;48;0;0;0;330;760;24;1
17372;Триумфальная площадь, ул. Садовая-Триумфальная;Triumfal'naja square, ul. Sadovaja-Triumfal'naja;34;out;55.7696894134;37.5972629804;850;48;0;0;0;330;760;24;1
17380;пр-д Шокальского, Заревый пр-д;proezd Shokal'skogo, Zarevyj proezd;86;both;55.8859703086;37.6609347771;740;31;1;0;0;320;790;22;0
17381;пр-д Шокальского, ул. Грекова;proezd Shokal'skogo, ul. Grekova;86;both;55.8859703086;37.6616061633;740;32;0;0;0;320;790;22;0
17390;ул. Грекова, ул. Широкая;ul. Grekova, ul. Shirokaja;86;out;55.8881416559;37.6618624703;750;2;2;0;0;0;0;0;1
17391;ул. Широкая;ul. Shirokaja;86;in;55.8879540589;37.6614935295;750;6;0;0;0;0;1000;20;1
17400;"ул. Тестовская, IQ-Quarter, башня ""Евразия""";"ul. Testovskaja, IQ-Quarter, Tower ""Evrazija""";189;both;55.7481391838;37.5330238519;780;11;11;0;0;0;0;0;1
17410;"ул. Новослободская (нечетная сторона), БЦ ""Мейерхольд""";"ul. Novoslobodskaja (odd side), business center ""Mejerhold""";137;both;55.7813359895;37.5988233766;750;33;3;0;0;390;860;20;1
17420;ул. Новослободская (четная сторона), ул. Сущевская;ul. Novoslobodskaja (even side), ul. Suschevskaja;137;both;55.7818800208;37.5990735059;750;43;43;0;0;0;0;0;1
17430;ул. Новослободская (нечетная сторона), ул. Лесная;ul. Novoslobodskaja (odd side), ul. Lesnaja;137;both;55.781463057;37.59871399;750;35;3;0;0;390;860;20;1
17440;"ул. Дубравная, ТК ""Ладья""";"ul. Dubravnaja, shopping mall ""Lad'ja""";213;both;55.8462175827;37.3594328115;800;60;60;1;31;0;0;0;0
17441;"ул. Митинская, к/т ""Люксор""";"ul. Mitinskaja, cinema ""Ljuksor""";213;both;55.8465275695;37.3592778181;800;61;31;1;31;400;900;18;0
17450;"ул. Митинская, Школа-студия ""Арабеск""";"ul. Mitinskaja, Shkola-studija ""Arabesk""";213;both;55.8463105787;37.3612720668;800;76;31;2;76;0;1000;5;0
17460;"ул. Митинская, 7-й мкр. Митино, ТД ""Соби""";"ul. Mitinskaja, Sed'moj mikrorajon Mitino, shopping mall ""Sobi""";213;both;55.8448639734;37.3633593116;800;59;27;0;0;400;900;18;0
17461;"ул. Митинская, 7-й мкр. Митино, ТД ""Соби""";"ul. Mitinskaja, Sed'moj mikrorajon Mitino, shopping mall ""Sobi""";213;both;55.8446573155;37.3638656234;800;57;57;0;0;0;0;0;0
17470;"ул. Дубравная, ТК ""Митино"", Макдональдс";"ul. Dubravnaja, shopping mall ""Mitino"", McDonalds";213;both;55.8470122861;37.360568028;800;67;31;1;31;400;900;21;0
17480;ул. Митинская, 2-й мкр. Митино, 2-й Митинский пер.;ul. Mitinskaja, Vtoroj mikrorajon Mitino, Vtoroj Mitinskij per.;213;both;55.8456131083;37.3637726274;800;65;27;0;0;400;900;20;0
17490;"ул. Дубравная, ТЦ ""Ковчег""";"ul. Dubravnaja, shopping mall ""Kovcheg""";213;both;55.8467860887;37.3612558528;800;69;31;2;62;400;900;21;0
17500;ул. Дубравная, автостоянка;ul. Dubravnaja, car park;213;both;55.8459850925;37.360026953;800;61;61;2;61;0;1000;5;0
17501;ул. Митинская, автостоянка;ul. Mitinskaja, car park;213;both;55.8459540938;37.360662426;800;65;31;2;65;0;1000;5;0
17510;ул. Ярцевская;ul. Jarcevskaja;65;in;55.7411976639;37.4157678381;730;47;47;0;0;0;0;0;0
17511;ул. Ярцевская;ul. Jarcevskaja;65;out;55.7412984049;37.415937083;730;0;0;0;0;0;0;0;1
17520;ул. Ельнинская;ul. El'ninskaja;65;in;55.7402104025;37.4179720504;730;43;43;0;0;0;0;0;0
17521;ул. Ельнинская;ul. El'ninskaja;65;out;55.7403474102;37.4181654731;730;0;0;0;0;0;0;0;1
17530;"""Крокус Экспо"" (павильон 1, 2)";"""Crocus Expo"" (pavillion 1, 2)";215;both;55.8235522598;37.3855503584;800;56;0;0;0;400;950;23;0
17531;"""Крокус Экспо"" (павильон 1, 2), пандус";"""Crocus Expo"" (pavillion 1, 2), ramp";215;both;55.8230865775;37.3855859314;800;57;0;0;0;400;950;20;0
17532;"""Крокус Экспо"" (павильон 3), ""Крокус Сити Холл""";"""Crocus Expo"" (pavillion 3), ""Crocus City Hall""";215;both;55.8264083775;37.385546953;800;31;0;0;0;380;970;22;0
17540;автобусная остановка;bus stop;144;both;55.6821833796;37.6216016506;740;31;31;0;0;0;0;0;1
17550;пригородные кассы;suburban trains ticket office;144;both;55.6821958861;37.6213140018;740;30;0;0;0;310;760;18;1
17560;платформа пригородных поездов;suburban trains platform;144;both;55.6823522169;37.6208950352;740;48;8;0;0;310;760;17;1
17562;платформа пригородных поездов;suburban trains platform;144;both;55.6817143871;37.6210075934;740;50;50;0;0;0;0;0;1
17570;Варшавское шоссе;Varshavskoe shosse;144;both;55.6840906158;37.6227084729;740;56;23;0;0;420;740;20;0
17572;трамвайная остановка;tramway stop;144;both;55.68404059;37.6236589644;740;55;24;0;0;420;870;16;0
17574;ул. Нагатинская;ul. Nagatinskaja;144;both;55.6838029671;37.6237214967;740;60;23;0;0;420;880;16;0
17580;ул. Ремизова;ul. Remizova;145;both;55.6729450412;37.6102594122;740;65;24;0;0;320;760;19;0
17590;ул. Криворожская;ul. Krivorozhskaja;145;both;55.6728137233;37.6109847873;740;65;65;0;0;0;0;0;0
17592;Электролитный пр-д;Jelektrolitnyj proezd;145;both;55.6730575994;37.6114412734;740;64;64;0;0;0;0;0;0
17600;ул. Азовская;ul. Azovskaya;146;out;55.6634411197;37.6062048513;740;39;0;0;0;330;770;18;1
17601;ул. Азовская;ul. Azovskaya;146;in;55.6634411197;37.6062048513;740;72;33;0;0;330;770;18;0
17610;Нахимовский проспект;Nahimovskij prospekt;146;out;55.6635474247;37.6070865572;740;34;0;0;0;330;770;19;1
17611;Нахимовский проспект;Nahimovskij prospekt;146;in;55.6635474247;37.6070865572;740;67;33;0;0;330;770;19;0
17620;ул. Сивашская;ul. Sivashskaya;146;both;55.6615901626;37.6040850052;740;41;0;0;0;320;760;18;1
17630;ул. Фруктовая;ul. Fruktovaya;146;both;55.6617402402;37.6048729126;740;36;0;0;0;310;770;18;1
17640;Нахимовский проспект, Коробовский сад;Nahimovskij prospekt, Korobovskij sad;146;out;55.6637787943;37.606142319;740;32;32;0;0;0;0;0;1
17641;Нахимовский проспект, Коробовский сад;Nahimovskij prospekt, Korobovskij sad;146;in;55.6637787943;37.606142319;740;65;65;0;0;0;0;0;0
17650;"5-й проспект, парк ""Измайлово""";"Pjatyj prospekt, park ""Izmajlovo""";79;in;55.7522557;37.8144915;720;65;28;0;0;330;770;17;0
17651;"5-й проспект, парк ""Измайлово""";"Pjatyj prospekt, park ""Izmajlovo""";79;out;55.7522557;37.8144915;720;38;1;0;0;330;770;17;1
17652;5-й проспект, Федеративный пр-т, Свободный пр-т;Pjatyj prospekt, Federativnyj prospekt, Svobodnyj prospekt;79;in;55.7521484;37.8152651;720;65;28;0;0;430;900;19;0
17653;5-й проспект, Федеративный пр-т, Свободный пр-т;Pjatyj prospekt, Federativnyj prospekt, Svobodnyj prospekt;79;out;55.7521484;37.8152651;720;38;1;0;0;430;900;19;1
17660;5-й проспект, Союзный пр-т, Свободный пр-т;Pjatyj prospekt, Sojuznyj prospekt, Svobodnyj prospekt;79;in;55.7517192;37.8150193;720;62;62;0;0;0;0;0;0
17661;5-й проспект, Союзный пр-т, Свободный пр-т;Pjatyj prospekt, Sojuznyj prospekt, Svobodnyj prospekt;79;out;55.7517192;37.8150193;720;35;35;0;0;0;0;0;1
17662;5-й проспект, ул. Мартеновская;Pjatyj prospekt, ul. Martenovskaja;79;in;55.7518222;37.8143058;720;62;28;0;0;330;770;17;0
17663;5-й проспект, ул. Мартеновская;Pjatyj prospekt, ul. Martenovskaja;79;out;55.7518222;37.8143058;720;35;1;0;0;330;770;17;1
17670;3-й проспект, Свободный пр-т;Tretij prospekt, Svobodnyj prospekt;79;both;55.751274;37.818077;720;56;1;0;0;320;750;22;0
17671;3-й проспект, ж/д станция Новогиреево;Tretij prospekt, railway station Novogireevo;79;both;55.751189;37.818662;720;57;35;0;0;320;750;22;0
17680;"ТЦ ""Новогиреево""";"shopping mall ""Novogireevo""";79;both;55.751673;37.818253;720;59;1;0;0;320;750;22;0
17681;"кинотеатр ""Киргизия""";"cinema ""Kirgizija""";79;both;55.751582;37.818878;720;61;39;0;0;320;750;22;0
17690;Носовихинское шоссе, ул. Котовского;Nosovihinskoe shosse, ul. Kotovskogo;186;both;55.7461492292;37.8661727259;800;75;68;2;68;0;1000;5;0
17700;"ул. Суздальская, ул. Городецкая, магазин ""Пятерочка""";"ul. Suzdal'skaja, ul. Gorodeckaja, shop ""Pjaterochka""";186;both;55.7444651771;37.8659600035;800;68;68;2;68;0;1000;5;0
17710;"ул. Суздальская, ул. Городецкая, универсам ""Монетка""";"ul. Suzdal'skaja, ul. Gorodeckaja, shop ""Monetka""";186;both;55.7439466663;37.8631502954;800;68;68;2;68;0;1000;3;0
17720;ул. Суздальская, Носовихинское шоссе;ul. Suzdal'skaja, Nosovihinskoe shosse;186;both;55.7442657499;37.8629287096;800;68;68;1;29;0;0;0;0
17730;"ул. Южная, ж/д станция ""Реутово""";"ul. Juzhnaja, railway station ""Reutovo""";186;both;55.7455420841;37.8624146305;800;68;68;2;68;0;1000;3;0
17740;ул. Пятницкая, Садовнический пр-д;ul. Pjatnickaja, Sadovnicheskij proezd;31;both;55.7422799751;37.6290703334;720;1;1;0;0;0;0;0;1
17750;ул. Новослободская, ул. Селезневская;ul. Novoslobodskaja, ul. Seleznevskaja;68;both;55.7795037921;37.60111206;860;0;0;0;0;0;0;0;1
17760;Новоясеневский пр-т, кладбище, усадьба Ясенево;"Novojasenevskij prospekt, cemetery, mansion ""Jasenevo""";109;both;55.6014489167;37.5529533379;750;67;25;0;0;420;860;17;0
17761;Битцевский парк;Bitcevskij park;109;both;55.6003871603;37.5560135212;900;67;0;0;0;430;900;22;0
17762;Новоясеневский пр-т, ул. Рокотова;Novojasenevskij prospekt, ul. Rokotova;109;both;55.6019351486;37.5527784459;750;73;25;0;0;420;880;18;0
17770;Битцевский парк;Bitcevskij park;232;both;55.6003871603;37.5560135212;900;64;0;0;0;430;800;20;0
17781;"ТЦ ""Черемушки""";"shopping mall ""Cheremushki""";103;both;55.6696081208;37.5536839177;740;52;26;0;0;310;780;17;0
17783;"ТЦ ""Черемушки""";"shopping mall ""Cheremushki""";103;both;55.6694384587;37.5534777129;740;52;52;0;0;0;0;0;0
17791;"Проектируемый пр-д, ТЦ ""Царское село""";"Proektiruemyj proezd, shopping mall ""Carskoe selo""";103;both;55.6694358485;37.554219006;740;54;54;0;0;0;0;0;0
17793;"Проектируемый пр-д, ТЦ ""Царское село""";"Proektiruemyj proezd, shopping mall ""Carskoe selo""";103;both;55.669247915;37.5540180216;740;52;26;0;0;310;780;22;0
17800;"ТЦ ""Панорама""";"shopping mall ""Panorama""";103;both;55.6712420979;37.5554014207;740;53;26;0;0;320;780;22;0
17801;"ТЦ ""Панорама""";"shopping mall ""Panorama""";103;both;55.6710385033;37.5551795548;740;52;52;0;0;0;0;0;0
17810;"Магазин ""Охотник""";"shop ""Ohotnik""";103;both;55.6710541644;37.5559417294;740;53;26;0;0;310;780;20;0
17811;"Магазин ""Охотник""";"shop ""Ohotnik""";103;both;55.6708610106;37.5557303043;740;53;53;0;0;0;0;0;0
17820;ул. Крымский Вал;ul. Krymskij Val;75;in;55.7292228966;37.6115408384;720;0;0;0;0;0;0;0;1
17821;ул. Крымский Вал;ul. Krymskij Val;75;out;55.7293125017;37.6115497989;740;0;0;0;0;0;0;0;1
17822;МИСиС;MISiS;75;both;55.729419;37.6113577;750;7;0;0;0;0;1000;10;1
17830;ул. Большая Якиманка;ul. Bol'shaja Jakimanka;98;in;55.7312930478;37.6128503697;720;0;0;0;0;0;0;0;1
17831;ул. Большая Якиманка;ul. Bol'shaja Jakimanka;98;out;55.7311765237;37.6128503697;730;0;0;0;0;0;0;0;1
17840;ул. Народного Ополчения, ул. Маршала Вершинина;ul. Narodnogo Opolchenija, ul. Marshala Vershinina;124;both;55.7939584062;37.4923188399;740;60;25;0;0;310;750;17;0
17850;ул. Маршала Бирюзова, ул. Расплетина;ul. Marshala Birjuzova, ul. Raspletina;124;both;55.7941710161;37.4919624055;740;57;57;0;0;0;0;0;0
17860;ул. Народного Ополчения, ул. Маршала Рыбалко;ul. Narodnogo Opolchenija, ul. Marshala Rybalko;124;both;55.7941272435;37.4926565145;740;58;25;0;0;430;850;19;0
17870;"ул. Маршала Бирюзова, ТЦ ""Пятая авеню""";"ul. Marshala Birjuzova, shopping mall ""Pjataja avenju""";124;both;55.7943398534;37.492268814;740;59;25;0;0;280;710;19;0
17880;"ТЦ ""Дарья""";"shopping mall ""Dar'ja""";124;both;55.7928765968;37.4943636472;740;58;58;0;0;0;0;0;0
17890;ул. Маршала Бирюзова, Тепличный пер.;ul. Marshala Birjuzova, Teplichnyj per.;124;both;55.7926639868;37.4947388412;740;56;25;0;0;310;770;18;0
17900;ул. Народного Ополчения, ул. Алабяна;ul. Narodnogo Opolchenija, ul. Alabjana;124;both;55.7930641938;37.4947388412;740;60;25;0;0;430;900;19;0
17910;ул. Маршала Бирюзова, Военно-дипломатическая академия;ul. Marshala Birjuzova, Voenno-diplomaticheskaja akademija;124;both;55.7928640903;37.4951327949;740;57;25;0;0;330;870;18;0
17920;"Шипиловский пр-д, гостиница ""Орехово""";"Shipilovskij proezd, hotel ""Orehovo""";22;both;55.6121228407;37.6959319427;720;1;0;0;0;0;0;0;1
17930;парк Царицыно, ул. Баженова;park Tsaritsyno, ul. Bazhenova;22;both;55.6137455425;37.6934730527;720;47;25;0;0;330;730;23;0
17940;Шипиловский пр-д, автостанция;Shipilovskij proezd, bus station;22;both;55.6141835716;37.6941672923;720;48;0;0;0;430;730;23;0
17950;ул. Хачатуряна, ул. Декабристов;ul. Hachaturjana, ul. Dekabristov;131;in;55.8625668017;37.6045379352;740;65;0;0;0;420;760;22;0
17951;ул. Хачатуряна, ул. Декабристов;ul. Hachaturjana, ul. Dekabristov;131;out;55.8625668017;37.6045379352;740;65;0;0;0;420;760;22;0
17952;ул. Хачатуряна, ул. Отрадная;ul. Hachaturjana, ul. Otradnaja;131;in;55.8622447602;37.60423778;740;63;39;0;0;300;760;22;0
17953;ул. Хачатуряна, ул. Отрадная;ul. Hachaturjana, ul. Otradnaja;131;out;55.8622447602;37.60423778;740;63;39;0;0;300;760;22;0
17960;"Северный б-р, ТЦ ""Отрадное""";"Severnyj boulevard, shopping mall ""Otradnoe""";131;in;55.86434272;37.6054634137;740;64;40;0;0;300;770;24;0
17961;"Северный б-р, ТЦ ""Отрадное""";"Severnyj boulevard, shopping mall ""Otradnoe""";131;out;55.86434272;37.6054634137;740;64;40;0;0;300;770;24;0
17962;"ул. Декабристов, ТЦ ""Отрадное"", пандус";"ul. Dekabristov, shopping mall ""Otradnoe"", ramp";131;in;55.8643489733;37.6046911394;740;24;0;0;0;300;770;24;0
17963;"ул. Декабристов, ТЦ ""Отрадное"", пандус";"ul. Dekabristov, shopping mall ""Otradnoe"", ramp";131;out;55.8643489733;37.6046911394;740;24;0;0;0;300;770;24;0
17970;Северный б-р, ул. Декабристов, 3-й мкр.;Severnyj boulevard, ul. Dekabristov, 3rd mikrorajon;131;in;55.8641832626;37.6061575226;740;64;40;0;0;300;770;24;0
17971;Северный б-р, ул. Декабристов, 3-й мкр.;Severnyj boulevard, ul. Dekabristov, 3rd mikrorajon;131;out;55.8641832626;37.6061575226;740;64;40;0;0;300;770;24;0
17972;ул. Декабристов, 3-й мкр., пандус;ul. Dekabristov, Tretij mikrorajon, ramp;131;in;55.8639487663;37.6061293831;740;24;0;0;0;300;770;24;0
17973;ул. Декабристов, 3-й мкр., пандус;ul. Dekabristov, Tretij mikrorajon, ramp;131;out;55.8639487663;37.6061293831;740;24;0;0;0;300;770;24;0
17980;"ул. Хачатуряна, ТЦ ""Золотой Вавилон""";"ul. Hachaturjana, shopping mall ""Zolotoj Vavilon""";131;in;55.8628231843;37.6037625342;750;61;1;0;0;410;760;22;0
17981;"ул. Хачатуряна, ТЦ ""Золотой Вавилон""";"ul. Hachaturjana, shopping mall ""Zolotoj Vavilon""";131;out;55.8628231843;37.6037625342;750;61;1;0;0;410;760;22;0
17982;ул. Хачатуряна, сквер;ul. Hachaturjana, public garden;131;in;55.8624448637;37.6033529475;750;59;35;0;0;300;760;22;0
17983;ул. Хачатуряна, сквер;ul. Hachaturjana, public garden;131;out;55.8624448637;37.6033529475;750;59;35;0;0;300;760;22;0
17990;"ул. Тверская, гостиница ""Националь""";"ul. Tverskaja, hotel ""Nacional'""";10;both;55.7570418859;37.6144082727;730;51;51;0;0;0;0;0;1
18000;"ул. Моховая, гостиница ""Националь""";"ul. Mohovaja, hotel ""Nacional'""";10;both;55.7568993271;37.6145799251;730;49;49;0;0;0;0;0;1
18010;ул. Тверская, Государственная Дума РФ;ul. Tverskaja, Gosudarstvennaja Duma RF;10;both;55.7572862747;37.6147987032;730;51;25;0;0;415;815;23;1
18020;ул. Охотный ряд, Государственная Дума РФ;ul. Ohotnyj rjad, Gosudarstvennaja Duma RF;10;both;55.7571859498;37.6151472003;730;50;50;0;0;0;0;0;1
18030;"Манежная площадь, ТЦ ""Охотный ряд""";"Manezhnaja square, shopping mall ""Ohotnyj rjad""";10;both;55.7567362494;37.6159508594;730;58;34;0;0;415;815;25;1
18040;Манежная площадь, Исторический музей, Красная площадь;Manezhnaja square, Istoricheskij museum, Krasnaja square;10;both;55.7561050709;37.6177220376;730;59;59;0;0;0;0;0;1
18050;"Манежная площадь, гостиница ""Москва""";"Manezhnaja square, hotel ""Moskva""";10;both;55.7569080552;37.61570003;730;57;33;0;0;415;815;25;1
18060;ул. Новокузнецкая;ul. Novokuzneckaja;30;in;55.7314463454;37.6360323383;720;1;1;0;0;0;0;0;1
18061;ул. Валовая, ул. Бахрушина;ul. Valovaja, ul. Bahrushina;30;out;55.7313658139;37.6366111589;560;1;1;0;0;0;0;0;1
18062;ул. Новокузнецкая;ul. Novokuzneckaja;30;out;55.7314983554;37.6359870392;560;1;1;0;0;0;0;0;1
18063;ул. Новокузнецкая;ul. Novokuzneckaja;73;in;55.7314463454;37.6360323383;720;1;1;0;0;0;0;0;1
18064;ул. Валовая, ул. Бахрушина;ul. Valovaja, ul. Bahrushina;73;out;55.7313658139;37.6366111589;560;1;1;0;0;0;0;0;1
18065;ул. Новокузнецкая;ul. Novokuzneckaja;73;out;55.7314983554;37.6359870392;560;1;1;0;0;0;0;0;1
18066;ул. Валовая;ul. Valovaja;30;in;55.7312852823;37.6362068233;720;1;1;0;0;0;0;0;1
18067;ул. Валовая;ul. Valovaja;73;in;55.7312852823;37.6362068233;720;1;1;0;0;0;0;0;1
18070;здание Павелецкого вокзала, аэроэкспресс;Paveleckij railway station building, aeroexpress;30;out;55.7295119461;37.6400971211;590;0;0;0;0;0;0;0;1
18071;здание Павелецкого вокзала;Paveleckij railway station building;30;in;55.7295119461;37.6400971211;720;9;0;0;0;310;560;20;1
18072;здание Павелецкого вокзала;Paveleckij railway station building;30;out;55.7295119461;37.6400971211;540;9;0;0;0;310;560;20;1
18080;Крымская площадь, Зубовский бульвар;Krymskaja square, Zubovskij boulevard;13;in;55.7351206599;37.5934010479;740;63;63;0;0;0;0;0;0
18081;Крымская площадь, Зубовский бульвар;Krymskaja square, Zubovskij boulevard;76;in;55.7351206599;37.5934010479;740;0;0;0;0;0;0;0;1
18082;Крымская площадь, Зубовский бульвар;Krymskaja square, Zubovskij boulevard;13;out;55.7353714525;37.5932197254;740;21;21;0;0;0;0;0;1
18083;Крымская площадь, Зубовский бульвар;Krymskaja square, Zubovskij boulevard;76;out;55.7353714525;37.5932197254;740;0;0;0;0;0;0;0;1
18090;ул. Остоженка, Новокрымский пр-д;ul. Ostozhenka, Novokrymskij proezd;13;in;55.7361460234;37.5949497441;720;59;59;0;0;0;0;0;0
18091;ул. Остоженка, Новокрымский пр-д;ul. Ostozhenka, Novokrymskij proezd;13;out;55.7361460234;37.5949497441;550;60;60;0;0;0;0;0;0
18100;ул. Барклая;ul. Barklaja;165;out;55.736456544;37.5159071924;740;39;0;0;0;310;670;17;2
18101;ул. Барклая;ul. Barklaja;165;in;55.736456544;37.5159071924;740;39;12;0;0;310;670;17;2
18102;ул. Барклая;ul. Barklaja;233;out;55.736456544;37.5159071924;740;39;0;0;0;310;670;17;2
18103;ул. Барклая;ul. Barklaja;233;in;55.736456544;37.5159071924;740;39;12;0;0;310;670;17;2
18110;Парк Победы;Park Pobedy;165;out;55.7358180205;37.5171017988;740;51;31;0;0;390;620;19;2
18111;Парк Победы;Park Pobedy;165;in;55.7358180205;37.5171017988;740;51;43;0;0;390;620;19;2
18112;Парк Победы;Park Pobedy;233;out;55.7358180205;37.5171017988;740;51;31;0;0;390;620;19;2
18113;Парк Победы;Park Pobedy;233;in;55.7358180205;37.5171017988;740;51;43;0;0;390;620;19;2
18120;Триумфальная арка;Triumfal'naja arka;165;out;55.7363269001;37.517630918;740;49;33;0;0;390;620;19;2
18121;Триумфальная арка;Triumfal'naja arka;165;in;55.7363269001;37.517630918;740;49;45;0;0;390;620;19;2
18122;Триумфальная арка;Triumfal'naja arka;233;out;55.7363269001;37.517630918;740;49;33;0;0;390;620;19;2
18123;Триумфальная арка;Triumfal'naja arka;233;in;55.7363269001;37.517630918;740;49;45;0;0;390;620;19;2
18130;Парк Победы, ул. 1812 года;Park Pobedy, ul. 1812 goda;165;out;55.7359365663;37.5178043997;740;48;0;0;0;390;620;24;2
18131;Парк Победы, ул. 1812 года;Park Pobedy, ul. 1812 goda;165;in;55.7359365663;37.5178043997;740;48;12;0;0;390;620;24;2
18132;Парк Победы, ул. 1812 года;Park Pobedy, ul. 1812 goda;233;out;55.7359365663;37.5178043997;740;48;0;0;0;390;620;24;2
18133;Парк Победы, ул. 1812 года;Park Pobedy, ul. 1812 goda;233;in;55.7359365663;37.5178043997;740;48;12;0;0;390;620;24;2
18140;площадь Победы, ул. Дениса Давыдова;square Pobedy, ul. Denisa Davydova;165;out;55.736653624;37.5174053918;740;39;0;0;0;310;670;16;2
18141;площадь Победы, ул. Дениса Давыдова;square Pobedy, ul. Denisa Davydova;165;in;55.736653624;37.5174053918;740;39;12;0;0;310;670;16;2
18142;площадь Победы, ул. Дениса Давыдова;square Pobedy, ul. Denisa Davydova;233;out;55.736653624;37.5174053918;740;39;0;0;0;310;670;16;2
18143;площадь Победы, ул. Дениса Давыдова;square Pobedy, ul. Denisa Davydova;233;in;55.736653624;37.5174053918;740;39;12;0;0;310;670;16;2
18150;"Измайловское шоссе, гостиница ""Измайлово""";"Izmajlovskoe shosse, hotel ""Izmajlovo""";50;in;55.7885146638;37.7496783263;950;66;66;0;0;0;0;0;0
18151;"Измайловское шоссе, гостиница ""Измайлово""";"Izmajlovskoe shosse, hotel ""Izmajlovo""";50;out;55.7883724466;37.7497036094;950;66;66;0;0;0;0;0;0
18160;Измайловский б-р, ул. 7-я Парковая;Izmajlovskij boulevard, ul. Sed'maja Parkovaja;52;both;55.7957195677;37.7990077011;520;52;24;0;0;300;810;25;0
18170;ул. Первомайская, ул. 8-я Парковая;ul. Pervomajskaja, ul. Vos'maja Parkovaja;52;both;55.7935985598;37.799110863;550;53;24;0;0;400;805;25;0
18180;Измайловский б-р, ул. 10-я Парковая;Izmajlovskij boulevard, ul. Desjataja Parkovaja;52;both;55.7957360736;37.7997009489;520;53;53;0;0;0;0;0;0
18190;ул. Первомайская, ул. 10-я Парковая;ul. Pervomajskaja, ul. Desjataja Parkovaja;52;both;55.7935903068;37.799762846;550;53;24;0;0;390;805;25;0
18200;Зелёный проспект, ул. 1-я Владимирская;Zeljonyj prospekt, ul. Pervaja Vladimirskaja;80;both;55.7509784;37.7841057;720;61;26;0;0;325;780;19;0
18201;ул. 2-я Владимирская (четная сторона), Федеративный пр-т;ul. Vtoraja Vladimirskaja (even side), Federativnyj prospekt;80;both;55.7512271;37.7843379;720;59;59;0;0;0;0;0;0
18210;ул. 2-я Владимирская (четная сторона), ул. Братская;ul. Vtoraja Vladimirskaja (even side), ul. Bratskaja;80;both;55.7505691;37.7847455;720;60;26;0;0;330;780;17;0
