id_entrance;meetcode;name_ru;name_en;id_station;direction;lat;lon;max_width;min_step;min_step_ramp;lift;lift_minus_step;min_rail_width;max_rail_width;max_angle;escalator
14800;1;"шоссе Энтузиастов, кинотеатр ""Факел""";"shosse Entuziastov, cinema ""Fakel""";82;in;55.7516306;37.7162886;740;43;15;0;0;290;690;19;1
14801;1;"шоссе Энтузиастов, кинотеатр ""Факел""";"shosse Entuziastov, cinema ""Fakel""";82;out;55.7516306;37.7162886;740;43;10;0;0;350;690;19;1
14810;2;шоссе Энтузиастов, трамвайная остановка;shosse Entuziastov, tramway stop;82;in;55.7515293;37.7163578;740;41;41;0;0;0;0;0;1
14811;2;"шоссе Энтузиастов, кинотеатр ""Факел""";shosse Entuziastov, tramway stop;82;out;55.7515293;37.7163578;740;41;36;0;0;350;950;19;1
14820;4;ул. Авиамоторная, ул. Красноказарменная;ul. Aviamotornaja, ul. Krasnokazarmennaja;82;in;55.7519587988;37.7167891091;740;44;44;0;0;0;0;0;1
14821;4;ул. Авиамоторная, ул. Красноказарменная;ul. Aviamotornaja, ul. Krasnokazarmennaja;82;out;55.7519587988;37.7167891091;740;44;39;0;0;350;950;19;1
14830;3;шоссе Энтузиастов, 2-й Кабельный проезд;shosse Entuziastov, Vtoroj Kabel'nyj proezd;82;in;55.7512042;37.7165431;740;41;15;0;0;280;680;15;1
14831;3;шоссе Энтузиастов, 2-й Кабельный проезд;shosse Entuziastov, Vtoroj Kabel'nyj proezd;82;out;55.7512042;37.7165431;740;41;10;0;0;350;680;18;1
14840;7;сквер им. Калинина, Лефортовский рынок;skver im. Kalinina, Lefortovskij market;82;in;55.7522830788;37.717153178;740;42;42;0;0;0;0;0;1
14841;7;сквер им. Калинина, Лефортовский рынок;skver im. Kalinina, Lefortovskij market;82;out;55.7522830788;37.717153178;740;42;37;0;0;350;950;19;1
14850;8;Дангауэровский путепровод;Dangaujerovskij overpass;82;in;55.7519110521;37.7175590253;740;41;41;0;0;0;0;0;1
14851;8;Дангауэровский путепровод;Dangaujerovskij overpass;82;out;55.7519110521;37.7175590253;740;41;36;0;0;350;950;19;1
14860;6;ул. Авиамоторная, ж/д платформа;ul. Aviamotornaja, railway platform;82;in;55.7509103;37.7178209;740;43;15;0;0;280;680;15;1
14861;6;ул. Авиамоторная, ж/д платформа;ul. Aviamotornaja, railway platform;82;out;55.7509103;37.7178209;740;43;10;0;0;350;680;18;1
14870;9;"ж/д платформа ""Новая"", ул. 2-я Кабельная";"railway platform ""Novaja"", ul. Vtoraja Kabel'naja";82;in;55.7510902;37.7179455;740;43;16;0;0;280;680;15;1
14871;9;"ж/д платформа ""Новая"", ул. 2-я Кабельная";"railway platform ""Novaja"", ul. Vtoraja Kabel'naja";82;out;55.7510902;37.7179455;740;43;11;0;0;350;680;18;1
14880;5;"ул. Авиамоторная, НИИ ""Интеграл""";"ul. Aviamotornaja, NII ""Integral""";82;in;55.7508406;37.7175337;740;44;44;0;0;0;0;0;1
14881;5;"ул. Авиамоторная, НИИ ""Интеграл""";"ul. Aviamotornaja, NII ""Integral""";82;out;55.7508406;37.7175337;740;44;39;0;0;350;950;19;1
14890;3;Автозаводская пл., 1-й, 2-й Автозаводский пр-д;Avtozavodskaja square, Pervyj i Vtoroj Avtozavodskij proezd;29;both;55.7063730983;37.657270759;720;1;1;0;0;0;0;0;1
14900;1;"ул. Мастеркова, стадион ""Торпедо""";"ul. Masterkova, staduim ""Torpedo""";29;both;55.7086400896;37.6573207049;720;36;5;0;0;330;820;20;1
14910;2;ул. Автозаводская;ul. Avtozavodskaja;29;both;55.7084058706;37.6582850423;720;35;3;0;0;310;800;20;1
14920;5;ул. Дмитрия Ульянова, ул. Ивана Бабушкина;ul. Dmitrija Ul'janova, ul. Ivana Babushkina;101;out;55.6871860715;37.5723893715;740;31;31;0;0;0;0;0;1
14921;6;ул. Профсоюзная, ул. Львова, ул. Кедрова;ul. Profsojuznaja, ul. L'vova, ul. Kedrova;101;out;55.6869882565;37.5721915565;740;34;34;0;0;0;0;0;1
14922;5;ул. Дмитрия Ульянова, ул. Ивана Бабушкина;ul. Dmitrija Ul'janova, ul. Ivana Babushkina;101;in;55.6871860715;37.5723893715;740;58;58;0;0;0;0;0;0
14923;6;ул. Профсоюзная, ул. Львова, ул. Кедрова;ul. Profsojuznaja, ul. L'vova, ul. Kedrova;101;in;55.6869882565;37.5721915565;740;61;61;0;0;0;0;0;0
14930;7;ул. Дмитрия Ульянова, ул. Новочеремушкинская;ul. Dmitrija Ul'janova, ul. Novocheremushkinskaja;101;out;55.6869715981;37.5730589672;740;31;31;0;0;0;0;0;1
14931;8;ул. Профсоюзная, ул. Кедрова;ul. Profsojuznaja, ul. Kedrova;101;out;55.6867753562;37.5728476298;740;34;34;0;0;0;0;0;1
14932;7;ул. Дмитрия Ульянова, ул. Новочеремушкинская;ul. Dmitrija Ul'janova, ul. Novocheremushkinskaja;101;in;55.6869715981;37.5730589672;740;58;58;0;0;0;0;0;0
14933;8;ул. Профсоюзная, ул. Кедрова;ul. Profsojuznaja, ul. Kedrova;101;in;55.6867753562;37.5728476298;740;61;61;0;0;0;0;0;0
14940;1;проспект 60-летия Октября, Черемушкинский пр-д;prospekt Shestidesjatiletija Oktjabrja, Cheremushkinskij proezd;101;both;55.6888122407;37.5741419668;740;48;23;0;0;290;760;22;0
14941;2;ул. Дмитрия Ульянова, Эндокринологический центр;ul. Dmitrija Ul'janova, Endocrinology center;101;both;55.688614538;37.5739269217;740;51;51;0;0;0;0;0;0
14950;3;проспект 60-летия Октября, ул. Гримау;prospekt Shestidesjatiletija Oktjabrja, ul. Grimau;101;both;55.6886193938;37.5748432912;740;47;47;0;0;0;0;0;0
14951;4;площадь Хо Ши Мина;square Ho Shi Mina;101;both;55.6883391416;37.5745456966;740;51;23;0;0;290;760;24;0
14960;6;ул. Воздвиженка, РГБ;ul. Vozdvizhenka, RGB;54;in;55.7522714905;37.6101026316;730;77;46;0;0;310;860;20;0
14961;6;ул. Воздвиженка, РГБ;ul. Vozdvizhenka, RGB;54;out;55.7522714905;37.6101026316;550;80;49;0;0;310;860;20;0
14962;6;ул. Воздвиженка, РГБ;ul. Vozdvizhenka, RGB;44;in;55.7522714905;37.6101026316;730;62;31;0;0;310;860;20;1
14963;6;ул. Воздвиженка, РГБ;ul. Vozdvizhenka, RGB;44;out;55.7522714905;37.6101026316;550;65;34;0;0;310;860;20;1
14964;6;ул. Воздвиженка, РГБ;ul. Vozdvizhenka, RGB;11;in;55.7522714905;37.6101026316;730;87;56;0;0;310;860;20;0
14965;6;ул. Воздвиженка, РГБ;ul. Vozdvizhenka, RGB;11;out;55.7522714905;37.6101026316;550;90;59;0;0;310;860;20;0
14970;4;ул. Моховая, РГБ;ul. Mohovaja, RGB;54;in;55.7519823491;37.6102607558;730;71;71;0;0;0;0;0;0
14971;4;ул. Моховая, РГБ;ul. Mohovaja, RGB;54;out;55.7519823491;37.6102607558;550;74;74;0;0;0;0;0;0
14972;4;ул. Моховая, РГБ;ul. Mohovaja, RGB;44;in;55.7519823491;37.6102607558;730;56;56;0;0;0;0;0;1
14973;4;ул. Моховая, РГБ;ul. Mohovaja, RGB;44;out;55.7519823491;37.6102607558;550;59;59;0;0;0;0;0;1
14974;4;ул. Моховая, РГБ;ul. Mohovaja, RGB;11;in;55.7519823491;37.6102607558;730;81;81;0;0;0;0;0;0
14975;4;ул. Моховая, РГБ;ul. Mohovaja, RGB;11;out;55.7519823491;37.6102607558;550;84;84;0;0;0;0;0;0
14976;1;ул. Моховая, ул. Знаменка;ul. Mohovaja, ul. Znamenka;11;out;55.7505369211;37.6092008238;730;29;29;0;0;0;0;0;1
14977;1;ул. Моховая, ул. Знаменка;ul. Mohovaja, ul. Znamenka;140;out;55.7505369211;37.6092008238;730;23;23;0;0;0;0;0;2
14978;1;ул. Моховая, ул. Знаменка;ul. Mohovaja, ul. Znamenka;11;in;55.7505369211;37.6092008238;730;69;69;0;0;0;0;0;0
14979;1;ул. Моховая, ул. Знаменка;ul. Mohovaja, ul. Znamenka;140;in;55.7505369211;37.6092008238;730;63;63;0;0;0;0;0;1
14980;9;Александровский сад, кассы Московского Кремля;Aleksandrovskij sad, Moscow Kremlin ticket office;54;in;55.7518946194;37.612542833;730;83;52;0;0;350;710;20;0
14981;9;Александровский сад, кассы Московского Кремля;Aleksandrovskij sad, Moscow Kremlin ticket office;54;out;55.7518946194;37.612542833;550;86;55;0;0;350;710;20;0
14982;9;Александровский сад, кассы Московского Кремля;Aleksandrovskij sad, Moscow Kremlin ticket office;44;in;55.7518946194;37.612542833;730;68;37;0;0;350;710;20;1
14983;9;Александровский сад, кассы Московского Кремля;Aleksandrovskij sad, Moscow Kremlin ticket office;44;out;55.7518946194;37.612542833;550;71;40;0;0;350;710;20;1
14984;9;Александровский сад, кассы Московского Кремля;Aleksandrovskij sad, Moscow Kremlin ticket office;11;in;55.7518946194;37.612542833;730;93;62;0;0;350;710;20;0
14985;9;Александровский сад, кассы Московского Кремля;Aleksandrovskij sad, Moscow Kremlin ticket office;11;out;55.7518946194;37.612542833;550;96;65;0;0;350;710;20;0
14990;1;проспект Мира;prospekt Mira;91;out;55.8076849915;37.6386513247;740;1;1;0;0;0;0;0;1
14991;2;проспект Мира;prospekt Mira;91;in;55.8079069735;37.6385694688;740;3;3;0;0;0;0;0;1
15000;1;ул. Ключевая;ul. Kljuchevaja;225;both;55.6321826509;37.7671080498;800;71;30;2;71;0;1000;2;0
15010;2;ул. Братеевская;ul. Brateevskaja;225;both;55.633708429394;37.7652156136226;800;3;0;0;0;0;1000;6;1
15011;3;ул. Братеевская;ul. Brateevskaja;225;both;55.6337779005953;37.7654835906599;800;3;0;0;0;0;1000;6;1
15020;2;ул. Череповецкая, парк Чермянка;ul. Cherepoveckaja, park Chermjanka;129;both;55.8987623686;37.586449957;740;64;34;0;0;300;770;22;0
15022;1;Алтуфьевское шоссе, пандус;Altuf'evskoe shosse, ramp;129;both;55.8990187512;37.5864249441;900;30;0;0;0;300;770;22;0
15030;5;ул. Череповецкая;ul. Cherepoveckaja;129;both;55.8970739956;37.5865906547;740;61;36;0;0;300;780;22;0
15032;6;Алтуфьевское шоссе, ул. Илимская;Altuf'evskoe shosse, ul. Ilimskaja;129;both;55.8966393959;37.5865687684;740;56;1;0;0;400;780;22;0
15040;7;ул. Лескова, Шенкурский пр-д;ul. Leskova, Shenkurskij proezd;129;both;55.8970614891;37.5878162885;740;63;0;0;0;420;780;22;0
15042;8;ул. Пришвина;ul. Prishvina;129;both;55.8966143829;37.5878100353;740;62;37;0;0;300;780;22;0
15050;4;ул. Лескова;ul. Leskova;129;both;55.8987436089;37.5878413014;740;67;37;0;0;300;770;22;0
15052;3;Алтуфьевский лесопарк;Altuf'evskij lesopark;129;both;55.8992313611;37.5878569345;740;71;1;0;0;390;770;22;0
15060;1;"дублер Варшавского шоссе, ЖК ""Аннинский"", лесопарк";"dubler Varshavskogo shosse, housing estate ""Anninskij"", lesopark";163;both;55.583875104;37.5965919781;740;39;0;0;0;420;870;20;1
15062;2;Варшавское шоссе (четная сторона);Varshavskoe shosse (even side);163;both;55.5834283652;37.5971399961;740;36;1;0;0;410;870;20;1
15070;6;Варшавское шоссе, перехватывающая парковка, ГАИ;Varshavskoe shosse, parking, GAI;163;both;55.5814360767;37.5961688249;800;66;2;0;0;370;940;23;0
15072;4;Варшавское шоссе (нечетная сторона), Макдональдс;Varshavskoe shosse (odd side), McDonalds;163;both;55.5836808697;37.5978961224;740;31;31;0;0;0;0;0;1
15074;3;Варшавское шоссе;Varshavskoe shosse;163;both;55.5836115003;37.5975284647;740;0;0;0;0;0;1000;5;1
15076;5;Варшавское шоссе (нечетная сторона), пандус;Varshavskoe shosse (odd side), ramp;163;both;55.5835379688;37.5978336899;740;1;1;0;0;0;1000;5;1
15080;2;улица Воздвиженка, Генштаб;ulica Vozdvizhenka, Genshtab;44;both;55.7524090505;37.6033912198;735;0;0;0;0;0;0;0;1
15090;1;"кинотеатр ""Художественный""";"cinema ""Hudozhestvennyj""";55;in;55.7521489777;37.6017359719;750;67;67;0;0;0;0;0;0
15091;2;ул. Воздвиженка;ul. Vozdvizhenka;55;in;55.7521970792;37.6016351877;750;67;67;0;0;0;0;0;0
15092;3;Гоголевский бульвар;Gogolevskiy boulevard;55;out;55.7521589034;37.6015244778;550;68;68;0;0;0;0;0;0
15100;2;Финансовая академия, ул. Викторенко;Finansovaja akademija, ul. Viktorenko;37;out;55.8004353056;37.5306640955;720;49;21;0;0;300;620;20;1
15101;2;Финансовая академия, ул. Викторенко;Finansovaja akademija, ul. Viktorenko;37;in;55.8004353056;37.5306640955;720;70;42;0;0;300;620;20;0
15110;1;"галерея ""Аэропорт"", МАДИ";"galereja ""Aeroport"", MADI";37;out;55.8013473014;37.5318384463;720;52;21;0;0;300;620;20;1
15111;1;"галерея ""Аэропорт"", МАДИ";"galereja ""Aeroport"", MADI";37;in;55.8013473014;37.5318384463;720;73;42;0;0;300;620;20;0
15120;4;Ленинградский проспект, ул. 1-я Аэропортовская;Leningradskij prospekt, ul. Pervaja Aeroportovskaja;37;both;55.7999949241;37.5343901605;720;58;58;0;0;0;0;0;0
15130;3;Ленинградский проспект;Leningradskij prospekt;37;both;55.8009787552;37.5321132943;720;58;58;0;0;0;0;0;0
15140;5;ул. Менжинского, ул. Енисейская;ul. Menzhinskogo, ul. Enisejskaja;87;both;55.8688056553;37.6634265975;750;33;33;0;0;0;0;0;1
15142;6;ул. Енисейская, ул. Ленская;ul. Enisejskaja, ul. Lenskaja;87;both;55.868421349;37.6632240389;750;34;0;0;0;320;750;18;1
15150;1;ул. Енисейская, Староватутинский пр-д, к Яузе;ul. Enisejskaja, Starovatutinskij proezd, Jauza river;87;both;55.8707577096;37.6644005435;740;61;37;0;0;310;770;22;0
15152;2;ул. Менжинского, Олонецкий пр-д;ul. Menzhinskogo, Oloneckij proezd;87;both;55.8703886645;37.6642174083;740;67;30;0;0;370;770;22;0
15160;3;ул. Енисейская, Староватутинский пр-д, ул. Тайнинская;ul. Enisejskaja, Starovatutinskij proezd, ul. Tajninskaja;87;both;55.8706245204;37.6652870841;740;54;30;0;0;310;770;22;0
15162;4;ул. Менжинского, ул. Тайнинская;ul. Menzhinskogo, ul. Tajninskaja;87;both;55.8702513131;37.6650997868;740;59;35;0;0;350;800;22;0
15170;3;ул. Барклая, ул. Сеславинская;ul. Barklaja, ul. Seslavinskaja;61;in;55.7436635459;37.4974001378;550;28;28;0;0;0;0;0;0
15171;1;"ул. Барклая, ТЦ ""Горбушкин двор""";"ul. Barklaja, shopping mall ""Gorbushkin dvor""";61;out;55.7436105773;37.4974464853;560;28;28;0;0;0;0;0;0
15180;2;"ул. Барклая, ТЦ ""Горбушкин двор""";"ul. Barklaja, shopping mall ""Gorbushkin dvor""";61;in;55.7438312796;37.4982101153;550;28;28;0;0;0;0;0;0
15181;4;ул. Барклая, ул. Сеславинская;ul. Barklaja, ul. Seslavinskaja;61;out;55.7438732131;37.4981659749;560;28;28;0;0;0;0;0;0
15190;4;ул. Баррикадная;ul. Barrikadnaja;120;out;55.7607430818;37.5815837801;730;0;0;0;0;0;0;0;1
15191;3;ул. Баррикадная;ul. Barrikadnaja;120;in;55.7606388237;37.5812906368;730;0;0;0;0;0;0;0;1
15210;1;Хорошевское шоссе, ул. Розанова;Horoshevskoe shosse, ul. Rozanova;122;out;55.7733554645;37.5444708502;810;31;1;0;0;300;840;24;1
15211;1;Хорошевское шоссе, ул. Розанова;Horoshevskoe shosse, ul. Rozanova;122;in;55.7733554645;37.5444708502;810;78;48;0;0;300;840;24;0
15220;2;"Хорошевское шоссе, ТЦ ""На Беговой""";"Horoshevskoe shosse, shopping mall ""Na Begovoj""";122;out;55.7739818026;37.5445253398;810;36;1;0;0;310;810;22;1
15221;2;"Хорошевское шоссе, ТЦ ""На Беговой""";"Horoshevskoe shosse, shopping mall ""Na Begovoj""";122;in;55.7739818026;37.5445253398;810;83;48;0;0;310;810;22;0
15230;4;Хорошевское шоссе, автобусная остановка, ж/д платформа;Horoshevskoe shosse, bus stop, railway platform;122;out;55.7732635163;37.5490569697;740;40;40;0;0;0;0;0;1
15231;4;Хорошевское шоссе, автобусная остановка, ж/д платформа;Horoshevskoe shosse, bus stop, railway platform;122;in;55.7732635163;37.5490569697;740;73;73;0;0;0;0;0;0
15232;3;ж/д платформа ;railway platform ;122;out;55.7729521828;37.5489876052;740;55;55;0;0;0;0;0;1
15233;3;ж/д платформа ;railway platform ;122;in;55.7729521828;37.5489876052;740;88;88;0;0;0;0;0;0
15234;5;Хорошевское шоссе, автобусная остановка, пандус;Horoshevskoe shosse, bus stop, ramp;122;out;55.7732861;37.548698049;740;2;2;0;0;0;1000;5;1
15235;5;Хорошевское шоссе, автобусная остановка, пандус;Horoshevskoe shosse, bus stop, ramp;122;in;55.7732861;37.548698049;740;35;35;0;0;0;1000;5;0
15240;6;"ул. Беговая, ОЦ ""На Беговой""";"ul. Begovaja, office center ""Na Begovoj""";122;out;55.7743579378;37.5492757884;740;48;37;0;0;0;1000;4;1
15241;6;"ул. Беговая, ОЦ ""На Беговой""";"ul. Begovaja, office center ""Na Begovoj""";122;in;55.7743579378;37.5492757884;740;81;70;0;0;0;1000;4;0
15250;6;Грузинский вал, Белорусский вокзал;Gruzinskij val, Belorusskij railway station;67;in;55.7754196298;37.5827102001;720;2;2;0;0;0;0;0;1
15251;7;Грузинский вал, Белорусский вокзал;Gruzinskij val, Belorusskij railway station;67;out;55.775302476;37.5828010458;800;0;0;0;0;0;0;0;1
15260;4;вход в здание Белорусского вокзала;entrance to Belorusskij railway station building;35;in;55.7772587311;37.5821816866;720;0;0;0;0;0;0;0;1
15261;2;Белорусский вокзал, аэроэкспресс;Belorusskij railway station, aeroexpress;35;out;55.7774976128;37.5822315147;720;0;0;0;0;0;0;0;1
15262;1;Ленинградский пр-т, путепровод;Leningradskij prospekt, overpass;35;in;55.7775562341;37.5821450483;720;40;40;0;0;0;0;0;1
15270;3;Бутырский вал;Butyrskij val;67;both;55.7774314489;37.5857155101;550;68;30;0;0;320;770;20;1
15271;5;ул. Лесная;ul. Lesnaja;67;both;55.7776549843;37.5862453719;550;73;63;0;0;320;970;20;1
15281;5;НИИ вычислительных комплексов им.М.А.Карцева;NII vychislitel'nyh kompleksov im.M.A.Karceva;105;both;55.6418526414;37.5254217727;740;56;24;0;0;320;770;18;0
15283;6;НИИ вычислительных комплексов им.М.А.Карцева;NII vychislitel'nyh kompleksov im.M.A.Karceva;105;both;55.6415834882;37.5252317006;740;50;50;0;0;0;0;0;0
15291;7;АШАН Сити;"""AUCHAN City"" shopping mall";105;both;55.6417277765;37.5260696826;740;59;25;0;0;310;780;20;0
15293;8;АШАН Сити;"""AUCHAN City"" shopping mall";105;both;55.6414461368;37.525874061;740;53;53;0;0;0;0;0;0
15300;1;ул. Профсоюзная (дублер);ul. Profsojuznaja (dubler);105;both;55.6438102452;37.5267661512;740;38;38;0;0;0;0;0;1
15301;2;ул. Профсоюзная (дублер);ul. Profsojuznaja (dubler);105;both;55.6435175064;37.5265774665;740;32;0;0;0;330;780;17;1
15310;3;ул. Генерала Антонова;ul. Generala Antonova;105;both;55.6436853803;37.5274168359;740;31;31;0;0;0;0;0;1
15311;4;ул. Генерала Антонова;ul. Generala Antonova;105;both;55.6434217766;37.5272239891;740;28;0;0;0;330;780;20;1
15320;5;"ТВК ""Миллион мелочей""";"shopping mall ""Million melochej""";130;out;55.884096747;37.6047838077;720;39;34;0;0;500;1000;17;1
15321;5;"ТВК ""Миллион мелочей""";"shopping mall ""Million melochej""";130;in;55.884096747;37.6047838077;720;76;71;0;0;500;1000;17;0
15322;5;"БЦ ""Бибиревский""";"business center ""Bibirevskij""";130;out;55.8838692154;37.6042510509;720;37;1;0;0;500;960;17;1
15323;3;"БЦ ""Бибиревский""";"business center ""Bibirevskij""";130;in;55.8838692154;37.6042510509;720;74;38;0;0;500;960;17;0
15330;1;"ул. Костромская, ТЦ ""Александр Лэнд""";"ul. Kostromskaja, shopping mall ""Alexander Land""";130;both;55.8844367218;37.6013089225;730;49;27;0;0;300;740;24;0
15332;2;ул. Костромкая, ул. Бибиревская;ul. Kostromkaja, ul. Bibirevskaja;130;both;55.884199099;37.6016778633;730;50;0;0;0;350;740;24;0
15340;6;ул. Пришвина, ул. Плещеева;ul. Prishvina, ul. Plescheeva;130;out;55.8836042244;37.6054206186;720;43;38;0;0;500;1000;17;0
15341;6;ул. Пришвина, ул. Плещеева;ul. Prishvina, ul. Plescheeva;130;in;55.8836042244;37.6054206186;720;80;75;0;0;500;1000;17;0
15342;4;"ТК ""Гран плюс""";"shopping mall ""Gran plus""";130;out;55.8833766928;37.604892024;720;38;0;0;0;500;870;20;0
15343;4;"ТК ""Гран плюс""";"shopping mall ""Gran plus""";130;in;55.8833766928;37.604892024;720;75;37;0;0;500;870;20;0
15350;3;ул. Воздвиженка, Староваганьковский пер.;ul. Vozdvizhenka, Starovagan'kovskij per.;54;both;55.7522963385;37.6088986291;800;41;41;0;0;0;0;0;0
15351;3;ул. Воздвиженка, Староваганьковский пер.;ul. Vozdvizhenka, Starovagan'kovskij per.;44;both;55.7522963385;37.6088986291;800;60;60;0;0;0;0;0;1
15352;3;ул. Воздвиженка, Староваганьковский пер.;ul. Vozdvizhenka, Starovagan'kovskij per.;11;both;55.7522963385;37.6088986291;800;85;85;0;0;0;0;0;0
15353;5;ул. Манежная;ul. Manezhnaja;54;in;55.7517553465;37.612200378;730;100;69;0;0;350;710;20;0
15354;5;ул. Манежная;ul. Manezhnaja;54;out;55.7517553465;37.612200378;550;103;72;0;0;350;710;20;0
15355;5;ул. Манежная;ul. Manezhnaja;44;in;55.7517553465;37.612200378;730;85;54;0;0;350;710;20;1
15356;5;ул. Манежная;ul. Manezhnaja;44;out;55.7517553465;37.612200378;550;88;57;0;0;350;710;20;1
15357;5;ул. Манежная;ul. Manezhnaja;11;in;55.7517553465;37.612200378;730;110;79;0;0;350;710;20;0
15358;5;ул. Манежная;ul. Manezhnaja;11;out;55.7517553465;37.612200378;550;113;82;0;0;350;710;20;0
15360;7;ул. Воздвиженка, ул. Моховая, факультет журналистики МГУ;ul. Vozdvizhenka, ul. Mohovaja, MSU faculty of journalism;54;in;55.7525965287;37.6108505739;730;71;46;0;0;430;710;23;0
15361;7;ул. Воздвиженка, ул. Моховая, факультет журналистики МГУ;ul. Vozdvizhenka, ul. Mohovaja, MSU faculty of journalism;54;out;55.7525965287;37.6108505739;550;74;49;0;0;430;710;23;0
15362;7;ул. Воздвиженка, ул. Моховая, факультет журналистики МГУ;ul. Vozdvizhenka, ul. Mohovaja, MSU faculty of journalism;44;in;55.7525965287;37.6108505739;730;56;31;0;0;430;710;23;1
15363;7;ул. Воздвиженка, ул. Моховая, факультет журналистики МГУ;ul. Vozdvizhenka, ul. Mohovaja, MSU faculty of journalism;44;out;55.7525965287;37.6108505739;550;59;34;0;0;430;710;23;1
15364;7;ул. Воздвиженка, ул. Моховая, факультет журналистики МГУ;ul. Vozdvizhenka, ul. Mohovaja, MSU faculty of journalism;11;in;55.7525965287;37.6108505739;730;81;56;0;0;430;710;23;0
15365;7;ул. Воздвиженка, ул. Моховая, факультет журналистики МГУ;ul. Vozdvizhenka, ul. Mohovaja, MSU faculty of journalism;11;out;55.7525965287;37.6108505739;550;84;59;0;0;430;710;23;0
15370;2;Братеевский проезд;Brateevskij proezd;220;both;55.6322978835;37.7435165293;725;39;1;0;0;355;900;21;1
15380;1;ул. Борисовские пруды;ul. Borisovskie prudy;220;both;55.6341261171;37.7445777013;780;39;0;2;39;0;1000;5;0
15400;2;пр-д Серебрякова, ул. Вильгельма Пика;proezd Serebrjakova, ul. Vil'gel'ma Pika;89;both;55.8459359593;37.6384272616;740;57;25;0;0;370;830;20;0
15410;1;пр-д Серебрякова, 1-й Ботанический пр-д;proezd Serebrjakova, Pervyj Botanicheskij proezd;89;both;55.84663659;37.6387838202;740;50;50;0;0;0;0;0;0
15412;3;пр-д Серебрякова, ул. Снежная;proezd Serebrjakova, ul. Snezhnaja;89;both;55.8466518513;37.6393290635;740;57;24;0;0;370;830;20;0
15420;5;Ботанический сад;Botanicheskij sad;89;out;55.843796976;37.6375904993;740;1;1;0;0;0;0;0;1
15421;4;Ботанический сад;Botanicheskij sad;89;in;55.8439149222;37.6373667039;740;1;1;0;0;0;0;0;1
15440;6;ул. Перерва, ул. Люблинская, 1-й мкр. Марьинского парка;ul. Pererva, ul. Ljublinskaja, Pervyj mikrorajon Mar'inskogo parka;158;both;55.6586579037;37.7489282186;740;59;1;0;0;410;720;19;0
15450;4;"ул. Перерва, ""Ашан""";"ul. Pererva, ""AUCHAN"" shopping mall";158;both;55.6592893319;37.7497467083;740;64;1;0;0;410;720;19;0
15460;5;ул. Перерва, Мячковский б-р;ul. Pererva, Mjachkovskij boulevard;158;both;55.6590228646;37.7499528578;740;64;38;0;0;310;720;19;0
15470;3;ул. Перерва, 5-й мкр. Марьинского парка;ul. Pererva, Pjatyj mikrorajon Mar'inskogo parka;158;both;55.6598833478;37.7520868865;740;64;1;0;0;410;720;19;0
15480;2;ул. Перерва, ул. Братиславская, парк;ul. Pererva, ul. Bratislavskaja, park;158;both;55.6601398893;37.7527564905;740;58;32;0;0;310;720;19;0
15490;1;"ул. Перерва, ТЦ ""БУМ""";"ul. Pererva, shopping mall ""BUM""";158;both;55.6600307065;37.7517364324;740;60;0;0;0;410;720;19;0
15500;1;ул. Адмирала Лазарева, ул. Южнобутовская;ul. Admirala Lazareva, ul. Juzhnobutovskaja;193;both;55.5450344982;37.5415677647;800;0;0;1;0;0;0;0;0
15510;1;б-р Дмитрия Донского, мкр. 2 и 2А Северного Бутова;boulevard Dmitrija Donskogo, mikrorajon 2 and 2A Severnogo Butova;164;both;55.5702625392;37.576408601;740;61;37;0;0;300;770;20;0
15511;1;б-р Дмитрия Донского, мкр. 2 и 2А Северного Бутова;boulevard Dmitrija Donskogo, mikrorajon 2 and 2A Severnogo Butova;191;both;55.5702625392;37.576408601;740;61;37;0;0;300;770;20;0
15512;2;ул. Знаменские Садки;ul. Znamenskie Sadki;164;both;55.5706580407;37.5767124806;740;58;1;0;0;420;770;20;0
15513;2;ул. Знаменские Садки;ul. Znamenskie Sadki;191;both;55.5706580407;37.5767124806;740;58;1;0;0;420;770;20;0
15520;5;"ТРК ""Круг""";"shopping mall ""Krug""";164;both;55.5699556055;37.5779081475;740;67;43;0;0;300;770;20;0
15521;5;"ТРК ""Круг""";"shopping mall ""Krug""";191;both;55.5699556055;37.5779081475;740;67;43;0;0;300;770;20;0
15522;4;ул. Старокачаловская;ul. Starokachalovskaja;164;both;55.5703343097;37.5781891216;740;64;2;0;0;420;770;21;0
15523;4;ул. Старокачаловская;ul. Starokachalovskaja;191;both;55.5703343097;37.5781891216;740;64;2;0;0;420;770;21;0
15524;3;б-р Дмитрия Донского, автобусы на Подольск;boulevard Dmitrija Donskogo, buses to Podolsk;164;both;55.5700930385;37.5771201985;740;60;1;0;0;410;770;20;0
15525;3;б-р Дмитрия Донского, автобусы на Подольск;boulevard Dmitrija Donskogo, buses to Podolsk;191;both;55.5700930385;37.5771201985;740;60;1;0;0;410;770;20;0
15540;2;Чонгарский б-р, ул. Артековская;Chongarskij boulevard, ul. Artekovskaja;27;out;55.6530552193;37.6179561174;540;29;0;0;0;320;830;22;1
15541;2;Чонгарский б-р, ул. Артековская;Chongarskij boulevard, ul. Artekovskaja;27;in;55.6530552193;37.6179561174;740;76;47;0;0;320;830;22;0
15550;3;Варшавское шоссе;Varshavskoe shosse;27;out;55.653178909;37.6201810046;740;28;28;0;0;0;0;0;1
15551;3;Варшавское шоссе;Varshavskoe shosse;27;in;55.653178909;37.6201810046;740;69;69;0;0;0;0;0;0
15552;5;вход в подвальный этаж торгового центра;entrance to shopping mall (underground level);27;both;55.6536599244;37.6209261968;740;37;37;0;0;0;0;0;0
15553;4;вход в торговый центр;entrance to shopping mall;27;both;55.6536248026;37.6203184376;740;24;24;0;0;0;0;0;1
15554;6;"ж/д станция ""Коломенское"", платформа №1";"railway station ""Kolomenskoe,"" platform №1";27;both;55.6537272089;37.622019714;740;85;85;0;0;0;0;0;0
15556;7;"ж/д станция ""Коломенское"", платформа №2";"railway station ""Kolomenskoe"", platform №2";27;both;55.6537294044;37.6222531885;740;87;47;0;0;300;765;25;0
15560;1;ул. Болотниковская, Чонгарский б-р;ul. Bolotnikovskaja, Chongarskij boulevard;27;out;55.6534751534;37.6179423741;540;29;0;0;0;310;800;22;1
15561;1;ул. Болотниковская, Чонгарский б-р;ul. Bolotnikovskaja, Chongarskij boulevard;27;in;55.6534751534;37.6179423741;740;76;47;0;0;310;800;22;0
15570;8;Каширский пр-д, пригородные кассы;Kashirskij proezd, suburban trains ticket office;27;both;55.6536324378;37.6231411582;740;87;48;0;0;310;750;20;0
15580;1;ВДНХ, Аллея Космонавтов;VDNH, Alleja Kosmonavtov;90;both;55.8202595783;37.6400033338;800;65;26;0;0;410;1000;20;1
15590;6;ул. Церковная горка, ул. Кибальчича;ul. Cerkovnaja gorka, ul. Kibalchicha;90;both;55.8195751117;37.6407447407;800;62;62;0;0;0;0;0;1
15600;2;Останкинский пр-д, Звездный б-р;Ostankinskij proezd, Zvezdnyj boulevard;90;both;55.8199057945;37.6396176401;800;64;64;0;0;0;0;0;1
15610;5;ул. Космонавтов;ul. Kosmonavtov;90;both;55.8199571279;37.6411340547;800;69;26;0;0;410;1000;20;1
15620;4;"Главный вход ВДНХ, гостиница ""Космос""";"VDNH main entrance, hotel ""Cosmos""";90;out;55.8222744745;37.6417014564;800;0;0;0;0;0;0;0;1
15621;3;"Главный вход ВДНХ, гостиница ""Космос""";"VDNH main entrance, hotel ""Cosmos""";90;in;55.8224390838;37.6414949466;800;0;0;0;0;0;0;0;1
15630;4;ул. Станционная, Ботанический сад;ul. Stancionnaja, Botanicheskij sad;132;out;55.8460327815;37.5896400891;750;2;2;0;0;0;0;0;1
15631;2;ул. Станционная, Ботанический сад;ul. Stancionnaja, Botanicheskij sad;132;in;55.8460984404;37.5891773498;750;2;2;0;0;0;0;0;1
15640;3;Сигнальный пр-д;Signal'nyj proezd;132;out;55.8482901988;37.5907250251;740;1;1;0;0;0;0;0;1
15641;1;Сигнальный пр-д;Signal'nyj proezd;132;in;55.8483308448;37.5903717174;740;2;2;0;0;0;0;0;1
15650;2;"ТЦ ""Персей""";"shopping mall ""Persej""";40;in;55.8406243462;37.4861802101;720;43;0;0;0;320;770;23;0
15651;1;Кронштадтский б-р;Kronshtadtskij boulevard;40;out;55.840669215;37.4863415819;550;0;0;0;0;0;0;0;1
15660;4;ул. Адмирала Макарова;ul. Admirala Makarova;40;in;55.8391065442;37.4873220301;530;44;0;0;0;310;760;24;0
15661;3;Головинское шоссе;Golovinskoe shosse;40;out;55.8391495532;37.4874940661;530;0;0;0;0;0;0;0;1
15670;5;2-й Войковский пр-д;Vtoroj Vojkovskij proezd;39;both;55.8181250826;37.498004914;720;51;25;0;0;300;740;20;0
15680;2;3-й Войковский пр-д;Tretij Vojkovskij proezd;39;both;55.8198865427;37.496617808;720;46;24;0;0;360;820;26;0
15690;1;"Старопетровский пр-д, ТЦ ""Метрополис""";"Staropetrovskij proezd, shopping mall ""Metropolis""";39;both;55.8200635678;37.4979075629;720;50;24;0;0;780;330;20;0
15700;3;3-й Войковский пр-д;Tretij Vojkovskij proezd;39;both;55.8196484341;37.49679095;720;50;50;0;0;0;0;0;0
15710;7;2-й Войковский пр-д;Vtoroj Vojkovskij proezd;39;both;55.8178753529;37.4982171843;720;55;55;0;0;0;0;0;0
15720;4;парк им. Воровского;park im. Vorovskogo;39;both;55.8183886863;37.4990704277;720;49;24;0;0;320;780;20;0
15730;6;ул. Космодемьянских;ul. Kosmodem'janskih;39;both;55.8177726862;37.4995698872;720;46;24;0;0;420;880;25;0
15740;1;Волгоградский пр-т, ул. Мельникова;Volgogradskij prospekt, ul. Mel'nikova;114;both;55.7256807813;37.685131139;740;53;25;0;0;310;750;25;0
15741;3;ул. Новоостаповская;ul. Novoostapovskaja;114;both;55.7245806976;37.687760681;740;55;53;0;0;0;1000;10;0
15750;2;Волгоградский пр-т, под мост;Volgogradskij prospekt, under the bridge;114;both;55.7255119313;37.6856220548;740;53;53;0;0;0;0;0;0
15751;4;Волгоградский пр-т, МФЮА;Volgogradskij prospekt, Financial Academy;114;both;55.7244662016;37.6885120609;740;52;52;0;0;0;0;0;0
15760;1;Люблинский парк;Ljublinskij park;156;both;55.6911684382;37.7509431387;720;63;39;0;0;315;750;20;0
15770;2;Люблинский парк;Ljublinskij park;156;both;55.6909882483;37.7516623713;720;64;1;0;0;415;750;20;0
15780;4;ул. Краснодонская, Люблинский парк;ul. Krasnodonskaja, Ljublinskij park;156;both;55.690696585;37.75533794;590;70;5;0;0;410;750;20;0
15790;3;ул. Краснодонская, Кузьминский лесопарк;ul. Krasnodonskaja, Kuz'minskij  woodland park;156;both;55.6906561186;37.7562976803;590;59;3;0;0;350;750;20;0
15800;2;Новотушинский пр-д, Цариков пер.;Novotushinskij proezd, Carikov per.;214;in;55.8364288863;37.3813353347;800;0;0;0;0;0;0;0;1
15801;1;Новотушинский пр-д, Цариков пер.;Novotushinskij proezd, Carikov per.;214;out;55.8364288863;37.3813353347;800;0;0;0;0;0;0;0;1
15810;3;Новотушинский пр-д;Novotushinskij proezd;214;both;55.8346327959;37.3832984006;800;0;0;1;0;0;1000;2;0
15820;2;Воробьевская набережная;Vorob'evskaja embankment;16;both;55.7095294841;37.55790096;720;74;74;0;0;0;0;0;0
15830;4;"СК ""Лужники""";"sport center ""Luzhniki""";16;both;55.7117561592;37.5609105966;720;5;1;0;0;605;890;25;1
15840;5;Лужнецкая набережная;Luzhneckaja embankment;16;both;55.7115787067;37.5612791518;720;5;1;0;0;605;890;25;1
15850;3;мост через Москва-реку;Luzhneckij bridge;16;both;55.7093798349;37.557763527;720;72;72;0;0;0;0;0;0
15851;1;"природный заказник ""Воробьевы горы""";"""Vorob'evy gory"" nature reserve";16;both;55.7092072801;37.5578032299;720;12;12;0;0;0;0;0;1
15860;5;"ТРЦ ""АФИ Молл""";"shopping mall ""AFIMall""";188;out;55.7501533471;37.5428004005;800;21;17;0;0;0;1000;6;2
15861;5;"ТРЦ ""АФИ Молл""";"shopping mall ""AFIMall""";188;in;55.7501533471;37.5428004005;800;50;46;0;0;0;1000;6;1
15862;5;"ТРЦ ""АФИ Молл""";"shopping mall ""AFIMall""";230;both;55.7501533471;37.5428004005;800;21;17;1;0;0;1000;6;2
15863;1;"Башня ""Федерация""";"Tower ""Federacija""";230;both;55.7490619849;37.537743565;800;3;0;1;0;0;1000;4;1
15870;4;Выставочный переулок;Vystavochnyj pereulok;188;out;55.7485620153;37.5441888875;860;9;0;0;0;0;1000;6;2
15871;4;Выставочный переулок;Vystavochnyj pereulok;188;in;55.7485620153;37.5441888875;790;39;30;0;0;0;1000;6;1
15872;2;Пресненская набережная;Presnenskaja embankment;188;out;55.7480477608;37.543768913;860;8;0;0;0;0;1000;10;2
15873;2;Пресненская набережная;Presnenskaja embankment;188;in;55.7480477608;37.543768913;790;38;30;0;0;0;1000;10;1
15874;3;"Мост ""Багратион""";"Bridge ""Bagration""";188;in;55.7482347992;37.544076624;790;30;30;0;0;0;0;0;2
15875;3;"Мост ""Багратион""";"Bridge ""Bagration""";188;out;55.7482347992;37.544076624;860;0;0;0;0;0;0;0;3
15890;5;Рязанский пр-т, ул. Ташкентская;Rjazanskij prospekt, ul. Tashkentskaja;110;out;55.7153052646;37.8185065164;890;26;26;0;0;0;0;0;0
15891;5;Рязанский пр-т, ул. Ташкентская;Rjazanskij prospekt, ul. Tashkentskaja;110;in;55.7153052646;37.8185065164;550;25;25;0;0;0;0;0;0
15894;4;ул. Косинская, ул. Вешняковская;ul. Kosinskaja, ul. Veshnjakovskaja;110;out;55.7158130305;37.8190566344;820;33;33;0;0;0;0;0;0
15895;4;ул. Косинская, ул. Вешняковская;ul. Kosinskaja, ul. Veshnjakovskaja;110;in;55.7158130305;37.8190566344;820;33;33;0;0;0;0;0;0
15900;3;ул. Хлобыстова, автостанция, пригородные кассы;ul. Hlobystova, bus station, suburban trains ticket office;110;out;55.7157680038;37.8171370583;550;25;25;0;0;0;0;0;0
15901;3;ул. Хлобыстова, автостанция, пригородные кассы;ul. Hlobystova, bus station, suburban trains ticket office;110;in;55.7157680038;37.8171370583;580;26;26;0;0;0;0;0;0
15904;1;ул. Красный Казанец, кассы дальнего следования;ul. Krasnyj Kazanec, long-distance trains ticket office;110;out;55.7163683142;37.8175059991;820;63;63;0;0;0;0;0;0
15905;1;ул. Красный Казанец, кассы дальнего следования;ul. Krasnyj Kazanec, long-distance trains ticket office;110;in;55.7163683142;37.8175059991;820;63;63;0;0;0;0;0;0
15906;2;ул. Красный Казанец;ul. Krasnyj Kazanec;110;out;55.7162620093;37.8178686866;820;58;58;0;0;0;0;0;0
15907;2;ул. Красный Казанец;ul. Krasnyj Kazanec;110;in;55.7162620093;37.8178686866;820;58;58;0;0;0;0;0;0
15910;1;"стадион ""Динамо"", Петровский парк";"staduim ""Dinamo"", Petrovskij park";36;in;55.7904958543;37.5565151565;720;3;3;0;0;0;0;0;1
15911;2;"стадион ""Динамо"", Петровский парк";"staduim ""Dinamo"", Petrovskij park";36;out;55.7905105483;37.5566641767;720;0;0;0;0;0;0;0;1
15920;4;Ленинградский пр-т, ул. Новая Башиловка;Leningradskij prospekt, ul. Novaja Bashilovka;36;in;55.7889261247;37.55993165;720;1;1;0;0;0;0;0;1
15921;3;Ленинградский пр-т, ул. Новая Башиловка;Leningradskij prospekt, ul. Novaja Bashilovka;36;out;55.7889261247;37.5598012356;720;13;13;0;0;0;0;0;1
15930;1;пригородные поезда, трамвайное кольцо;suburban trains, tramways;135;out;55.8078653519;37.5802173368;740;40;40;0;0;0;0;0;1
15931;1;пригородные поезда, трамвайное кольцо;suburban trains, tramways;135;in;55.8078653519;37.5802173368;740;40;37;0;0;420;850;24;1
15932;2;ул. Бутырская, ул. Вятская;ul. Butyrskaja, ul. Vjatskaja;135;out;55.8077432618;37.5806571386;740;39;4;0;0;360;760;22;1
15933;2;ул. Бутырская, ул. Вятская;ul. Butyrskaja, ul. Vjatskaja;135;in;55.8077432618;37.5806571386;740;39;1;0;0;420;760;24;1
15940;3;ул. Бутырская, ул. Новодмитровская;ul. Butyrskaja, ul. Novodmitrovskaja;135;out;55.8081032888;37.5815263369;740;39;33;0;0;430;850;21;1
15941;3;ул. Бутырская, ул. Новодмитровская;ul. Butyrskaja, ul. Novodmitrovskaja;135;in;55.8081032888;37.5815263369;740;39;30;0;0;430;850;24;1
15942;4;ул. Бутырская, хлебозавод № 9;ul. Butyrskaja, bakery plant № 9;135;out;55.8081497663;37.5817975712;740;36;3;0;0;430;830;21;1
15943;4;ул. Бутырская, хлебозавод № 9;ul. Butyrskaja, bakery plant № 9;135;in;55.8081497663;37.5817975712;740;36;0;0;0;430;830;24;1
15950;2;Садовое кольцо, Серпуховская площадь;Sadovoe ring, Serpuhovskaja square;74;out;55.7289994604;37.6228764665;800;0;0;0;0;0;0;0;1
15951;1;Садовое кольцо, Серпуховская площадь;Sadovoe ring, Serpuhovskaja square;74;in;55.7289994604;37.6228764665;780;0;0;0;0;0;0;0;1
15960;1;автобусы в аэропорт Домодедово;buses to aeroport Domodedovo;21;in;55.6108840707;37.7164934767;720;79;40;0;0;410;880;20;0
15961;2;дублер Каширского шоссе (четная сторона), Ореховый б-р;dubler Kashirskogo shosse (even side), Orehovyj boulevard;21;in;55.6106169986;37.7167383506;720;77;77;0;0;0;0;0;0
15962;3;автобусы в аэропорт Домодедово, пандус;buses to aeroport Domodedovo, ramp;21;in;55.6109869948;37.7166367882;720;48;39;0;0;420;1000;20;0
15963;4;дублер Каширского шоссе (нечетная сторона), Ореховый б-р, пандус;dubler Kashirskogo shosse (odd side), Orehovyj boulevard, ramp;21;in;55.6112232869;37.7180549814;720;48;39;0;0;420;1000;20;0
15964;5;дублер Каширского шоссе (нечетная сторона), Ореховый б-р;dubler Kashirskogo shosse (odd side), Orehovyj boulevard;21;in;55.6111636292;37.7180549814;720;76;67;0;0;420;1000;20;0
15965;1;автобусы в аэропорт Домодедово;avtobusy v aeroport Domodedovo;21;out;55.6108840707;37.7164934767;720;40;1;0;0;410;880;20;1
15966;2;дублер Каширского шоссе (четная сторона), Ореховый б-р;dubler Kashirskogo shosse (even side), Orehovyj boulevard;21;out;55.6106169986;37.7167383506;720;38;38;0;0;0;0;0;1
15967;3;автобусы в аэропорт Домодедово, пандус;avtobusy v aeroport Domodedovo, ramp;21;out;55.6109869948;37.7166367882;720;9;0;0;0;420;1000;20;1
15968;4;дублер Каширского шоссе (нечетная сторона), Ореховый б-р, пандус;dubler Kashirskogo shosse (odd side), Orehovyj boulevard, ramp;21;out;55.6112232869;37.7180549814;720;9;0;0;0;420;1000;20;1
15969;5;дублер Каширского шоссе (нечетная сторона), Ореховый б-р;dubler Kashirskogo shosse (odd side), Orehovyj boulevard;21;out;55.6111636292;37.7180549814;720;37;28;0;0;420;1000;20;1
15970;6;"ТЦ ""Снежная королева""";"shopping mall ""Snezhnaja koroleva""";21;in;55.6102084129;37.7168229812;720;78;40;0;0;410;820;20;0
15971;6;"ТЦ ""Снежная королева""";"shopping mall ""Snezhnaja koroleva""";21;out;55.6102084129;37.7168229812;720;39;1;0;0;410;820;20;1
15980;9;Каширское шоссе (нечетная сторона);Kashirskoe shosse (odd side);21;in;55.6100308273;37.7182284048;720;72;40;0;0;410;680;20;0
15981;7;дублер Каширского шоссе (четная сторона), парк;dubler Kashirskogo shosse (even side), park;21;in;55.6098768273;37.7173307651;720;71;71;0;0;0;0;0;0
15982;8;Каширское шоссе (четная сторона);Kashirskoe shosse (even side);21;in;55.6099206025;37.7176148818;720;70;40;0;0;410;680;20;0
15983;11;"ТЦ ""Домодедовский""";"shopping mall ""Domodedovskij""";21;in;55.6100516381;37.7183296841;720;65;39;0;0;430;1050;20;0
15984;10;Каширское шоссе (нечетная сторона), Ореховый б-р;Kashirskoe shosse (odd side), Orehovyj boulevard;21;in;55.610158467;37.7181659724;720;71;71;0;0;0;0;0;0
15985;9;Каширское шоссе (нечетная сторона);Kashirskoe shosse (odd side);21;out;55.6100308273;37.7182284048;720;33;1;0;0;410;680;20;1
15986;7;дублер Каширского шоссе (четная сторона), парк;dubler Kashirskogo shosse (even side), park;21;out;55.6098768273;37.7173307651;720;32;32;0;0;0;0;0;1
15987;8;Каширское шоссе (четная сторона);Kashirskoe shosse (even side);21;out;55.6099206025;37.7176148818;720;31;1;0;0;410;680;20;1
15988;11;"ТЦ ""Домодедовский""";"shopping mall ""Domodedovskij""";21;out;55.6100516381;37.7183296841;720;26;0;0;0;430;1050;20;1
15989;10;Каширское шоссе (нечетная сторона), Ореховый б-р;Kashirskoe shosse (odd side), Orehovyj boulevard;21;out;55.610158467;37.7181659724;720;32;32;0;0;0;0;0;1
15990;13;"Ореховый б-р, Галерея ""Водолей""";"Orehovyj boulevard, Galereja ""Vodolej""";21;both;55.6115638905;37.7208935762;720;57;26;0;0;400;750;20;0
16000;14;Домодедовская ярмарка;Domodedovskaja jarmarka;21;both;55.6108882328;37.7210448015;720;58;26;0;0;420;820;20;0
16001;12;Домодедовская ярмарка, автостанция;Domodedovskaja jarmarka, bus station;21;both;55.6107952779;37.7204856843;720;61;61;0;0;0;0;0;0
16010;2;театр Российской Армии;theatre Rossijskoj Armii;218;in;55.7815840434;37.6139571863;800;66;0;1;34;470;885;20;1
16011;2;театр Российской Армии;theatre Rossijskoj Armii;218;out;55.7815840434;37.6139571863;800;66;7;1;34;470;890;20;1
16020;3;Суворовская пл., ул. Самотечная;Suvorovskaja square, ul. Samotechnaja;218;in;55.781323972;37.6143127269;800;61;1;0;0;470;885;21;1
16021;3;Суворовская пл., ул. Самотечная;Suvorovskaja square, ul. Samotechnaja;218;out;55.781323972;37.6143127269;800;61;8;0;0;470;890;21;1
16022;1;ул. Селезнёвская;ul. Seleznjovskaja;218;in;55.7812164;37.6133883;800;63;31;0;0;470;890;18;1
16023;1;ул. Селезнёвская;ul. Seleznjovskaja;218;out;55.7812164;37.6133883;800;63;38;0;0;470;890;18;1
16030;1;ул. Шарикоподшипниковская, 1-я ул. Машиностроения;ul. Sharikopodshipnikovskaja, Pervaja ul. Mashinostroenija;161;both;55.7178583712;37.6761432278;550;39;1;0;0;410;740;26;1
16031;2;"ТЦ ""Дубровка"", ул. Новоостаповская";"shopping mall ""Dubrovka"", ul. Novoostapovskaja";161;both;55.7180268909762;37.676925300042;550;43;40;0;0;410;740;19;1
16032;3;"ТЦ ""Дубровка"", 2-я ул. Машиностроения";"shopping mall ""Dubrovka"", Vtoraja ul. Mashinostroenija";161;both;55.7176670656545;37.6771960566901;550;41;1;0;0;430;740;18;1
16040;10;ул. Ясеневая, Ореховый б-р, автостанция;ul. Jasenevaja, Orehovyj boulevard, bus station;222;both;55.6134409269;37.7455931783;800;42;1;2;42;0;0;0;0
16050;5;ул. Ясеневая, Ореховый б-р, рынок;ul. Jasenevaja, Orehovyj boulevard, market;222;both;55.6133783185;37.7442616054;800;37;1;2;37;0;0;0;0
16051;11;ул. Ясеневая, ул. Воронежская;ul. Jasenevaja, ul. Voronezhskaja;222;both;55.611138161;37.7448556213;800;60;1;0;0;410;880;20;0
16060;1;ул. 1-я Парковая;ul. 1st Parkovaja;51;both;55.7878204637;37.779895934;710;47;47;0;0;0;0;0;0
16061;2;ул. 2-я Парковая;ul. 2nd Parkovaja;51;both;55.7878184005;37.7801249533;710;51;35;0;0;340;840;24;0
16062;4;"парк ""Измайлово"", на юго-восток";"park ""Izmajlovo"", to south-east";51;both;55.7876441786;37.7801149066;710;47;47;0;0;0;0;0;0
16063;3;"парк ""Измайлово"", на юго-запад";"park ""Izmajlovo"", to south-west";51;both;55.7876388988;37.7798979972;710;44;33;0;0;300;900;25;0
16070;6;ул. 3-я Парковая;ul. 3rd Parkovaja;51;both;55.78793553;37.7833419699;600;39;24;0;0;320;810;24;0
16071;5;"парк ""Измайлово"", на юг";"park ""Izmajlovo"", to south";51;both;55.7876136561;37.7832545645;600;49;33;0;0;320;810;25;0
16072;7;"парк ""Измайлово"", на восток";"park ""Izmajlovo"", to east";51;both;55.7876178183;37.7834238258;600;48;24;0;0;320;810;25;0
16080;7;Институт космических исследований РАН;Institut kosmicheskih issledovanij RAN;104;in;55.6555517058;37.5383855217;550;80;46;0;0;320;820;15;0
16081;7;Институт космических исследований РАН;Institut kosmicheskih issledovanij RAN;104;out;55.6555517058;37.5383855217;760;34;0;0;0;350;820;15;1
16090;5;Главное архивное управление г.Москвы;Moscow Archive office;104;in;55.6565742104;37.539442711;550;80;80;0;0;0;0;0;0
16091;5;Главное архивное управление г.Москвы;Moscow Archive office;104;out;55.6565742104;37.539442711;760;34;34;0;0;0;0;0;1
16092;6;Старокалужское шоссе;Starokaluzhskoe shosse;104;in;55.6563196248;37.5391902065;550;80;50;0;0;310;780;18;0
16093;6;Старокалужское шоссе;Starokaluzhskoe shosse;104;out;55.6563196248;37.5391902065;760;34;4;0;0;310;780;18;1
16100;8;Площадь Академика Келдыша;square Akademika Keldysha;104;in;55.6552977354;37.5392533778;550;81;46;0;0;320;680;15;0
16101;8;Площадь Академика Келдыша;square Akademika Keldysha;104;out;55.6552977354;37.5392533778;760;35;0;0;0;320;680;15;1
16110;9;"ул. Профсоюзная, ТЦ ""Калужский""";"ul. Profsojuznaja, shopping mall ""Kaluzhskij""";104;in;55.6563085257;37.5403139904;550;84;50;0;0;310;780;15;0
16111;9;"ул. Профсоюзная, ТЦ ""Калужский""";"ul. Profsojuznaja, shopping mall ""Kaluzhskij""";104;out;55.6563085257;37.5403139904;760;38;4;0;0;310;780;15;1
16112;10;"ул. Обручева, ТЦ ""Калужский""";"ul. Obrucheva, shopping mall ""Kaluzhskij""";104;in;55.6560334931;37.5400096874;550;81;81;0;0;0;0;0;0
16113;10;"ул. Обручева, ТЦ ""Калужский""";"ul. Obrucheva, shopping mall ""Kaluzhskij""";104;out;55.6560334931;37.5400096874;760;35;35;0;0;0;0;0;1
16120;1;"Транспортный комбинат ""Россия"", ул. Наметкина";"Transportnyj kombinat ""Rossija"", ul. Nametkina";104;in;55.6581509763;37.5410860716;730;79;76;0;0;0;1000;18;0
16121;1;"Транспортный комбинат ""Россия"", ул. Наметкина";"Transportnyj kombinat ""Rossija"", ul. Nametkina";104;out;55.6581509763;37.5410860716;730;32;29;0;0;0;1000;18;1
16122;2;Главное архивное управление г.Москвы;Moscow Archive office;104;in;55.6578943096;37.540806513;730;77;47;0;0;310;780;18;0
16123;2;Главное архивное управление г.Москвы;Moscow Archive office;104;out;55.6578943096;37.540806513;730;30;0;0;0;310;780;18;1
16130;3;Хлебобулочный проезд;Hlebobulochnyj proezd;104;in;55.6578582376;37.5419393149;730;81;81;0;0;0;0;0;0
16131;3;Хлебобулочный проезд;Hlebobulochnyj proezd;104;out;55.6578582376;37.5419393149;730;34;34;0;0;0;0;0;1
16132;4;"Центр культуры и искусства ""Меридиан""";"Culture center ""Meridian""";104;in;55.657621688;37.5416798734;730;84;51;0;0;300;780;18;0
16133;4;"Центр культуры и искусства ""Меридиан""";"Culture center ""Meridian""";104;out;55.657621688;37.5416798734;730;37;4;0;0;300;780;18;1
16140;1;ул. Кантемировская;ul. Kantemirovskaja;24;both;55.6369052174;37.6561164526;720;59;0;0;0;410;720;20;0
16150;6;Пролетарский пр-т (четная сторона), Кавказский б-р;Proletarskij prospekt (even side), Kavkazskij boulevard;24;both;55.6346049289;37.6571708671;720;64;0;0;0;420;750;23;0
16160;4;Пролетарский пр-т (нечетная сторона), ул. Кантемировская;Proletarskij prospekt (odd side), ul. Kantemirovskaja;24;both;55.6350993877;37.6576287286;720;51;0;0;0;400;750;23;0
16161;5;Пролетарский пр-т (нечетная сторона), Кавказский б-р;Proletarskij prospekt (odd side), Kavkazskij boulevard;24;both;55.6348178986;37.6578936595;720;54;30;0;0;320;750;23;0
16170;2;ул. Кантемировская, ул. Бехтерева;ul. Kantemirovskaja, ul. Behtereva;24;both;55.6366931127;37.65533956;720;63;38;0;0;320;720;20;0
16171;3;Пролетарский пр-т (четная сторона), автобусная остановка;Proletarskij prospekt (even side), bus stop;24;both;55.6364515417;37.6555587228;720;58;0;0;0;420;720;20;0
16180;1;Севастопольская площадь, ул. М. Юшуньская;Sevastopol'skaja square, ul. M. Jushun'skaja;26;out;55.652902516;37.5963638695;550;51;24;0;0;350;830;20;0
16181;1;Севастопольская площадь, ул. М. Юшуньская;Sevastopol'skaja square, ul. M. Jushun'skaja;26;in;55.652902516;37.5963638695;720;51;24;0;0;350;830;20;0
16210;4;ул. Каховка, ул. Азовская;ul. Kahovka, ul. Azovskaja;26;out;55.6525955823;37.5972128999;550;58;58;0;0;0;0;0;0
16211;4;ул. Каховка, ул. Азовская;ul. Kahovka, ul. Azovskaja;26;in;55.6525955823;37.5972128999;720;58;58;0;0;0;0;0;0
16220;5;Чонгарский б-р (четная сторона), ул. Азовская;Chongarskij boulevard (even side), ul. Azovskaja;26;out;55.653409491;37.5996424095;550;54;54;0;0;0;0;0;0
16221;5;Чонгарский б-р (четная сторона), ул. Азовская;Chongarskij boulevard (even side), ul. Azovskaja;26;in;55.653409491;37.5996424095;720;54;54;0;0;0;0;0;0
16230;6;Чонгарский б-р (нечетная сторона), ул. Азовская;Chongarskij boulevard (odd side), ul. Azovskaja;26;out;55.6529666514;37.5997890047;550;57;57;0;0;0;0;0;0
16231;6;Чонгарский б-р (нечетная сторона), ул. Азовская;Chongarskij boulevard (odd side), ul. Azovskaja;26;in;55.6529666514;37.5997890047;720;57;57;0;0;0;0;0;0
16234;4;Каширское шоссе, пр-т Андропова, Онкоцентр;Kashirskoe shosse, prospekt Andropova, Onkocentr;25;in;55.6555984168;37.6495524755;540;46;0;0;0;320;710;20;0
16260;3;Каширское шоссе, ул. Москворечье;Kashirskoe shosse, ul. Moskvorech'e;226;in;55.6544257315;37.6479058174;700;51;1;0;0;320;710;20;0
16261;2;ул. Маршала Шестопалова, Институт ревматологии РАН;ul. Marshala Shestopalova, Institut revmatologii RAN;226;out;55.654061623;37.6477979024;550;1;1;0;0;0;0;0;1
16262;3;Каширское шоссе, ул. Москворечье;Kashirskoe shosse, ul. Moskvorech'e;25;in;55.6544257315;37.6479058174;550;51;1;0;0;320;710;20;0
16263;2;ул. Маршала Шестопалова, Институт ревматологии РАН;ul. Marshala Shestopalova, Institut revmatologii RAN;25;out;55.654061623;37.6477979024;550;1;1;0;0;0;0;0;1
16265;6;парк Коломенское;park Kolomenskoe;25;out;55.6557143241;37.6501651282;550;3;3;0;0;0;0;0;1
16270;4;Каширское шоссе, пр-т Андропова, Онкоцентр;Kashirskoe shosse, prospekt Andropova, Onkocentr;226;in;55.6555984168;37.6495524755;720;46;0;0;0;320;710;20;0
16271;6;парк Коломенское;park Kolomenskoe;226;out;55.6557143241;37.6501651282;550;3;3;0;0;0;0;0;1
16272;1;ул. Маршала Шестопалова, Котляковский пр-д;ul. Marshala Shestopalova, Kotljakovskij proezd;226;out;55.6542852445;37.6473499774;550;3;3;0;0;0;0;0;1
16273;5;Онкоцентр, парк Садовники;Onkology center, park Sadovniki;226;out;55.6559359672;37.649687865;550;3;3;0;0;0;0;0;1
16274;1;ул. Маршала Шестопалова, Котляковский пр-д;ul. Marshala Shestopalova, Kotljakovskij proezd;25;out;55.6542852445;37.6473499774;550;53;3;0;0;0;0;0;0
16275;5;Онкоцентр, парк Садовники;Onkology center, park Sadovniki;25;out;55.6559359672;37.649687865;550;49;3;0;0;0;0;0;0
16280;3;площадь Киевского вокзала, ул. Киевская;square Kievskogo vokzala, ul. Kievskaja;42;both;55.7429949517;37.5640660308;740;70;70;0;0;0;0;0;1
16281;3;площадь Киевского вокзала, ул. Киевская;square Kievskogo vokzala, ul. Kievskaja;57;both;55.7429949517;37.5640660308;740;93;72;0;0;300;760;25;0
16282;3;площадь Киевского вокзала, ул. Киевская;square Kievskogo vokzala, ul. Kievskaja;77;both;55.7429949517;37.5640660308;740;48;48;0;0;0;0;0;2
16283;2;пригородные поезда;suburban trains;42;both;55.7425950439;37.5635218939;740;54;54;0;0;0;0;0;1
16284;2;пригородные поезда;suburban trains;57;both;55.7425950439;37.5635218939;740;77;56;0;0;300;760;25;0
16285;2;пригородные поезда;suburban trains;77;both;55.7425950439;37.5635218939;740;32;32;0;0;0;0;0;2
16286;4;площадь Киевского вокзала;square Kievskogo vokzala;42;both;55.7430410437;37.5642734119;740;38;38;0;0;0;0;0;1
16287;4;площадь Киевского вокзала;square Kievskogo vokzala;57;both;55.7430410437;37.5642734119;740;61;40;0;0;300;760;25;0
16288;4;площадь Киевского вокзала;square Kievskogo vokzala;77;both;55.7430410437;37.5642734119;740;16;16;0;0;0;0;0;2
16290;5;"площадь Киевского вокзала, ТРЦ ""Европейский""";"square Kievskogo vokzala, shopping mall ""Evropejskij""";42;out;55.7432871093;37.5651715479;740;22;22;0;0;0;0;0;1
16291;5;"площадь Киевского вокзала, ТРЦ ""Европейский""";"square Kievskogo vokzala, shopping mall ""Evropejskij""";57;out;55.7432871093;37.5651715479;740;63;42;0;0;300;760;25;0
16292;5;"площадь Киевского вокзала, ТРЦ ""Европейский""";"square Kievskogo vokzala, shopping mall ""Evropejskij""";77;out;55.7432871093;37.5651715479;740;0;0;0;0;0;0;0;2
16293;6;"площадь Киевского вокзала, ТРЦ ""Европейский""";"square Kievskogo vokzala, shopping mall ""Evropejskij""";42;in;55.7431623633;37.5647091432;740;39;39;0;0;0;0;0;1
16294;6;"площадь Киевского вокзала, ТРЦ ""Европейский""";"square Kievskogo vokzala, shopping mall ""Evropejskij""";57;in;55.7431623633;37.5647091432;740;62;41;0;0;300;760;25;0
16295;6;"площадь Киевского вокзала, ТРЦ ""Европейский""";"square Kievskogo vokzala, shopping mall ""Evropejskij""";77;in;55.7431623633;37.5647091432;740;8;8;0;0;0;0;0;2
16296;1;поезда дальнего следования;Kievskij railway station, long-distance trains;42;both;55.7427375149;37.5645485253;740;31;31;0;0;0;0;0;1
16297;1;поезда дальнего следования;Kievskij railway station, long-distance trains;57;both;55.7427375149;37.5645485253;740;54;33;0;0;300;760;25;0
16298;1;поезда дальнего следования;Kievskij railway station, long-distance trains;77;both;55.7427375149;37.5645485253;740;9;9;0;0;0;0;0;2
16300;7;"ТРЦ ""Европейский"", выход 4";"shopping mall ""Evropejskij"", exit 4";57;both;55.7441031177;37.5669442556;740;70;18;0;0;400;760;25;0
16301;7;"ТРЦ ""Европейский"", выход 4";"shopping mall ""Evropejskij"", exit 4";77;both;55.7441031177;37.5669442556;740;54;23;0;0;400;980;25;1
16310;8;Киевский вокзал, аэроэкспресс;Kievskij railway station, aeroexpress;57;both;55.743813294;37.567159044;740;64;43;0;0;300;760;25;0
16311;8;Киевский вокзал, аэроэкспресс;Kievskij railway station, aeroexpress;77;both;55.743813294;37.567159044;740;48;48;0;0;0;0;0;1
16320;9;площадь Европы;square Evropy;57;both;55.7437205064;37.5676092457;740;68;18;0;0;400;760;25;0
16321;9;площадь Европы;square Evropy;77;both;55.7437205064;37.5676092457;740;52;23;0;0;400;980;25;1
16330;10;здание ТРЦ Европейский;"entrance to shopping mall ""Evropejskij"" building";57;both;55.7443272855;37.5671506026;740;72;51;0;0;300;760;25;0
16331;10;здание ТРЦ Европейский;"entrance to shopping mall ""Evropejskij"" building";77;both;55.7443272855;37.5671506026;740;56;56;0;0;0;0;0;1
16340;2;Старая площадь;Staraja square;96;both;55.7562284008;37.6300616622;740;61;61;0;0;0;0;0;1
16341;2;Старая площадь;Staraja square;227;both;55.7562284008;37.6300616622;740;61;61;0;0;0;0;0;1
16350;3;Политехнический музей;Politehnicheskij museum;96;both;55.7569568699;37.6305421419;740;73;73;0;0;0;0;0;1
16351;3;Политехнический музей;Politehnicheskij museum;227;both;55.7569568699;37.6305421419;740;73;73;0;0;0;0;0;1
16360;4;памятник героям Плевны;pamjatnik gerojam Plevny;96;both;55.7567476288;37.6309451248;740;69;67;0;0;0;1000;4;1
16361;4;памятник героям Плевны;pamjatnik gerojam Plevny;227;both;55.7567476288;37.6309451248;740;69;67;0;0;0;1000;4;1
16370;7;ул. Маросейка (нечетная сторона);ul. Marosejka (odd side);96;both;55.7573251779;37.6317811078;740;71;71;0;0;0;0;0;1
16371;7;ул. Маросейка (нечетная сторона);ul. Marosejka (odd side);227;both;55.7573251779;37.6317811078;740;71;71;0;0;0;0;0;1
16380;5;памятник героям Плевны;pamjatnik gerojam Plevny;96;both;55.7568548326;37.6312111968;740;72;68;0;0;0;1000;4;1
16381;5;памятник героям Плевны;pamjatnik gerojam Plevny;227;both;55.7568548326;37.6312111968;740;72;68;0;0;0;1000;4;1
16390;8;ул. Маросейка (четная сторона);ul. Marosejka (even side);96;both;55.7572180921;37.6321039643;740;72;72;0;0;0;0;0;1
16391;8;ул. Маросейка (четная сторона);ul. Marosejka (even side);227;both;55.7572180921;37.6321039643;740;72;72;0;0;0;0;0;1
16392;6;Лубянский проезд, ул. Маросейка;Lubjanskij proezd, ul. Marosejka;96;both;55.7570069101;37.6318801887;740;54;54;0;0;0;0;0;1
16393;6;Лубянский проезд, ул. Маросейка;Lubjanskij proezd, ul. Marosejka;227;both;55.7570069101;37.6318801887;740;54;54;0;0;0;0;0;1
16400;9;ул. Варварка;ul. Varvarka;96;both;55.753113033;37.6330711179;740;35;35;0;0;0;0;0;1
16401;9;ул. Варварка;ul. Varvarka;227;both;55.753113033;37.6330711179;740;35;35;0;0;0;0;0;1
16402;10;Китайгородский проезд, ул. Варварка, пандус;Kitajgorodskij proezd, ul. Varvarka, ramp;96;both;55.7529446555;37.6332091757;740;6;6;0;0;0;1000;5;1
16403;10;Китайгородский проезд, ул. Варварка, пандус;Kitajgorodskij proezd, ul. Varvarka, ramp;227;both;55.7529446555;37.6332091757;740;6;6;0;0;0;1000;5;1
16410;12;Китайгородский проезд, Славянская площадь;Kitajgorodskij proezd, Slavjanskaja square;96;both;55.7532266949;37.63364976;740;26;26;0;0;0;0;0;1
16411;12;Китайгородский проезд, Славянская площадь;Kitajgorodskij proezd, Slavjanskaja square;227;both;55.7532266949;37.63364976;740;26;26;0;0;0;0;0;1
16412;11;Китайгородский проезд, Москворецкая набережная;Kitajgorodskij proezd, Moskvoreckaja embankment;96;both;55.7529761222;37.6335515975;740;22;22;0;0;0;0;0;1
16413;11;Китайгородский проезд, Москворецкая набережная;Kitajgorodskij proezd, Moskvoreckaja embankment;227;both;55.7529761222;37.6335515975;740;22;22;0;0;0;0;0;1
16420;13;Славянская площадь, памятник Кириллу и Мефодию;Slavjanskaja square, pamjatnik Kirillu i Mefodiju;96;both;55.7541540722;37.6342568176;740;38;38;0;0;0;0;0;1
16421;13;Славянская площадь, памятник Кириллу и Мефодию;Slavjanskaja square, pamjatnik Kirillu i Mefodiju;227;both;55.7541540722;37.6342568176;740;38;38;0;0;0;0;0;1
16430;14;Лубянский пр-д, Солянский пр-д;Lubjanskij proezd, Soljanskij proezd;96;both;55.7541166154;37.6349517048;740;33;33;0;0;0;0;0;1
16431;14;Лубянский пр-д, Солянский пр-д;Lubjanskij proezd, Soljanskij proezd;227;both;55.7541166154;37.6349517048;740;33;33;0;0;0;0;0;1
16440;1;Новая площадь;Novaja square;96;both;55.7566288005;37.6295114356;740;69;69;0;0;0;0;0;1
16441;1;Новая площадь;Novaja square;227;both;55.7566288005;37.6295114356;740;69;69;0;0;0;0;0;1
16450;15;Солянский пр-д;Soljanskij proezd;96;both;55.7537421793;37.6354556153;740;31;31;0;0;0;0;0;1
16451;15;Солянский пр-д;Soljanskij proezd;227;both;55.7537421793;37.6354556153;740;31;31;0;0;0;0;0;1
16460;1;ул. Петра Романова;ul. Petra Romanova;154;both;55.7061626396;37.6854831482;550;26;1;0;0;315;760;20;1
16470;2;ул. Южнопортовая;ul. Juzhnoportovaja;154;both;55.7063415069;37.6856446879;550;64;2;0;0;315;760;20;0
16480;8;ул. Нагатинская, Коломенское шоссе;ul. Nagatinskaja, Kolomenskoe shosse;28;out;55.6767315638;37.6628216965;720;55;24;0;0;350;790;20;0
16481;8;ул. Нагатинская, Коломенское шоссе;ul. Nagatinskaja, Kolomenskoe shosse;28;in;55.6767315638;37.6628216965;540;55;24;0;0;350;790;20;0
16490;6;ул. Нагатинская;ul. Nagatinskaja;28;out;55.6777457441;37.6630214803;720;53;24;0;0;350;830;20;0
16491;6;ул. Нагатинская;ul. Nagatinskaja;28;in;55.6777457441;37.6630214803;540;53;24;0;0;350;830;20;0
16500;4;пр-т Андропова (четная сторона), автобусная остановка;prospekt Andropova (even side), bus stop;28;out;55.6792612319;37.663368181;720;56;32;0;0;320;780;20;0
16501;4;пр-т Андропова (четная сторона), автобусная остановка;prospekt Andropova (even side), bus stop;28;in;55.6792612319;37.663368181;540;56;32;0;0;320;780;20;0
16510;7;"кинотеатр ""Орбита"", парк Коломенское";"cinema ""Orbita"", park Kolomenskoe";28;out;55.6767551494;37.6643575345;720;32;24;0;0;480;680;20;0
16511;7;"кинотеатр ""Орбита"", парк Коломенское";"cinema ""Orbita"", park Kolomenskoe";28;in;55.6767551494;37.6643575345;540;32;24;0;0;480;680;20;0
16520;5;"ул. Новинки, ТЦ ""Коломенский""";"ul. Novinki, shopping mall ""Kolomenskij""";28;out;55.6776625008;37.6645378949;720;51;25;0;0;340;770;20;0
16521;5;"ул. Новинки, ТЦ ""Коломенский""";"ul. Novinki, shopping mall ""Kolomenskij""";28;in;55.6776625008;37.6645378949;540;51;25;0;0;340;770;20;0
16530;1;пр-т Андропова (нечетная сторона), автобусная остановка;prospekt Andropova (odd side), bus stop;28;out;55.6795317472;37.665016706;720;54;0;0;0;320;680;20;0
16531;1;пр-т Андропова (нечетная сторона), автобусная остановка;prospekt Andropova (odd side), bus stop;28;in;55.6795317472;37.665016706;540;54;0;0;0;320;680;20;0
16540;3;ул. Судостроительная;ul. Sudostroitel'naja;28;out;55.6791502512;37.6649496552;720;55;31;0;0;320;780;20;0
16541;3;ул. Судостроительная;ul. Sudostroitel'naja;28;in;55.6791502512;37.6649496552;540;55;31;0;0;320;780;20;0
16550;2;ул. Высокая;ul. Vysokaja;28;out;55.6796265431;37.6634306076;720;55;1;0;0;320;720;20;0
16551;2;ул. Высокая;ul. Vysokaja;28;in;55.6796265431;37.6634306076;540;55;1;0;0;320;720;20;0
16560;11;Ленинградский и Ярославский вокзалы, Комсомольская площадь;Leningradskij and Jaroslavskij railway stations, Komsomol'skaja square;70;in;55.7758495926;37.6559459066;700;71;47;0;0;325;775;19;1
16561;11;Ленинградский и Ярославский вокзалы, Комсомольская площадь;Leningradskiji and Jaroslavskij railway stations, Komsomol'skaja square;6;in;55.7758495926;37.6559459066;700;68;47;0;0;320;750;23;1
16570;10;Казанский вокзал, Комсомольская площадь;Kazanskij railway station, Komsomol'skaja square;70;in;55.7749041485;37.6561982126;700;65;24;0;0;325;730;23;1
16571;13;Казанский вокзал, Комсомольская площадь;Kazanskij railway station, Komsomol'skaja square;70;in;55.7751489982246;37.6566520831376;700;76;52;0;0;325;775;19;1
16572;10;Казанский вокзал, Комсомольская площадь;Kazanskij railway station, Komsomol'skaja square;6;in;55.7749041485;37.6561982126;700;62;0;0;0;320;730;23;1
16573;13;Казанский вокзал, Комсомольская площадь;Kazanskij railway station, Komsomol'skaja square;6;in;55.7751489982246;37.6566520831376;700;73;52;0;0;320;750;23;1
16580;5;Казанский вокзал, Комсомольская площадь;Kazanskij railway station, Komsomol'skaja square;70;in;55.7744567508;37.6556537381;725;33;33;0;0;0;0;0;2
16581;6;Казанский вокзал, поезда;Kazanskij railway station, long-distance trains;70;in;55.773892794362;37.6557684467885;725;44;23;0;0;360;650;20;2
16583;5;Казанский вокзал, Комсомольская площадь;Kazanskij railway station, Komsomol'skaja square;6;in;55.7744567508;37.6556537381;725;54;54;0;0;0;0;0;0
16584;6;Казанский вокзал, поезда;Kazanskij railway station, long-distance trains;6;in;55.773892794362;37.6557684467885;725;65;44;0;0;360;650;20;0
16586;7;Казанский вокзал, поезда;Kazanskij railway station, long-distance trains;70;in;55.7735675832;37.6558328848;725;41;6;0;0;480;600;25;2
16587;7;Казанский вокзал, поезда;Kazanskij railway station, long-distance trains;6;in;55.7735675832;37.6558328848;725;62;27;0;0;480;600;25;0
16590;3;Ленинградский и Ярославский вокзалы;Leningradskij and Jaroslavskij railway stations;70;out;55.776742512;37.655923396;540;24;0;0;0;325;775;19;1
16591;3;Ленинградский и Ярославский вокзалы;Leningradskij and Jaroslavskij railway stations;6;out;55.776742512;37.655923396;540;21;0;0;0;320;750;23;1
16592;4;Ленинградский и Ярославский вокзалы, Комсомольская площадь;Leningradskij and Jaroslavskij railway stations, Komsomol'skaja square;70;out;55.7762022583;37.6562891929;750;24;0;0;0;325;775;19;1
16593;4;Ленинградский и Ярославский вокзалы, Комсомольская площадь;Leningradskij and Jaroslavskij railway stations, Komsomol'skaja square;6;out;55.7762022583;37.6562891929;750;21;0;0;0;320;750;23;1
16594;1;Ленинградский вокзал, электрички;Leningradskij railway station, suburban trains;70;in;55.7781297262;37.654739715;740;48;24;0;0;325;775;19;1
16595;1;Ленинградский вокзал, электрички;Leningradskij railway station, suburban trains;6;in;55.7781297262;37.654739715;740;45;24;0;0;320;750;23;1
16596;2;Ярославский вокзал, электрички;Jaroslavskij railway station, suburban trains;70;in;55.7773381043;37.6563473452;740;48;24;0;0;325;775;19;1
16597;2;Ярославский вокзал, электрички;Jaroslavskij railway station, suburban trains;6;in;55.7773381043;37.6563473452;740;45;24;0;0;320;750;23;1
16600;12;Комсомольская площадь, трамвайная остановка;Komsomol'skaja square, tramway stop;6;in;55.7755006787;37.6560828459;700;67;46;0;0;320;750;23;1
16601;12;Комсомольская площадь, трамвайная остановка;Komsomol'skaja square, tramway stop;70;in;55.7755006787;37.6560828459;700;70;46;0;0;325;775;19;1
16602;9;Комсомольская площадь, трамвайная остановка;Komsomol'skaja square, tramway stop;6;in;55.7752802627;37.6557367459;700;68;47;0;0;320;750;23;1
16603;9;Комсомольская площадь, трамвайная остановка;Komsomol'skaja square, tramway stop;70;in;55.7752802627;37.6557367459;700;71;47;0;0;325;775;19;1
16610;8;Ленинградский и Ярославский вокзалы, Комсомольская площадь;Leningradskij i Jaroslavskij railway stations, Komsomol'skaja square;6;in;55.7757154671;37.6552940379;700;66;24;0;0;320;740;26;1
16611;8;Ленинградский и Ярославский вокзалы, Комсомольская площадь;Leningradskij i Jaroslavskij railway stations, Komsomol'skaja square;70;in;55.7757154671;37.6552940379;700;69;24;0;0;325;740;26;1
16612;5;Казанский вокзал, Комсомольская площадь;Kazanskij railway station, Komsomol'skaja square;70;out;55.7744567508;37.6556537381;540;33;33;0;0;0;0;0;2
16613;6;Казанский вокзал, поезда;Kazanskij railway station, long-distance trains;70;out;55.773892794362;37.6557684467885;540;44;17;0;0;360;510;22;2
16615;5;Казанский вокзал, Комсомольская площадь;Kazanskij railway station, Komsomol'skaja square;6;out;55.7744567508;37.6556537381;540;54;54;0;0;0;0;0;0
16616;6;Казанский вокзал, поезда;Kazanskij railway station, long-distance trains;6;out;55.773892794362;37.6557684467885;540;65;38;0;0;360;510;22;0
16618;7;Казанский вокзал, поезда;Kazanskij railway station, long-distance trains;70;out;55.7735675832;37.6558328848;540;41;0;0;0;480;510;25;2
16619;7;Казанский вокзал, поезда;Kazanskij railway station, long-distance trains;6;out;55.7735675832;37.6558328848;540;62;21;0;0;480;510;25;0
16620;7;"Вещевой рынок ""Коньково-пассаж""";"market ""Konkovo-passazh""";106;both;55.6324447665;37.5181227269;740;68;43;0;0;320;770;19;0
16621;8;"Вещевой рынок ""Коньково-пассаж"", продуктовый рынок";"market ""Konkovo-passazh"", food market";106;both;55.6320521359;37.5178494115;740;66;0;0;0;410;770;19;0
16630;3;ул.Островитянова (четная сторона);ul.Ostrovitjanova (even side);106;both;55.6343482622;37.5189995558;740;64;26;0;0;400;960;20;0
16631;2;"ул.Островитянова (четная сторона), вещевой рынок ""Коньково-пассаж""";"ul.Ostrovitjanova (even side), market ""Konkovo-passazh""";106;both;55.6340471991;37.5191924027;740;62;62;0;0;0;0;0;0
16640;9;"ул. Профсоюзная, ""Продуктовый рай""";"ul. Profsojuznaja, ""Produktovyj raj""";106;both;55.632192262;37.5194005108;740;57;32;0;0;320;770;19;0
16641;10;"ул. Профсоюзная, ""Продуктовый рай""";"ul. Profsojuznaja, ""Produktovyj raj""";106;both;55.6317802079;37.519132745;740;59;0;0;0;410;770;19;0
16650;1;ул. Островитянова (нечетная сторона);ul. Ostrovitjanova (odd side);106;both;55.6347145325;37.5192881324;740;59;59;0;0;0;0;0;0
16651;4;ул. Островитянова (нечетная сторона), ул. Профсоюзная;ul. Ostrovitjanova (odd side), ul. Profsojuznaja;106;both;55.6345716316;37.5199110694;740;56;25;0;0;400;940;19;0
16660;5;ул. Профсоюзная (четная сторона), автобусная остановка;ul. Profsojuznaja (even side), bus stop;106;both;55.6339209469;37.5199721145;740;54;54;0;0;0;0;0;0
16670;6;"ул. Профсоюзная, ТЦ Виктория, ТЦ ""Мир кожи и меха""";"ul. Profsojuznaja, shopping mall Viktorija, shopping mall ""Mir kozhi i meha""";106;both;55.6338161991;37.5205520425;740;54;25;0;0;350;920;18;0
16680;6;Ореховый б-р, ул. Мусы Джалиля (нечетная сторона);Orehovyj boulevard, ul. Musy Dzhalilja (odd side);20;in;55.6141571054;37.7460757208;800;64;64;0;0;0;0;0;0
16681;6;Ореховый б-р, ул. Мусы Джалиля (нечетная сторона);Orehovyj boulevard, ul. Musy Dzhalilja (odd side);20;out;55.6141571054;37.7460757208;800;34;34;0;0;0;0;0;1
16690;7;"Ореховый б-р, магазин ""Тук-тук""";"Orehovyj boulevard, shop ""Tuk-tuk""";20;in;55.6135890491;37.7461413832;800;62;62;0;0;0;0;0;0
16691;7;"Ореховый б-р, магазин ""Тук-тук""";"Orehovyj boulevard, shop ""Tuk-tuk""";20;out;55.6135890491;37.7461413832;800;32;32;0;0;0;0;0;1
16700;9;Ореховый б-р, автостанция;Orehovyj boulevard, bus station;20;in;55.6136226438;37.7467583046;800;66;32;0;0;420;820;20;0
16701;9;Ореховый б-р, автостанция;Orehovyj boulevard, bus station;20;out;55.6136226438;37.7467583046;800;36;2;0;0;420;820;20;1
16710;8;Ореховый б-р, ул. Кустанайская;Orehovyj boulevard, ul. Kustanajskaja;20;in;55.6141968082;37.7466010201;800;66;30;0;0;320;750;20;0
16711;8;Ореховый б-р, ул. Кустанайская;Orehovyj boulevard, ul. Kustanajskaja;20;out;55.6141968082;37.7466010201;800;36;0;0;0;320;750;20;1
16720;2;"Ореховый б-р, ТЦ ""Облака""";"Orehovyj boulevard, shopping mall ""Oblaka""";20;both;55.613401224;37.7423344897;800;63;38;0;0;320;750;20;0
16730;3;Ореховый б-р, ул. Мусы Джалиля (четная сторона);Orehovyj boulevard, ul. Musy Dzhalilja (even side);20;both;55.6139876047;37.7428842216;800;62;37;0;0;320;740;20;0
16740;4;Ореховый б-р, рынок;Orehovyj boulevard, market;20;both;55.6134393998;37.7429697355;800;61;0;0;0;320;820;20;0
16750;1;"Ореховый б-р, магазин ""Пятерочка, Ореховый пр-д";"Orehovyj boulevard, shop ""Pjaterochka, Orehovyj proezd";20;both;55.6139509559;37.7422764624;800;67;25;0;0;320;750;20;0
16760;2;ул. Красная пресня;ul. Krasnaja presnja;78;out;55.7603447471;37.5773749825;750;2;2;0;0;0;0;0;1
16761;1;ул. Красная пресня;ul. Krasnaja presnja;78;in;55.7603875443;37.5770517895;600;2;2;0;0;0;0;0;1
16770;1;ул. Краснопрудная, ул. Верхняя Красносельская;ul. Krasnoprudnaja, ul. Verhnjaja Krasnosel'skaja;5;both;55.779979797;37.6661544444;750;61;61;0;0;0;0;0;0
16780;1;пл. Красные ворота, Садовое кольцо, ул. Мясницкая;square Krasnye vorota, Sadovoe Ring, ul. Mjasnickaja;7;both;55.7683709234;37.6480559504;730;41;41;0;0;0;0;0;1
16790;3;ул. Каланчевская улица, ул. Новая Басманная;ul. Kalanchevskaja ulica, ul. Novaja Basmannaja;7;in;55.7699025803;37.6503886087;730;6;6;0;0;0;0;0;2
16791;2;ул. Каланчевская улица, ул. Новая Басманная;ul. Kalanchevskaja ulica, ul. Novaja Basmannaja;7;out;55.7698506489;37.650350681;730;2;2;0;0;0;0;0;2
16800;1;ул. Воронцовская;ul. Voroncovskaja;153;both;55.7323132655;37.6654615664;720;44;1;0;0;320;790;20;1
16801;1;ул. Воронцовская;ul. Voroncovskaja;115;both;55.7323132655;37.6654615664;720;95;54;0;0;320;790;20;0
16810;4;ул. Волхонка, музей им. Пушкина;ul. Volhonka, museum im. Pushkina;12;both;55.7458059488;37.6053515156;720;49;49;0;0;0;0;0;0
16811;3;Храм Христа Спасителя, ул. Волхонка;Hram Hrista Spasitelja, ul. Volhonka;12;both;55.7456577542;37.6053515156;720;33;33;0;0;0;0;0;0
16820;1;Гоголевский бульвар;Gogolevskij boulevard;12;in;55.7449504083;37.601575021;700;47;47;0;0;0;0;0;0
16821;2;Гоголевский бульвар;Gogolevskij boulevard;12;out;55.7450370138;37.6016870109;700;48;48;0;0;0;0;0;0
16830;1;ул. Крылатские холмы, Осенний бульвар (нечетная сторона);ul. Krylatskie holmy, Osennij boulevard (odd side);66;both;55.7579166261;37.4072878058;740;28;28;0;0;0;0;0;1
16840;5;Осенний бульвар (нечетная сторона);Osennij boulevard (odd side);66;both;55.7556186382;37.4076061801;740;32;32;0;0;0;0;0;1
16850;8;Рублевское шоссе, ул. Рублевская, Осенний бульвар;Rublevskoe shosse, ul. Rublevskaja, Osennij boulevard;66;both;55.7553360853;37.4085877879;740;35;1;0;0;400;780;20;1
16860;4;"Осенний бульвар (четная сторона), ТЦ ""Бульвар""";"Osennij boulevard (even side), shopping mall ""boulevard""";66;both;55.757640536;37.4086155356;740;35;0;0;0;360;630;15;1
16870;2;"Осенний бульвар (нечетная сторона), кафе ""Му-му""";"Osennij boulevard (odd side), cafe ""Mu-mu""";66;both;55.7573699954;37.4073627247;740;39;0;0;0;350;820;18;1
16880;3;ул. Крылатские холмы, Перекресток, Осенний бульвар (нечетная сторона);ul. Krylatskie holmy, Perekrestok, Osennij boulevard (odd side);66;both;55.7581399955;37.4085544906;740;26;0;0;0;370;860;18;1
16890;7;Осенний бульвар (четная сторона);Osennij boulevard (even side);66;both;55.7556676709;37.4088624906;740;32;0;0;0;420;780;19;1
16900;6;"Рублевское шоссе, ТЦ ""Рублевский"", Осенний бульвар";"Rublevskoe shosse, shopping mall ""Rublevskij"", Osennij boulevard";66;both;55.7553097249;37.4076457517;740;33;0;0;0;410;900;23;1
16910;1;улица  Рождественка;ulica  Rozhdestvenka;118;both;55.7615732409;37.6242473228;710;1;1;0;0;0;0;0;1
16920;3;Волгоградский пр-т, Волжский б-р;Volgogradskij prospekt, Volzhskij boulevard;112;both;55.705286869;37.7637516423;740;49;1;0;0;410;730;26;0
16922;4;ул. Маршала Чуйкова;ul. Marshala Chujkova;112;both;55.7052373513;37.7641415942;740;48;24;0;0;330;770;21;0
16930;1;Волгоградский пр-т, ул. Окская;Volgogradskij prospekt, ul. Okskaja;112;both;55.7060007491;37.7639827249;740;52;1;0;0;330;770;21;0
16932;2;ул. Жигулевская, пл. Славы;ul. Zhigulevskaja, square Slavy;112;both;55.7059594843;37.7643582341;740;52;1;0;0;430;770;24;0
16940;7;ул. Зеленодольская;ul. Zelenodol'skaja;112;out;55.7048453362;37.7670425058;550;22;22;0;0;0;0;0;1
16941;7;ул. Зеленодольская;ul. Zelenodol'skaja;112;in;55.7048453362;37.7670425058;740;56;56;0;0;0;0;0;0
16942;8;Волгоградский пр-т, Есенинский б-р;Volgogradskij prospekt, Eseninskij boulevard;112;out;55.7047937553;37.7674654695;550;25;1;0;0;290;800;26;1
16943;8;Волгоградский пр-т, Есенинский б-р;Volgogradskij prospekt, Eseninskij boulevard;112;in;55.7047937553;37.7674654695;740;59;35;0;0;290;800;26;0
16950;5;ул. Зеленодольская, пл. Славы, Макдональдс;ul. Zelenodol'skaja, square Slavy, McDonalds;112;out;55.7055907213;37.767278432;550;27;3;0;0;310;840;25;1
16951;5;ул. Зеленодольская, пл. Славы, Макдональдс;ul. Zelenodol'skaja, square Slavy, McDonalds;112;in;55.7055907213;37.767278432;740;61;37;0;0;310;840;25;0
16952;6;Волгоградский пр-т, ул. Шумилова;Volgogradskij prospekt, ul. Shumilova;112;out;55.7055250029;37.7677476611;550;28;28;0;0;0;0;0;1
16953;6;Волгоградский пр-т, ул. Шумилова;Volgogradskij prospekt, ul. Shumilova;112;in;55.7055250029;37.7677476611;740;62;62;0;0;0;0;0;0
16960;5;ул. Кастанаевская;ul. Kastanaevskaja;210;in;55.7306983659;37.4465199378;850;42;40;1;40;0;1000;5;0
16961;7;ул. Кастанаевская;ul. Kastanaevskaja;210;out;55.7306571652;37.446533122;850;42;40;1;40;0;1000;5;0
16970;8;Рублевское шоссе, ул. Ивана Франко;Rublevskoe shosse, ul. Ivana Franko;210;in;55.7305385072;37.4456744992;800;40;40;1;38;0;0;0;0
16971;6;Рублевское шоссе, ул. Ивана Франко;Rublevskoe shosse, ul. Ivana Franko;210;out;55.7305764118;37.4456547228;800;40;40;1;38;0;0;0;0
16980;3;ул. Малая Филевская ;ul. Malaja Filevskaja ;64;in;55.7307939516;37.4464803851;550;32;32;0;0;0;0;0;0
16981;1;ул. Малая Филевская ;ul. Malaja Filevskaja ;64;out;55.7308466885;37.4464573127;550;32;32;0;0;0;0;0;0
16990;2;ул. Молдавская;ul. Moldavskaja;64;in;55.7307115502;37.4454948641;550;29;29;0;0;0;0;0;0
16991;4;ул. Молдавская;ul. Moldavskaja;64;out;55.7306687014;37.4455129924;550;29;29;0;0;0;0;0;0
17000;2;площадь Курского вокзала, ул. Земляной вал;square Kurskogo vokzala, ul. Zemljanoj val;46;both;55.7586008653;37.6588474258;800;0;0;0;0;0;0;0;1
17001;2;площадь Курского вокзала, ул. Земляной вал;square Kurskogo vokzala, ul. Zemljanoj val;71;both;55.7586008653;37.6588474258;800;0;0;0;0;0;0;0;1
17010;3;площадь Курского вокзала, Курский вокзал;square Kurskogo vokzala, Kurskij railway station;46;both;55.7584479809;37.6602065017;750;47;47;0;0;0;0;0;1
17011;3;площадь Курского вокзала, Курский вокзал;square Kurskogo vokzala, Kurskij railway station;71;both;55.7584479809;37.6602065017;750;47;47;0;0;0;0;0;1
17012;6;нижний уровень Курского вокзала;Kurskij railway station, underground level;46;both;55.7579523;37.6600452;740;15;0;0;0;310;720;23;1
17013;6;нижний уровень Курского вокзала;Kurskij railway station, underground level;71;both;55.7579523;37.6600452;740;15;0;0;0;310;720;23;1
17014;5;платформа №1, поезда дальнего следования;platform №1, long-distance trains;46;both;55.7585023815;37.6610215721;730;45;15;0;0;430;760;21;1
17015;5;платформа №1, поезда дальнего следования;platform №1, long-distance trains;71;both;55.7585023815;37.6610215721;730;45;15;0;0;430;760;21;1
17020;4;ул. Казакова, Нижний Сусальный пер.;ul. Kazakova, Nizhnij Susal'nyj per.;46;both;55.760072494;37.6618657186;730;15;15;0;0;0;0;0;1
17021;4;ул. Казакова, Нижний Сусальный пер.;ul. Kazakova, Nizhnij Susal'nyj per.;71;both;55.760072494;37.6618657186;730;15;15;0;0;0;0;0;1
17030;7;пригородные поезда Горьковского направления;suburban trains (Gor'kovskoe direction);71;in;55.7560027698;37.6595490054;720;32;0;0;0;0;1000;7;1
17031;7;пригородные поезда Горьковского направления;suburban trains (Gor'kovskoe direction);71;out;55.7560027698;37.6595490054;600;32;0;0;0;0;1000;7;1
17032;1;ул. Земляной вал, ул. Верхняя Сыромятническая;ul. Zemljanoj val, ul. Verhnjaja Syromjatnicheskaja;71;in;55.755922107;37.6582021227;720;66;66;0;0;0;0;0;1
17033;1;ул. Земляной вал, ул. Верхняя Сыромятническая;ul. Zemljanoj val, ul. Verhnjaja Syromjatnicheskaja;71;out;55.755922107;37.6582021227;600;58;58;0;0;0;0;0;1
17034;7;пригородные поезда Горьковского направления;suburban trains (Gor'kovskoe direction);151;in;55.7560027698;37.6595490054;720;32;0;0;0;0;1000;7;1
17035;7;пригородные поезда Горьковского направления;suburban trains (Gor'kovskoe direction);151;out;55.7560027698;37.6595490054;600;32;0;0;0;0;1000;7;1
17036;1;ул. Земляной вал, ул. Верхняя Сыромятническая;ul. Zemljanoj val, ul. Verhnjaja Syromjatnicheskaja;151;in;55.755922107;37.6582021227;720;66;66;0;0;0;0;0;1
17037;1;ул. Земляной вал, ул. Верхняя Сыромятническая;ul. Zemljanoj val, ul. Verhnjaja Syromjatnicheskaja;151;out;55.755922107;37.6582021227;600;58;58;0;0;0;0;0;1
17040;4;Кутузовский проспект, ТТК, ул. Поклонная;Kutuzovskij prospekt, Tretje Transport Ring, ul. Poklonnaja;59;in;55.739462883;37.5349365164;660;33;33;0;0;0;0;0;0
17041;3;Кутузовский проспект, ТТК, ул. Поклонная;Kutuzovskij prospekt, Tretje Transport Ring, ul. Poklonnaja;59;out;55.7395324881;37.5348858945;540;33;33;0;0;0;0;0;0
17050;1;Кутузовский проспект, ТТК, ул. Кульнева, набережная;Kutuzovskij prospekt, Tretje Transport Ring, ul. Kul'neva, embankment;59;in;55.7405734009;37.5342594485;800;37;37;0;0;0;0;0;0
17051;2;Кутузовский проспект, ТТК, ул. Кульнева, набережная;Kutuzovskij prospekt, Tretje Transport Ring, ul. Kul'neva, embankment;59;out;55.7405417622;37.5342784317;560;37;37;0;0;0;0;0;0
17060;3;Площадь Гагарина;square Gagarina;100;out;55.7069370714;37.5849746886;740;0;0;0;0;0;0;0;1
17061;4;Площадь Гагарина;square Gagarina;100;in;55.7068545218;37.5851418688;740;0;0;0;0;0;0;0;1
17070;1;ул. Орджоникидзе;ul. Ordzhonikidze;100;out;55.7084867832;37.587458806;740;0;0;0;0;0;0;0;1
17071;2;ул. Орджоникидзе;ul. Ordzhonikidze;100;in;55.7084562607;37.5875254006;740;0;0;0;0;0;0;0;1
17080;10;Лубянская площадь, ул. Никольская, Театральный пр-д;Lubjanskaja square, ul. Nikol'skaja, Teatral'nyj proezd;9;out;55.7591079139;37.6256858701;700;33;33;0;0;0;0;0;1
17081;10;Лубянская площадь, ул. Никольская, Театральный пр-д;Lubjanskaja square, ul. Nikol'skaja, Teatral'nyj proezd;9;in;55.7590326871;37.6258125679;700;33;33;0;0;0;0;0;1
17090;8;Лубянская площадь, пер. Малый Черкасский;Lubjanskaja square, per. Malyj Cherkasskij;9;both;55.7588413207;37.6262652483;720;22;22;0;0;0;0;0;2
17100;7;Политехнический музей, Новая площадь;Politehnicheskij museum, Novaja square;9;both;55.758950394;37.6271320741;720;20;20;0;0;0;0;0;2
17110;6;Политехнический музей, Лубянский пр-д;Politehnicheskij museum, Lubjanskij proezd;9;both;55.7592359314;37.6280442959;720;34;34;0;0;0;1000;15;2
17120;2;Лубянская площадь, ФСБ;Lubjanskaja square, FSB;9;both;55.7600225133;37.6279109993;720;25;25;0;0;0;0;0;2
17130;4;"ул. Мясницкая, Лубянский пр-д, ""Библио-глобус""";"ul. Mjasnickaja, Lubjanskij proezd, ""Biblio-globus""";9;both;55.7596054665;37.6285075345;720;32;32;0;0;0;0;0;2
17150;9;Лубянская площадь, ул. Никольская;Lubjanskaja square, ul. Nikol'skaja;9;both;55.759027408;37.6259814982;720;21;21;0;0;0;0;0;2
17160;5;Лубянский пр-д, ул. Мясницкая;Lubjanskij proezd, ul. Mjasnickaja;9;both;55.7593718675;37.6283465228;720;30;30;0;0;0;0;0;2
17170;6;ул. Судакова, ул. Новороссийская, ул. Совхозная;ul. Sudakova, ul. Novorossijskaja, ul. Sovhoznaja;157;both;55.6744054325;37.7609818543;570;75;22;0;0;490;885;19;0
17180;2;ул. Краснодарская (четная сторона);ul. Krasnodarskaja (even side);157;both;55.6767081984;37.7616881071;720;71;29;0;0;415;860;18;0
17190;1;ул. Краснодарская (нечетная сторона), школа;ul. Krasnodarskaja (odd side), school;157;both;55.6770334564;37.7617881277;720;70;60;0;0;415;860;18;0
17200;3;ул. Совхозная (нечетная сторона), школа;ul. Sovhoznaja (odd side), school;157;both;55.6771434028;37.7621515616;720;62;28;0;0;415;860;18;0
17210;4;ул. Совхозная (четная сторона);ul. Sovhoznaja (even side);157;both;55.6770914837;37.762953254;720;61;30;0;0;420;880;20;0
17220;5;"ул. Краснодарская, ТЦ ""Москва""";"ul. Krasnodarskaja, shopping mall ""Moskva""";157;both;55.6768670098;37.7632044509;720;57;57;0;0;0;0;0;0
17230;4;ул. Марксистская, ул. Воронцовская;ul. Marksistskaja, ul. Voroncovskaja;84;in;55.7406605071;37.6564802891;700;42;38;0;0;0;0;22;1
17231;4;ул. Марксистская, ул. Воронцовская;ul. Marksistskaja, ul. Voroncovskaja;84;out;55.7406605071;37.6564802891;550;42;42;0;0;0;0;0;1
17240;3;ул. Марксистская, ул. Таганская;ul. Marksistskaja, ul. Taganskaja;84;in;55.7410682971;37.656795143;700;46;6;0;0;410;890;22;1
17241;3;ул. Марксистская, ул. Таганская;ul. Marksistskaja, ul. Taganskaja;84;out;55.7410682971;37.656795143;550;46;10;0;0;410;890;18;1
17250;3;"ул. Сущёвский вал, концертный зал ""Планета КВН""";"ul. Suschjovskij val, concert hall ""Planeta KVN""";217;both;55.7935267243;37.6169529027;740;39;0;1;26;410;1200;18;1
17251;4;"1-й пр-д Марьиной рощи, ТРЦ ""Райкин Плаза""";"Pervyj proezd Mar'inoj roschi, shopping mall ""Rajkin Plaza""";217;both;55.7938643829;37.6171311114;740;41;1;1;35;0;1000;5;1
17260;1;ул. Сущёвский вал, ул. Шереметьевская;ul. Suschjovskij val, ul. Sheremet'evskaja;217;both;55.7935431383;37.615874271;740;40;0;0;0;410;680;21;1
17261;2;ул. Шереметьевская, 3-й пр-д Марьиной рощи;ul. Sheremet'evskaja, Tretij proezd Mar'inoj roschi;217;both;55.7937647267;37.6159973758;740;42;29;1;29;410;1200;19;1
17270;6;"3-й пр-д Марьиной рощи, театр ""Сатирикон""";"Tretij proezd Mar'inoj roschi, theatre ""Satirikon""";217;both;55.7970346221;37.6169763512;730;46;33;0;0;0;1000;5;1
17271;5;"4-й пр-д Марьиной рощи, театр ""Сатирикон"", пандус";"Chetvertyj proezd Mar'inoj roschi, theatre ""Satirikon"", ramp";217;both;55.7972362793;37.6168192462;740;12;0;0;0;0;1000;5;1
17280;3;ул. Люблинская, 1-й мкр. Марьинского парка;ul. Ljublinskaja, Pervyj mikrorajon Mar'inskogo parka;159;both;55.6512930682;37.7437329464;590;71;7;0;0;420;770;21;0
17290;9;ул. Новомарьинская;ul. Novomar'inskaja;159;both;55.6509324617;37.7438882846;590;69;39;0;0;310;770;20;0
17300;5;ул. Люблинская, 3-й мкр. Марьинского парка;ul. Ljublinskaja, Tretij mikrorajon Mar'inskogo parka;159;both;55.6491757917;37.7438676309;725;70;34;0;0;420;800;19;0
17310;6;Новочеркасский б-р;Novocherkasskij boulevard;159;both;55.6488070132;37.7440210977;725;68;68;0;0;0;0;0;0
17320;7;"ТРЦ ""МариЭль"", Макдональдс";"shopping mall ""MariJel'"", McDonalds";159;both;55.6492597786;37.7445250187;725;67;67;0;0;0;0;0;0
17330;8;"ТРЦ ""МариЭль"",  Марьинский б-р";"shopping mall ""MariJel'"",  Mar'inskij boulevard";159;both;55.6489077974;37.7446647422;725;65;34;0;0;420;800;19;0
17340;1;"ул. Люблинская, ТК ""Марьинский пассаж""";"ul. Ljublinskaja, shopping mall ""Mar'inskij passazh""";159;both;55.651235741;37.7430764578;590;77;7;0;0;420;770;21;0
17350;2;ул. Люблинская, Новочеркасский б-р, 3-й мкр. Марьинского парка;ul. Ljublinskaja, Novocherkasskij boulevard, Tretij mikrorajon Mar'inskogo parka;159;both;55.6508399985;37.7432280974;590;73;43;0;0;310;770;20;0
17360;1;ул. 1-я Тверская-Ямская;ul. Pervaja Tverskaja-Jamskaja;34;both;55.771155195;37.5945772408;750;37;1;0;0;410;880;20;2
17370;2;Триумфальная площадь, концертный зал им. Чайковского;Triumfal'naja square, concert hall im. Chajkovskogo;34;both;55.7693242824;37.596479924;780;41;0;0;0;420;900;20;1
17371;3;Триумфальная площадь, ул. Садовая-Триумфальная;Triumfal'naja square, ul. Sadovaja-Triumfal'naja;34;in;55.7696724459;37.597220535;790;48;0;0;0;330;760;24;1
17372;3;Триумфальная площадь, ул. Садовая-Триумфальная;Triumfal'naja square, ul. Sadovaja-Triumfal'naja;34;out;55.7696724459;37.597220535;850;48;0;0;0;330;760;24;1
17380;2;пр-д Шокальского, Заревый пр-д;proezd Shokal'skogo, Zarevyj proezd;86;both;55.8859703086;37.6609347771;740;31;1;0;0;320;790;22;0
17381;4;пр-д Шокальского, ул. Грекова;proezd Shokal'skogo, ul. Grekova;86;both;55.8859703086;37.6616061633;740;32;0;0;0;320;790;22;0
17390;3;ул. Грекова, ул. Широкая;ul. Grekova, ul. Shirokaja;86;out;55.8881444501;37.6618449757;750;2;2;0;0;0;0;0;1
17391;1;ул. Широкая;ul. Shirokaja;86;in;55.8879640897;37.6615966333;750;6;0;0;0;0;1000;20;1
17400;1;"ул. Тестовская, IQ-Quarter, башня ""Евразия""";"ul. Testovskaja, IQ-Quarter, Tower ""Evrazija""";189;both;55.7480855426;37.5330324626;780;11;11;0;0;0;0;0;1
17410;3;"ул. Новослободская (нечетная сторона), БЦ ""Мейерхольд""";"ul. Novoslobodskaja (odd side), business center ""Mejerhold""";137;both;55.7813252897;37.5988178215;750;33;3;0;0;390;860;20;1
17420;4;ул. Новослободская (четная сторона), ул. Сущевская;ul. Novoslobodskaja (even side), ul. Suschevskaja;137;both;55.7818798471;37.599047617;750;43;43;0;0;0;0;0;1
17430;2;ул. Новослободская (нечетная сторона), ул. Лесная;ul. Novoslobodskaja (odd side), ul. Lesnaja;137;both;55.7814648084;37.5987029238;750;35;3;0;0;390;860;20;1
17440;1;"ул. Дубравная, ТК ""Ладья""";"ul. Dubravnaja, shopping mall ""Lad'ja""";213;both;55.8462252296;37.3594201613;800;60;60;1;31;0;0;0;0
17441;3;"ул. Митинская, к/т ""Люксор""";"ul. Mitinskaja, cinema ""Ljuksor""";213;both;55.8465275695;37.3592778181;800;61;31;1;31;400;900;18;0
17450;5;"ул. Митинская, Школа-студия ""Арабеск""";"ul. Mitinskaja, Shkola-studija ""Arabesk""";213;both;55.8463209593;37.3612612245;800;76;31;2;76;0;1000;5;0
17460;8;"ул. Митинская, 7-й мкр. Митино, ТД ""Соби""";"ul. Mitinskaja, Sed'moj mikrorajon Mitino, shopping mall ""Sobi""";213;both;55.8448669772;37.3633506301;800;59;27;0;0;400;900;18;0
17461;9;"ул. Митинская, 7-й мкр. Митино, ТД ""Соби""";"ul. Mitinskaja, Sed'moj mikrorajon Mitino, shopping mall ""Sobi""";213;both;55.8446630313;37.3638598014;800;57;57;0;0;0;0;0;0
17470;6;"ул. Дубравная, ТК ""Митино"", Макдональдс";"ul. Dubravnaja, shopping mall ""Mitino"", McDonalds";213;both;55.8470063288;37.360564756;800;67;31;1;31;400;900;21;0
17480;10;ул. Митинская, 2-й мкр. Митино, 2-й Митинский пер.;ul. Mitinskaja, Vtoroj mikrorajon Mitino, Vtoroj Mitinskij per.;213;both;55.8456133917;37.3637626842;800;65;27;0;0;400;900;20;0
17490;7;"ул. Дубравная, ТЦ ""Ковчег""";"ul. Dubravnaja, shopping mall ""Kovcheg""";213;both;55.8467774098;37.361255675;800;69;31;2;62;400;900;21;0
17500;2;ул. Дубравная, автостоянка;ul. Dubravnaja, car park;213;both;55.8459963107;37.3600167379;800;61;61;2;61;0;1000;5;0
17501;4;ул. Митинская, автостоянка;ul. Mitinskaja, car park;213;both;55.8459644008;37.3606521614;800;65;31;2;65;0;1000;5;0
17510;4;ул. Ярцевская;ul. Jarcevskaja;65;in;55.7412008517;37.415758889;730;47;47;0;0;0;0;0;0
17511;2;ул. Ярцевская;ul. Jarcevskaja;65;out;55.7413063872;37.4159279045;730;0;0;0;0;0;0;0;1
17520;3;ул. Ельнинская;ul. El'ninskaja;65;in;55.7402302099;37.4179734645;730;43;43;0;0;0;0;0;0
17521;1;ул. Ельнинская;ul. El'ninskaja;65;out;55.7403430783;37.4181457367;730;0;0;0;0;0;0;0;1
17530;2;"""Крокус Экспо"" (павильон 1, 2)";"""Crocus Expo"" (pavillion 1, 2)";215;both;55.8235522598;37.3855503584;800;56;0;0;0;400;950;23;0
17531;3;"""Крокус Экспо"" (павильон 1, 2), пандус";"""Crocus Expo"" (pavillion 1, 2), ramp";215;both;55.8230865775;37.3855859314;800;57;0;0;0;400;950;20;0
17532;1;"""Крокус Экспо"" (павильон 3), ""Крокус Сити Холл""";"""Crocus Expo"" (pavillion 3), ""Crocus City Hall""";215;both;55.8264083775;37.385546953;800;31;0;0;0;380;970;22;0
17540;4;автобусная остановка;bus stop;144;both;55.6822068887;37.6215857644;740;31;31;0;0;0;0;0;1
17550;3;пригородные кассы;suburban trains ticket office;144;both;55.6822221499;37.6212860887;740;30;0;0;0;310;760;18;1
17560;1;платформа пригородных поездов;suburban trains platform;144;both;55.6823622761;37.6208837463;740;48;8;0;0;310;760;17;1
17562;2;платформа пригородных поездов;suburban trains platform;144;both;55.6817199157;37.6209878004;740;50;50;0;0;0;0;0;1
17570;5;Варшавское шоссе;Varshavskoe shosse;144;both;55.6841131591;37.6227317465;740;56;23;0;0;420;740;20;0
17572;6;трамвайная остановка;tramway stop;144;both;55.6840382402;37.6236488096;740;55;24;0;0;420;870;16;0
17574;7;ул. Нагатинская;ul. Nagatinskaja;144;both;55.6837996096;37.6237140169;740;60;23;0;0;420;880;16;0
17580;1;ул. Ремизова;ul. Remizova;145;both;55.6728822571;37.6103368263;740;65;24;0;0;320;760;19;0
17590;2;ул. Криворожская;ul. Krivorozhskaja;145;both;55.6727768157;37.6109001057;740;65;65;0;0;0;0;0;0
17592;3;Электролитный пр-д;Jelektrolitnyj proezd;145;both;55.6730085094;37.6113107724;740;64;64;0;0;0;0;0;0
17600;2;ул. Азовская;ul. Azovskaya;146;out;55.6634716075;37.6062218349;740;39;0;0;0;330;770;18;1
17601;2;ул. Азовская;ul. Azovskaya;146;in;55.6634716075;37.6062218349;740;72;33;0;0;330;770;18;0
17610;3;Нахимовский проспект;Nahimovskij prospekt;146;out;55.6635576255;37.6070750782;740;34;0;0;0;330;770;19;1
17611;3;Нахимовский проспект;Nahimovskij prospekt;146;in;55.6635576255;37.6070750782;740;67;33;0;0;330;770;19;0
17620;4;ул. Сивашская;ul. Sivashskaya;146;both;55.6615944722;37.6040575104;740;41;0;0;0;320;760;18;1
17630;5;ул. Фруктовая;ul. Fruktovaya;146;both;55.6617540217;37.6048608077;740;36;0;0;0;310;770;18;1
17640;1;Нахимовский проспект, Коробовский сад;Nahimovskij prospekt, Korobovskij sad;146;out;55.6637823823;37.6061330421;740;32;32;0;0;0;0;0;1
17641;1;Нахимовский проспект, Коробовский сад;Nahimovskij prospekt, Korobovskij sad;146;in;55.6637823823;37.6061330421;740;65;65;0;0;0;0;0;0
17650;1;"5-й проспект, парк ""Измайлово""";"Pjatyj prospekt, park ""Izmajlovo""";79;in;55.7522557;37.8144915;720;65;28;0;0;330;770;17;0
17651;1;"5-й проспект, парк ""Измайлово""";"Pjatyj prospekt, park ""Izmajlovo""";79;out;55.7522557;37.8144915;720;38;1;0;0;330;770;17;1
17652;3;5-й проспект, Федеративный пр-т, Свободный пр-т;Pjatyj prospekt, Federativnyj prospekt, Svobodnyj prospekt;79;in;55.7521484;37.8152651;720;65;28;0;0;430;900;19;0
17653;3;5-й проспект, Федеративный пр-т, Свободный пр-т;Pjatyj prospekt, Federativnyj prospekt, Svobodnyj prospekt;79;out;55.7521484;37.8152651;720;38;1;0;0;430;900;19;1
17660;4;5-й проспект, Союзный пр-т, Свободный пр-т;Pjatyj prospekt, Sojuznyj prospekt, Svobodnyj prospekt;79;in;55.7517192;37.8150193;720;62;62;0;0;0;0;0;0
17661;4;5-й проспект, Союзный пр-т, Свободный пр-т;Pjatyj prospekt, Sojuznyj prospekt, Svobodnyj prospekt;79;out;55.7517192;37.8150193;720;35;35;0;0;0;0;0;1
17662;2;5-й проспект, ул. Мартеновская;Pjatyj prospekt, ul. Martenovskaja;79;in;55.7518222;37.8143058;720;62;28;0;0;330;770;17;0
17663;2;5-й проспект, ул. Мартеновская;Pjatyj prospekt, ul. Martenovskaja;79;out;55.7518222;37.8143058;720;35;1;0;0;330;770;17;1
17670;6;3-й проспект, Свободный пр-т;Tretij prospekt, Svobodnyj prospekt;79;both;55.751274;37.818077;720;56;1;0;0;320;750;22;0
17671;8;3-й проспект, ж/д станция Новогиреево;Tretij prospekt, railway station Novogireevo;79;both;55.751189;37.818662;720;57;35;0;0;320;750;22;0
17680;5;"ТЦ ""Новогиреево""";"shopping mall ""Novogireevo""";79;both;55.751673;37.818253;720;59;1;0;0;320;750;22;0
17681;7;"кинотеатр ""Киргизия""";"cinema ""Kirgizija""";79;both;55.751582;37.818878;720;61;39;0;0;320;750;22;0
17690;5;Носовихинское шоссе, ул. Котовского;Nosovihinskoe shosse, ul. Kotovskogo;186;both;55.7461087983;37.8658775749;800;75;68;2;68;0;1000;5;0
17700;4;"ул. Суздальская, ул. Городецкая, магазин ""Пятерочка""";"ul. Suzdal'skaja, ul. Gorodeckaja, shop ""Pjaterochka""";186;both;55.7444916702;37.8660424945;800;68;68;2;68;0;1000;5;0
17710;3;"ул. Суздальская, ул. Городецкая, универсам ""Монетка""";"ul. Suzdal'skaja, ul. Gorodeckaja, shop ""Monetka""";186;both;55.7439434654;37.8631075369;800;68;68;2;68;0;1000;3;0
17720;2;ул. Суздальская, Носовихинское шоссе;ul. Suzdal'skaja, Nosovihinskoe shosse;186;both;55.7442748315;37.862928874;800;68;68;1;29;0;0;0;0
17730;1;"ул. Южная, ж/д станция ""Реутово""";"ul. Juzhnaja, railway station ""Reutovo""";186;both;55.745542269;37.8623501284;800;68;68;2;68;0;1000;3;0
17740;1;ул. Пятницкая, Садовнический пр-д;ul. Pjatnickaja, Sadovnicheskij proezd;31;both;55.7422799751;37.6290703334;720;1;1;0;0;0;0;0;1
17750;1;ул. Новослободская, ул. Селезневская;ul. Novoslobodskaja, ul. Seleznevskaja;68;both;55.779497478;37.6010876377;860;0;0;0;0;0;0;0;1
17760;2;Новоясеневский пр-т, кладбище, усадьба Ясенево;"Novojasenevskij prospekt, cemetery, mansion ""Jasenevo""";109;both;55.6014489167;37.5529533379;750;67;25;0;0;420;860;17;0
17761;3;Битцевский парк;Bitcevskij park;109;both;55.6003871603;37.5560135212;900;67;0;0;0;430;900;22;0
17762;1;Новоясеневский пр-т, ул. Рокотова;Novojasenevskij prospekt, ul. Rokotova;109;both;55.6019461853;37.5527655477;750;73;25;0;0;420;880;18;0
17770;3;Битцевский парк;Bitcevskij park;232;both;55.6003871603;37.5560135212;900;64;0;0;0;430;800;20;0
17781;5;"ТЦ ""Черемушки""";"shopping mall ""Cheremushki""";103;both;55.6696857162;37.553693262;740;52;2;0;0;310;720;21;0
17783;6;"ТЦ ""Черемушки""";"shopping mall ""Cheremushki""";103;both;55.6694776081;37.5534761359;740;52;28;0;0;310;720;21;0
17791;7;"Проектируемый пр-д, ТЦ ""Царское село""";"Proektiruemyj proezd, shopping mall ""Carskoe selo""";103;both;55.6694887072;37.5542315684;740;54;30;0;0;310;720;21;0
17793;8;"Проектируемый пр-д, ТЦ ""Царское село""";"Proektiruemyj proezd, shopping mall ""Carskoe selo""";103;both;55.6692889234;37.5540283161;740;52;2;0;0;310;720;22;0
17800;1;"ТЦ ""Панорама""";"shopping mall ""Panorama""";103;both;55.6712715002;37.5554039108;740;53;2;0;0;320;720;22;0
17801;2;"ТЦ ""Панорама""";"shopping mall ""Panorama""";103;both;55.671079347;37.5551944153;740;52;28;0;0;310;720;22;0
17810;3;"Магазин ""Охотник""";"shop ""Ohotnik""";103;both;55.6710994641;37.5559547037;740;53;2;0;0;310;720;22;0
17811;4;"Магазин ""Охотник""";"shop ""Ohotnik""";103;both;55.6708885812;37.5557264784;740;53;30;0;0;310;720;22;0
17820;4;ул. Крымский Вал;ul. Krymskij Val;75;in;55.7292489526;37.6115470822;720;0;0;0;0;0;0;0;1
17821;3;ул. Крымский Вал;ul. Krymskij Val;75;out;55.7294196578;37.6115620892;740;0;0;0;0;0;0;0;1
17822;5;МИСиС;MISiS;75;both;55.729419;37.6113577;750;7;0;0;0;0;1000;10;1
17830;2;ул. Большая Якиманка;ul. Bol'shaja Jakimanka;98;in;55.7312767802;37.6126744867;720;0;0;0;0;0;0;0;1
17831;1;ул. Большая Якиманка;ul. Bol'shaja Jakimanka;98;out;55.7311229579;37.6130121454;730;0;0;0;0;0;0;0;1
17840;2;ул. Народного Ополчения, ул. Маршала Вершинина;ul. Narodnogo Opolchenija, ul. Marshala Vershinina;124;both;55.7939533025;37.4923411856;740;60;25;0;0;310;750;17;0
17850;1;ул. Маршала Бирюзова, ул. Расплетина;ul. Marshala Birjuzova, ul. Raspletina;124;both;55.794176446;37.4919151843;740;57;57;0;0;0;0;0;0
17860;4;ул. Народного Ополчения, ул. Маршала Рыбалко;ul. Narodnogo Opolchenija, ul. Marshala Rybalko;124;both;55.7941358745;37.4926404008;740;58;25;0;0;430;850;19;0
17870;3;"ул. Маршала Бирюзова, ТЦ ""Пятая авеню""";"ul. Marshala Birjuzova, shopping mall ""Pjataja avenju""";124;both;55.7943577502;37.492209328;740;59;25;0;0;280;710;19;0
17880;5;"ТЦ ""Дарья""";"shopping mall ""Dar'ja""";124;both;55.7928857634;37.4943444061;740;58;34;0;0;310;710;21;0
17890;6;ул. Маршала Бирюзова, Тепличный пер.;ul. Marshala Birjuzova, Teplichnyj per.;124;both;55.7926575485;37.494783086;740;56;1;0;0;310;710;21;0
17900;7;ул. Народного Ополчения, ул. Алабяна;ul. Narodnogo Opolchenija, ul. Alabjana;124;both;55.7930924248;37.4946930679;740;60;1;0;0;430;710;21;0
17910;8;ул. Маршала Бирюзова, Военно-дипломатическая академия;ul. Marshala Birjuzova, Voenno-diplomaticheskaja akademija;124;both;55.792871817;37.4951241407;740;57;1;0;0;330;710;21;0
17920;3;"Шипиловский пр-д, гостиница ""Орехово""";"Shipilovskij proezd, hotel ""Orehovo""";22;both;55.6121228407;37.6959319427;720;1;0;0;0;0;0;0;1
17930;2;парк Царицыно, ул. Баженова;park Tsaritsyno, ul. Bazhenova;22;both;55.6137455425;37.6934730527;720;47;25;0;0;330;730;23;0
17940;1;Шипиловский пр-д, автостанция;Shipilovskij proezd, bus station;22;both;55.6141687106;37.6941655555;720;48;0;0;0;430;730;23;0
17950;2;ул. Хачатуряна, ул. Декабристов;ul. Hachaturjana, ul. Dekabristov;131;in;55.8625686547;37.604527141;740;65;0;0;0;420;760;22;0
17951;2;ул. Хачатуряна, ул. Декабристов;ul. Hachaturjana, ul. Dekabristov;131;out;55.8625686547;37.604527141;740;65;0;0;0;420;760;22;0
17952;1;ул. Хачатуряна, ул. Отрадная;ul. Hachaturjana, ul. Otradnaja;131;in;55.8622578799;37.6042316275;740;63;39;0;0;300;760;22;0
17953;1;ул. Хачатуряна, ул. Отрадная;ul. Hachaturjana, ul. Otradnaja;131;out;55.8622578799;37.6042316275;740;63;39;0;0;300;760;22;0
17960;6;"Северный б-р, ТЦ ""Отрадное""";"Severnyj boulevard, shopping mall ""Otradnoe""";131;in;55.8643500603;37.6054566907;740;64;40;0;0;300;770;24;0
17961;6;"Северный б-р, ТЦ ""Отрадное""";"Severnyj boulevard, shopping mall ""Otradnoe""";131;out;55.8643500603;37.6054566907;740;64;40;0;0;300;770;24;0
17962;5;"ул. Декабристов, ТЦ ""Отрадное"", пандус";"ul. Dekabristov, shopping mall ""Otradnoe"", ramp";131;in;55.8643556098;37.6046825284;740;24;0;0;0;300;770;24;0
17963;5;"ул. Декабристов, ТЦ ""Отрадное"", пандус";"ul. Dekabristov, shopping mall ""Otradnoe"", ramp";131;out;55.8643556098;37.6046825284;740;24;0;0;0;300;770;24;0
17970;7;Северный б-р, ул. Декабристов, 3-й мкр.;Severnyj boulevard, ul. Dekabristov, 3rd mikrorajon;131;in;55.8641891233;37.6061476097;740;64;40;0;0;300;770;24;0
17971;7;Северный б-р, ул. Декабристов, 3-й мкр.;Severnyj boulevard, ul. Dekabristov, 3rd mikrorajon;131;out;55.8641891233;37.6061476097;740;64;40;0;0;300;770;24;0
17972;8;ул. Декабристов, 3-й мкр., пандус;ul. Dekabristov, Tretij mikrorajon, ramp;131;in;55.8639491053;37.6061198619;740;24;0;0;0;300;770;24;0
17973;8;ул. Декабристов, 3-й мкр., пандус;ul. Dekabristov, Tretij mikrorajon, ramp;131;out;55.8639491053;37.6061198619;740;24;0;0;0;300;770;24;0
17980;4;"ул. Хачатуряна, ТЦ ""Золотой Вавилон""";"ul. Hachaturjana, shopping mall ""Zolotoj Vavilon""";131;in;55.8628231843;37.6037625342;750;61;1;0;0;410;760;22;0
17981;4;"ул. Хачатуряна, ТЦ ""Золотой Вавилон""";"ul. Hachaturjana, shopping mall ""Zolotoj Vavilon""";131;out;55.8628231843;37.6037625342;750;61;1;0;0;410;760;22;0
17982;3;ул. Хачатуряна, сквер;ul. Hachaturjana, public garden;131;in;55.862441015;37.6033714472;750;59;35;0;0;300;760;22;0
17983;3;ул. Хачатуряна, сквер;ul. Hachaturjana, public garden;131;out;55.862441015;37.6033714472;750;59;35;0;0;300;760;22;0
17990;2;"ул. Тверская, гостиница ""Националь""";"ul. Tverskaja, hotel ""Nacional'""";10;both;55.7570490426;37.6144138976;730;51;51;0;0;0;0;0;1
18000;1;"ул. Моховая, гостиница ""Националь""";"ul. Mohovaja, hotel ""Nacional'""";10;both;55.7568993271;37.6145799251;730;49;49;0;0;0;0;0;1
18010;3;ул. Тверская, Государственная Дума РФ;ul. Tverskaja, Gosudarstvennaja Duma RF;10;both;55.7572872795;37.6147871979;730;51;25;0;0;415;815;23;1
18020;4;ул. Охотный ряд, Государственная Дума РФ;ul. Ohotnyj rjad, Gosudarstvennaja Duma RF;10;both;55.7571944234;37.6151314221;730;50;50;0;0;0;0;0;1
18030;6;"Манежная площадь, ТЦ ""Охотный ряд""";"Manezhnaja square, shopping mall ""Ohotnyj rjad""";10;both;55.7567413981;37.6159605616;730;58;34;0;0;415;815;25;1
18040;7;Манежная площадь, Исторический музей, Красная площадь;Manezhnaja square, Istoricheskij museum, Krasnaja square;10;both;55.7560960949;37.6177332693;730;59;59;0;0;0;0;0;1
18050;5;"Манежная площадь, гостиница ""Москва""";"Manezhnaja square, hotel ""Moskva""";10;both;55.7569080552;37.61570003;730;57;33;0;0;415;815;25;1
18060;2;ул. Новокузнецкая;ul. Novokuzneckaja;30;in;55.7314463454;37.6360323383;720;1;1;0;0;0;0;0;1
18061;3;ул. Валовая, ул. Бахрушина;ul. Valovaja, ul. Bahrushina;30;out;55.7313658139;37.6366111589;560;1;1;0;0;0;0;0;1
18062;1;ул. Новокузнецкая;ul. Novokuzneckaja;30;out;55.7314983554;37.6359870392;560;1;1;0;0;0;0;0;1
18063;2;ул. Новокузнецкая;ul. Novokuzneckaja;73;in;55.7314463454;37.6360323383;720;1;1;0;0;0;0;0;1
18064;3;ул. Валовая, ул. Бахрушина;ul. Valovaja, ul. Bahrushina;73;out;55.7313658139;37.6366111589;560;1;1;0;0;0;0;0;1
18065;1;ул. Новокузнецкая;ul. Novokuzneckaja;73;out;55.7314983554;37.6359870392;560;1;1;0;0;0;0;0;1
18066;4;ул. Валовая;ul. Valovaja;30;in;55.7312852823;37.6362068233;720;1;1;0;0;0;0;0;1
18067;4;ул. Валовая;ul. Valovaja;73;in;55.7312852823;37.6362068233;720;1;1;0;0;0;0;0;1
18070;6;здание Павелецкого вокзала, аэроэкспресс;Paveleckij railway station building, aeroexpress;30;out;55.7297117313;37.6396016851;590;0;0;0;0;0;0;0;1
18071;5;здание Павелецкого вокзала;Paveleckij railway station building;30;in;55.7295997424;37.6398053561;720;9;0;0;0;310;560;20;1
18072;5;здание Павелецкого вокзала;Paveleckij railway station building;30;out;55.7295997424;37.6398053561;540;9;0;0;0;310;560;20;1
18080;1;Крымская площадь, Зубовский бульвар;Krymskaja square, Zubovskij boulevard;13;in;55.7351270263;37.593412001;740;63;63;0;0;0;0;0;0
18081;1;Крымская площадь, Зубовский бульвар;Krymskaja square, Zubovskij boulevard;76;in;55.7351270263;37.593412001;740;0;0;0;0;0;0;0;1
18082;2;Крымская площадь, Зубовский бульвар;Krymskaja square, Zubovskij boulevard;13;out;55.7353530699;37.5932881928;740;21;21;0;0;0;0;0;1
18083;2;Крымская площадь, Зубовский бульвар;Krymskaja square, Zubovskij boulevard;76;out;55.7353530699;37.5932881928;740;0;0;0;0;0;0;0;1
18090;3;ул. Остоженка, Новокрымский пр-д;ul. Ostozhenka, Novokrymskij proezd;13;in;55.7361460234;37.5949497441;720;59;59;0;0;0;0;0;0
18091;3;ул. Остоженка, Новокрымский пр-д;ul. Ostozhenka, Novokrymskij proezd;13;out;55.7361460234;37.5949497441;550;60;60;0;0;0;0;0;0
18100;1;ул. Барклая;ul. Barklaja;165;out;55.7364556586;37.5159197662;740;39;0;0;0;310;670;17;2
18101;1;ул. Барклая;ul. Barklaja;165;in;55.7364556586;37.5159197662;740;39;12;0;0;310;670;17;2
18102;1;ул. Барклая;ul. Barklaja;233;out;55.7364556586;37.5159197662;740;39;0;0;0;310;670;17;2
18103;1;ул. Барклая;ul. Barklaja;233;in;55.7364556586;37.5159197662;740;39;12;0;0;310;670;17;2
18110;2;Парк Победы;Park Pobedy;165;out;55.7358288115;37.517106271;740;51;31;0;0;390;620;19;2
18111;2;Парк Победы;Park Pobedy;165;in;55.7358288115;37.517106271;740;51;43;0;0;390;620;19;2
18112;2;Парк Победы;Park Pobedy;233;out;55.7358288115;37.517106271;740;51;31;0;0;390;620;19;2
18113;2;Парк Победы;Park Pobedy;233;in;55.7358288115;37.517106271;740;51;43;0;0;390;620;19;2
18120;4;Триумфальная арка;Triumfal'naja arka;165;out;55.736335023;37.5176315703;740;49;33;0;0;390;620;19;2
18121;4;Триумфальная арка;Triumfal'naja arka;165;in;55.736335023;37.5176315703;740;49;45;0;0;390;620;19;2
18122;4;Триумфальная арка;Triumfal'naja arka;233;out;55.736335023;37.5176315703;740;49;33;0;0;390;620;19;2
18123;4;Триумфальная арка;Triumfal'naja arka;233;in;55.736335023;37.5176315703;740;49;45;0;0;390;620;19;2
18130;5;Парк Победы, ул. 1812 года;Park Pobedy, ul. 1812 goda;165;out;55.7359456295;37.5177949629;740;48;0;0;0;390;620;24;2
18131;5;Парк Победы, ул. 1812 года;Park Pobedy, ul. 1812 goda;165;in;55.7359456295;37.5177949629;740;48;12;0;0;390;620;24;2
18132;5;Парк Победы, ул. 1812 года;Park Pobedy, ul. 1812 goda;233;out;55.7359456295;37.5177949629;740;48;0;0;0;390;620;24;2
18133;5;Парк Победы, ул. 1812 года;Park Pobedy, ul. 1812 goda;233;in;55.7359456295;37.5177949629;740;48;12;0;0;390;620;24;2
18140;3;площадь Победы, ул. Дениса Давыдова;square Pobedy, ul. Denisa Davydova;165;out;55.7366618081;37.517406333;740;39;0;0;0;310;670;16;2
18141;3;площадь Победы, ул. Дениса Давыдова;square Pobedy, ul. Denisa Davydova;165;in;55.7366618081;37.517406333;740;39;12;0;0;310;670;16;2
