id_entrance;name_ru;name_en;id_station;direction;lat;lon;max_width;min_step;min_step_ramp;lift;lift_minus_step;min_rail_width;max_rail_width;max_angle
14800;К трамваям в центр;K tramvajam v centr;82;in;55.7516306;37.7162886;740;43;15;0;0;280;680;15
14801;К трамваям в центр;K tramvajam v centr;82;out;55.7516306;37.7162886;740;43;10;0;0;320;680;27
14810;К трамваям в область;K tramvajam v oblast';82;in;55.7515293;37.7163578;740;41;41;0;0;0;0;0
14811;К трамваям в область;K tramvajam v oblast';82;out;55.7515293;37.7163578;740;41;36;0;0;320;910;27
14820;Западная сторона Авиамоторной улицы;Zapadnaja storona Aviamotornoj ulicy;82;in;55.7519587988;37.7167891091;740;49;49;0;0;0;0;0
14821;Западная сторона Авиамоторной улицы;Zapadnaja storona Aviamotornoj ulicy;82;out;55.7519587988;37.7167891091;740;49;44;0;0;320;910;27
14830;Южная сторона шоссе Энтузиастов;Juzhnaja storona shosse Jentuziastov;82;in;55.7512042;37.7165431;740;41;15;0;0;280;680;15
14831;Южная сторона шоссе Энтузиастов;Juzhnaja storona shosse Jentuziastov;82;out;55.7512042;37.7165431;740;41;10;0;0;320;680;27
14840;На север, к рынку;Na sever, k rynku;82;in;55.7522830788;37.717153178;740;50;50;0;0;0;0;0
14841;На север, к рынку;Na sever, k rynku;82;out;55.7522830788;37.717153178;740;50;45;0;0;320;910;27
14850;Путепровод;Puteprovod;82;in;55.7519110521;37.7175590253;740;50;50;0;0;0;0;0
14851;Путепровод;Puteprovod;82;out;55.7519110521;37.7175590253;740;50;45;0;0;320;910;27
14860;Авиамоторная улица на юг, восточная сторона;Aviamotornaja ulica na jug, vostochnaja storona;82;in;55.7509103;37.7178209;740;41;15;0;0;280;680;15
14861;Авиамоторная улица на юг, восточная сторона;Aviamotornaja ulica na jug, vostochnaja storona;82;out;55.7509103;37.7178209;740;41;10;0;0;320;680;27
14870;К платформе Новая;K platforme Novaja;82;in;55.7510902;37.7179455;740;42;15;0;0;280;680;15
14871;К платформе Новая;K platforme Novaja;82;out;55.7510902;37.7179455;740;42;10;0;0;320;680;27
14880;Авиамоторная улица на юг, западная сторона;Aviamotornaja ulica na jug, zapadnaja storona;82;in;55.7508406;37.7175337;740;44;44;0;0;0;0;0
14881;Авиамоторная улица на юг, западная сторона;Aviamotornaja ulica na jug, zapadnaja storona;82;out;55.7508406;37.7175337;740;44;39;0;0;320;910;27
14890;В сторону области;V storonu oblasti;29;both;55.7063848977;37.6571586945;720;1;1;0;0;0;0;0
14900;В сторону центра, из стеклянных дверей налево. К торговым центрам.;V storonu centra, iz stekljannyh dverej nalevo. K torgovym centram.;29;both;55.70865724;37.65732061;720;36;5;0;0;330;820;20
14910;В сторону центра, из стеклянных дверей направо. К Автозаводской улице.;V storonu centra, iz stekljannyh dverej napravo. K Avtozavodskoj ulice.;29;both;55.7084058706;37.6582850423;720;35;3;0;0;310;800;20
14920;ул. Дмитрия Ульянова;ul. Dmitrija Ul'janova;101;out;55.6871860715;37.5723893715;740;31;31;0;0;0;0;0
14921;Профсоюзная улица;Profsojuznaja ulica;101;out;55.6869882565;37.5721915565;740;34;34;0;0;0;0;0
14922;ул. Дмитрия Ульянова;ul. Dmitrija Ul'janova;101;in;55.6871860715;37.5723893715;740;58;58;0;0;0;0;0
14923;Профсоюзная улица;Profsojuznaja ulica;101;in;55.6869882565;37.5721915565;740;61;61;0;0;0;0;0
14930;ул. Дмитрия Ульянова;ul. Dmitrija Ul'janova;101;out;55.6869715981;37.5730589672;740;31;31;0;0;0;0;0
14931;Профсоюзная улица;Profsojuznaja ulica;101;out;55.6867753562;37.5728476298;740;34;34;0;0;0;0;0
14932;ул. Дмитрия Ульянова;ul. Dmitrija Ul'janova;101;in;55.6869715981;37.5730589672;740;58;58;0;0;0;0;0
14933;Профсоюзная улица;Profsojuznaja ulica;101;in;55.6867753562;37.5728476298;740;61;61;0;0;0;0;0
14940;проспект 60-летия Октября;prospekt 60-letija Oktjabrja;101;both;55.6888019309;37.5741496191;780;48;23;0;0;290;760;22
14941;ул. Дмитрия Ульянова;ul. Dmitrija Ul'janova;101;both;55.6886170107;37.5739307339;780;51;51;0;0;0;0;0
14950;проспект 60-летия Октября;prospekt 60-letija Oktjabrja;101;both;55.6886132368;37.574855335;780;47;47;0;0;0;0;0
14951;площадь Хо Ши Мина;ploshhad' Ho Shi Mina;101;both;55.6883339695;37.5745458767;780;51;23;0;0;290;760;24
14960;ул. Воздвиженка, Моховая, РГБ;ul. Vozdvizhenka, Mohovaja, RGB;54;in;55.7522714905;37.6101026316;730;70;39;0;0;310;860;20
14961;ул. Воздвиженка, Моховая, РГБ;ul. Vozdvizhenka, Mohovaja, RGB;54;out;55.7522714905;37.6101026316;730;77;43;0;0;310;860;20
14962;ул. Воздвиженка, Моховая, РГБ;ul. Vozdvizhenka, Mohovaja, RGB;44;in;55.7522714905;37.6101026316;730;47;16;0;0;310;860;20
14963;ул. Воздвиженка, Моховая, РГБ;ul. Vozdvizhenka, Mohovaja, RGB;44;out;55.7522714905;37.6101026316;730;61;30;0;0;310;860;20
14964;ул. Воздвиженка, Моховая, РГБ;ul. Vozdvizhenka, Mohovaja, RGB;11;in;55.7522714905;37.6101026316;730;80;42;0;0;310;860;20
14965;ул. Воздвиженка, Моховая, РГБ;ul. Vozdvizhenka, Mohovaja, RGB;11;out;55.7522714905;37.6101026316;730;86;48;0;0;310;860;20
14970;ул. Воздвиженка, Моховая, РГБ;ul. Vozdvizhenka, Mohovaja, RGB;54;in;55.7519823491;37.6102607558;730;61;61;0;0;0;0;0
14971;ул. Воздвиженка, Моховая, РГБ;ul. Vozdvizhenka, Mohovaja, RGB;54;out;55.7519823491;37.6102607558;730;70;70;0;0;0;0;0
14972;ул. Воздвиженка, Моховая, РГБ;ul. Vozdvizhenka, Mohovaja, RGB;44;in;55.7519823491;37.6102607558;730;41;41;0;0;0;0;0
14973;ул. Воздвиженка, Моховая, РГБ;ul. Vozdvizhenka, Mohovaja, RGB;44;out;55.7519823491;37.6102607558;730;55;55;0;0;0;0;0
14974;ул. Воздвиженка, Моховая, РГБ;ul. Vozdvizhenka, Mohovaja, RGB;11;in;55.7519823491;37.6102607558;730;67;67;0;0;0;0;0
14975;ул. Воздвиженка, Моховая, РГБ;ul. Vozdvizhenka, Mohovaja, RGB;11;out;55.7519823491;37.6102607558;730;81;81;0;0;0;0;0
14976;ул. Моховая;ul. Mohovaja;11;both;55.7504768240987;37.6091400800502;730;69;69;0;0;0;0;0
14977;ул. Моховая;ul. Mohovaja;140;both;55.7504768240987;37.6091400800502;730;63;63;0;0;0;0;0
14980;Александровский сад;Aleksandrovskij sad;54;in;55.7518946194;37.612542833;730;67;31;0;0;310;875;20
14981;Александровский сад;Aleksandrovskij sad;54;out;55.7518946194;37.612542833;730;81;54;0;0;310;875;20
14982;Александровский сад;Aleksandrovskij sad;44;in;55.7518946194;37.612542833;730;47;16;0;0;310;875;20
14983;Александровский сад;Aleksandrovskij sad;44;out;55.7518946194;37.612542833;730;61;30;0;0;310;875;20
14984;Александровский сад;Aleksandrovskij sad;11;in;55.7518946194;37.612542833;730;73;41;0;0;310;875;20
14985;Александровский сад;Aleksandrovskij sad;11;out;55.7518946194;37.612542833;730;87;55;0;0;310;875;20
14990;На проспект Мира;Na prospekt Mira;91;both;55.8079366147;37.6385240573;800;0;0;0;0;0;0;0
15000;Южный;Juzhnyj;225;both;55.6321826509;37.7671080498;800;71;30;2;71;0;0;2
15010;Северный;Severnyj;225;both;55.633708429394;37.7652156136226;800;3;0;0;0;0;0;6
15011;Северный;Severnyj;225;both;55.6337779005953;37.7654835906599;800;3;0;0;0;0;0;6
15020;К области, Череповецкая улица на запад;K oblasti, Cherepoveckaja ulica na zapad;129;both;55.8987623686;37.586449957;740;64;34;0;0;300;770;22
15022;К области, Алтуфьевское шоссе западная сторона;K oblasti, Altuf'evskoe shosse zapadnaja storona;129;both;55.8990187512;37.5864249441;900;30;0;0;0;300;770;22
15030;К центру, Череповецкая улица на запад;K centru, Cherepoveckaja ulica na zapad;129;both;55.8970739956;37.5865906547;740;61;36;0;0;300;780;22
15032;К центру, Алтуфьевское шоссе западная сторна;K centru, Altuf'evskoe shosse zapadnaja storna;129;both;55.8966393959;37.5865687684;740;56;1;0;0;400;780;22
15040;К центру, улица Лескова;K centru, ulica Leskova;129;both;55.8970614891;37.5878162885;740;63;0;0;0;420;780;22
15042;К центру, Алтуфьевское шоссе восточная сторна;K centru, Altuf'evskoe shosse vostochnaja storna;129;both;55.8966143829;37.5878100353;740;62;37;0;0;300;780;22
15050;К области, улица Лескова;K oblasti, ulica Leskova;129;both;55.8987436089;37.5878413014;740;67;37;0;0;300;770;22
15052;К области, Алтуфьевское шоссе восточная сторона;K oblasti, Altuf'evskoe shosse vostochnaja storona;129;both;55.8992313611;37.5878569345;740;71;1;0;0;390;770;22
15060;К центру на север;K centru na sever;163;both;55.58378375;37.59656057;800;40;0;0;0;410;890;20
15062;К центру, к пешеходному переходу на восток;K centru, k peshehodnomu perehodu na vostok;163;both;55.5834835962;37.5971640043;800;35;0;0;0;410;870;20
15070;К области, к перехватывающей парковке, ГАИ;K oblasti, k perehvatyvajushhej parkovke, GAI;163;both;55.5814559495;37.5961940092;800;66;0;0;0;370;950;25
15080;улица Воздвиженка, Генштаб;ulica Vozdvizhenka, Genshtab;44;both;55.7524138022;37.6033981675;735;0;0;0;0;0;0;0
15090;кинотеатр Художественный;kinoteatr Hudozhestvennyj;55;both;55.7521439397;37.6017436358;550;65;65;0;0;0;0;0
15100;В сторону области, у турникетов налево, из стеклянных дверей налево. На юг, к финансовой академии.;V storonu oblasti, u turniketov nalevo, iz stekljannyh dverej nalevo. Na jug, k finansovoj akademii.;37;out;55.8004353056;37.5306640955;720;49;21;0;0;300;620;20
15101;В сторону области, у турникетов налево, из стеклянных дверей налево. На юг, к финансовой академии.;V storonu oblasti, u turniketov nalevo, iz stekljannyh dverej nalevo. Na jug, k finansovoj akademii.;37;in;55.8004353056;37.5306640955;720;70;42;0;0;300;620;20
15110;В сторону области, у турникетов налево, из стеклянных дверей направо. К торговому центру, ул. Черняховского.;V storonu oblasti, u turniketov nalevo, iz stekljannyh dverej napravo. K torgovomu centru, ul. Chernjahovskogo.;37;out;55.8013473014;37.5318384463;720;52;21;0;0;300;620;20
15111;В сторону области, у турникетов налево, из стеклянных дверей направо. К торговому центру, ул. Черняховского.;V storonu oblasti, u turniketov nalevo, iz stekljannyh dverej napravo. K torgovomu centru, ul. Chernjahovskogo.;37;in;55.8013473014;37.5318384463;720;73;42;0;0;300;620;20
15120;В сторону центра;V storonu centra;37;both;55.7999949241;37.5343901605;720;58;58;0;0;0;0;0
15130;В сторону области, у турникетов направо. Выход в жилое здание.;V storonu oblasti, u turniketov napravo. Vyhod v zhiloe zdanie.;37;both;55.8009787552;37.5321132943;720;58;58;0;0;0;0;0
15140;К центру, на запад;K centru, na zapad;87;both;55.8687860517;37.6634401742;800;36;0;0;0;440;760;35
15142;К центру, на юго-запад, и на трамвай;K centru, na jugo-zapad, i na tramvaj;87;both;55.8684046045;37.663246324;800;36;36;0;0;0;0;0
15150;К области, на северо-запад;K oblasti, na severo-zapad;87;out;55.8707245541;37.6644094254;800;61;34;0;0;310;770;40
15151;К области, на северо-запад;K oblasti, na severo-zapad;87;in;55.8707245541;37.6644094254;560;61;34;0;0;310;770;40
15152;К области, на автобусы по улице Менжинского на запад;K oblasti, na avtobusy po ulice Menzhinskogo na zapad;87;out;55.870374373;37.6642155752;800;57;30;0;0;310;770;40
15153;К области, на автобусы по улице Менжинского на запад;K oblasti, na avtobusy po ulice Menzhinskogo na zapad;87;in;55.870374373;37.6642155752;560;57;30;0;0;310;770;40
15160;К области, Енисейская улица, на северо-запад;K oblasti, Enisejskaja ulica, na severo-zapad;87;out;55.8706119959;37.6652911313;800;64;40;0;0;310;770;40
15161;К области, Енисейская улица, на северо-запад;K oblasti, Enisejskaja ulica, na severo-zapad;87;in;55.8706119959;37.6652911313;560;64;40;0;0;310;770;40
15162;К области, улица Менжинского на восток;K oblasti, ulica Menzhinskogo na vostok;87;out;55.8702368019;37.6651035343;800;72;0;0;0;350;800;40
15163;К области, улица Менжинского на восток;K oblasti, ulica Menzhinskogo na vostok;87;in;55.8702368019;37.6651035343;560;72;0;0;0;350;800;40
15170;ул. Барклая (запад);ul. Barklaja (zapad);61;in;55.7436635459;37.4974001378;550;28;28;0;0;0;0;0
15171;ул. Барклая (запад);ul. Barklaja (zapad);61;out;55.7436105773;37.4974464853;560;28;28;0;0;0;0;0
15180;ул. Барклая (восток);ul. Barklaja (vostok);61;in;55.7438312796;37.4982101153;550;28;28;0;0;0;0;0
15181;ул. Барклая (восток);ul. Barklaja (vostok);61;out;55.7438732131;37.4981659749;560;28;28;0;0;0;0;0
15190;Выход на ул. Баррикадная;Vyhod na ul. Barrikadnaja;120;out;55.7607458833;37.5815686799;730;0;0;0;0;0;0;0
15191;Вход с ул. Баррикадная;Vhod s ul. Barrikadnaja;120;in;55.7606388237;37.5812906368;730;0;0;0;0;0;0;0
15200;Выход на Бауманскую улицу;Vyhod na Baumanskuju ulicu;47;out;55.7723959516;37.6792845414;720;0;0;0;0;0;0;0
15201;Вход с Бауманской улицы;Vhod s Baumanskoj ulicy;47;in;55.7723815089;37.6788450718;560;0;0;0;0;0;0;0
15210;К области, на южную сторону Хорошёвского шоссе;K oblasti, na juzhnuju storonu Horoshjovskogo shosse;122;out;55.7733625391;37.5444708477;810;31;1;0;0;300;840;24
15211;К области, на южную сторону Хорошёвского шоссе;K oblasti, na juzhnuju storonu Horoshjovskogo shosse;122;in;55.7733625391;37.5444708477;810;78;48;0;0;300;840;24
15220;К области, на северную сторону Хорошёвского шоссе;K oblasti, na severnuju storonu Horoshjovskogo shosse;122;out;55.7739818026;37.5445253398;810;36;1;0;0;310;810;22
15221;К области, на северную сторону Хорошёвского шоссе;K oblasti, na severnuju storonu Horoshjovskogo shosse;122;in;55.7739818026;37.5445253398;810;83;48;0;0;310;810;22
15230;К пригородным поездам в область;K prigorodnym poezdam v oblast';122;out;55.7732627443;37.5490669016;740;40;40;0;0;0;0;0
15231;К пригородным поездам в область;K prigorodnym poezdam v oblast';122;in;55.7732627443;37.5490669016;740;73;73;0;0;0;0;0
15232;Высадка с пригородных поездов из области;Vysadka s prigorodnyh poezdov iz oblasti;122;out;55.7729483569;37.5489786447;740;55;55;0;0;0;0;0
15233;Высадка с пригородных поездов из области;Vysadka s prigorodnyh poezdov iz oblasti;122;in;55.7729483569;37.5489786447;740;88;88;0;0;0;0;0
15234;Высадка с пригородных поездов из области;Vysadka s prigorodnyh poezdov iz oblasti;122;out;55.7732407711;37.5483637603;740;2;2;0;0;0;0;5
15235;Высадка с пригородных поездов из области;Vysadka s prigorodnyh poezdov iz oblasti;122;in;55.7732407711;37.5483637603;740;35;35;0;0;0;0;5
15240;К центру, на Беговую улицу;K centru, na Begovuju ulicu;122;out;55.7743579378;37.5492757884;740;48;37;0;0;0;0;4
15241;К центру, на Беговую улицу;K centru, na Begovuju ulicu;122;in;55.7743579378;37.5492757884;740;81;70;0;0;0;0;4
15250;На Грузинский Вал;Na Gruzinskij Val;67;in;55.7754196298;37.5827102001;720;2;2;0;0;0;0;0
15251;На Грузинский Вал;Na Gruzinskij Val;67;out;55.775302476;37.5828010458;800;0;0;0;0;0;0;0
15260;Вход в здании вокзала;Vhod v zdanii vokzala;35;in;55.7772410298;37.5821803383;720;0;0;0;0;0;0;0
15261;Выход в здании вокзала;Vyhod v zdanii vokzala;35;out;55.7774904851;37.5822168634;720;0;0;0;0;0;0;0
15262;Вход с путепровода.;Vhod s puteprovoda.;35;in;55.777539077;37.5821223847;720;40;40;0;0;0;0;0
15270;По лестнице, на эскалатор, из стеклянных дверей налево, потом налево. К церкви;Po lestnice, na jeskalator, iz stekljannyh dverej nalevo, potom nalevo. K cerkvi;67;both;55.7774314489;37.5857155101;550;68;30;0;0;320;770;20
15271;По лестнице, на эскалатор, из стеклянных дверей налево, потом налево. К бизнес-центру;Po lestnice, na jeskalator, iz stekljannyh dverej nalevo, potom nalevo. K biznes-centru;67;both;55.7776549843;37.5862453719;550;73;63;0;0;320;970;20
15280;НИИ вычислительных комплексов им.М.А.Карцева;NII vychislitel'nyh kompleksov im.M.A.Karceva;105;in;55.6418457923;37.5254266438;550;56;24;0;0;300;770;12
15281;НИИ вычислительных комплексов им.М.А.Карцева;NII vychislitel'nyh kompleksov im.M.A.Karceva;105;out;55.6418457923;37.5254266438;750;56;24;0;0;0;0;0
15282;НИИ вычислительных комплексов им.М.А.Карцева;NII vychislitel'nyh kompleksov im.M.A.Karceva;105;in;55.6415752669;37.525248343;550;50;50;0;0;0;0;0
15283;НИИ вычислительных комплексов им.М.А.Карцева;NII vychislitel'nyh kompleksov im.M.A.Karceva;105;out;55.6415752669;37.525248343;750;50;50;0;0;0;0;0
15290;АШАН Сити;AShAN Siti;105;in;55.6417228262;37.5260783641;550;58;24;0;0;310;780;20
15291;АШАН Сити;AShAN Siti;105;out;55.6417228262;37.5260783641;750;58;24;0;0;310;780;20
15292;АШАН Сити;AShAN Siti;105;in;55.6414338559;37.5258877667;550;52;52;0;0;0;0;0
15293;АШАН Сити;AShAN Siti;105;out;55.6414338559;37.5258877667;750;52;52;0;0;0;0;0
15300;ул.Профсоюзная (дублер);ul.Profsojuznaja (dubler);105;both;55.6437855825;37.5267977158;550;37;37;0;0;0;0;0
15301;ул.Профсоюзная (дублер);ul.Profsojuznaja (dubler);105;both;55.6434904638;37.5266071183;550;28;0;0;0;300;780;17
15310;ул.Генерала Антонова;ul.Generala Antonova;105;both;55.6436687647;37.5274555844;550;31;31;0;0;0;0;0
15311;ул.Генерала Антонова;ul.Generala Antonova;105;both;55.6433982393;37.5272496161;550;32;0;0;0;310;780;20
15320;К центру, улица Пришвина, Биберевская на север;K centru, ulica Prishvina, Biberevskaja na sever;130;out;55.8840584012;37.6046887952;720;39;34;0;0;500;1000;17
15321;К центру, улица Пришвина, Биберевская на север;K centru, ulica Prishvina, Biberevskaja na sever;130;in;55.8840584012;37.6046887952;720;76;71;0;0;500;1000;17
15322;К центру, Биберевская улица северная сторона, у торгцентра;K centru, Biberevskaja ulica severnaja storona, u torgcentra;130;out;55.8838301582;37.6041541437;720;37;1;0;0;500;960;17
15323;К центру, Биберевская улица северная сторона, у торгцентра;K centru, Biberevskaja ulica severnaja storona, u torgcentra;130;in;55.8838301582;37.6041541437;720;74;38;0;0;500;960;17
15330;К области, на север;K oblasti, na sever;130;both;55.8844367218;37.6013089225;730;49;27;0;0;300;740;24
15332;К области, на автобусную конечную;K oblasti, na avtobusnuju konechnuju;130;both;55.884199099;37.6016778633;730;50;0;0;0;350;740;24
15340;К центру, Биберевская улица южная сторона;K centru, Biberevskaja ulica juzhnaja storona;130;out;55.8835956619;37.6054360566;720;43;38;0;0;500;1000;17
15341;К центру, Биберевская улица южная сторона;K centru, Biberevskaja ulica juzhnaja storona;130;in;55.8835956619;37.6054360566;720;80;75;0;0;500;1000;17
15342;К центру, Биберевская улица на запад;K centru, Biberevskaja ulica na zapad;130;out;55.8833705455;37.6048982785;720;38;0;0;0;500;870;20
15343;К центру, Биберевская улица на запад;K centru, Biberevskaja ulica na zapad;130;in;55.8833705455;37.6048982785;720;75;37;0;0;500;870;20
15350;улица Воздвиженка;ulica Vozdvizhenka;54;both;55.7522963385;37.6088986291;735;49;49;0;0;0;0;0
15351;улица Воздвиженка;ulica Vozdvizhenka;44;both;55.7522963385;37.6088986291;735;70;70;0;0;0;0;0
15352;улица Воздвиженка;ulica Vozdvizhenka;11;both;55.7522963385;37.6088986291;735;96;96;0;0;0;0;0
15360;улица Воздвиженка, улица Моховая;ulica Vozdvizhenka, ulica Mohovaja;54;in;55.7525636367;37.6108145705;730;61;20;0;0;430;710;23
15361;улица Воздвиженка, улица Моховая;ulica Vozdvizhenka, ulica Mohovaja;54;out;55.7525636367;37.6108145705;730;70;29;0;0;430;710;23
15362;улица Воздвиженка, улица Моховая;ulica Vozdvizhenka, ulica Mohovaja;44;in;55.7525636367;37.6108145705;730;41;16;0;0;430;710;23
15363;улица Воздвиженка, улица Моховая;ulica Vozdvizhenka, ulica Mohovaja;44;out;55.7525636367;37.6108145705;730;49;24;0;0;430;710;23
15364;улица Воздвиженка, улица Моховая;ulica Vozdvizhenka, ulica Mohovaja;11;in;55.7525636367;37.6108145705;730;67;42;0;0;430;710;23
15365;улица Воздвиженка, улица Моховая;ulica Vozdvizhenka, ulica Mohovaja;11;out;55.7525636367;37.6108145705;730;73;48;0;0;430;710;23
15370;Братеевский проезд;Brateevskij proezd;220;both;55.6322978835;37.7435165293;725;38;0;0;0;355;900;21
15380;Центр образования №1998;Centr obrazovanija №1998;220;both;55.6341131889;37.744575886;780;38;0;2;38;0;0;0
15400;К области, на автобусы на Снежную улицу;K oblasti, na avtobusy na Snezhnuju ulicu;89;both;55.8459218829;37.6384264754;800;57;25;0;0;370;830;20
15410;К области, на автобусы в Отрадное;K oblasti, na avtobusy v Otradnoe;89;both;55.8466222451;37.638789163;800;58;58;0;0;0;0;0
15412;К области, на Снежную улицу;K oblasti, na Snezhnuju ulicu;89;both;55.8466410048;37.6393582072;800;54;25;0;0;370;830;20
15420;К центру;K centru;89;out;55.8438143055;37.6375336914;830;0;0;0;0;0;0;0
15421;К центру;K centru;89;in;55.8438143055;37.6375336914;800;0;0;0;0;0;0;0
15440;К области, на южную сторону улицы Перерва;K oblasti, na juzhnuju storonu ulicy Pererva;158;both;55.6586660023;37.7489336659;740;58;26;0;0;410;860;18
15450;К области, на северную сторону улицы Перерва, к Ашану;K oblasti, na severnuju storonu ulicy Pererva, k Ashanu;158;both;55.6592834565;37.749752625;740;62;62;0;0;0;0;0
15460;К области, на Мячковский бульвар;K oblasti, na Mjachkovskij bul'var;158;both;55.6590283463;37.7499451169;740;63;26;0;0;410;860;20
15470;К центру, на автобусную остановку к востоку;K centru, na avtobusnuju ostanovku k vostoku;158;both;55.6598671002;37.7520871998;740;64;26;0;0;410;860;20
15480;К центру, на круг Братиславской улицы;K centru, na krug Bratislavskoj ulicy;158;both;55.6601520573;37.752761619;740;64;64;0;0;0;0;0
15490;К центру, к  торговому центру;K centru, k  torgovomu centru;158;both;55.6600217408;37.7517529765;740;60;26;0;0;410;860;20
15500;На улицу Адмирала Лазарева, Южнобутовскую улицу;Na ulicu Admirala Lazareva, Juzhnobutovskuju ulicu;193;both;55.5450344982;37.5415677647;800;0;0;1;0;0;0;0
15510;К центру, на восток, к продуктовому;K centru, na vostok, k produktovomu;164;both;55.5702548144;37.576433133;710;63;63;0;0;0;0;0
15512;К центру, Знаменские Садки;K centru, Znamenskie Sadki;164;both;55.5706487663;37.5767270337;710;62;24;0;0;430;900;20
15520;К центру, на запад, к ТЦ Круг;K centru, na zapad, k TC Krug;164;both;55.5699546605;37.5779213958;710;70;24;0;0;410;900;20
15522;К центру, на Старокачаловскую улицу;K centru, na Starokachalovskuju ulicu;164;both;55.5703235996;37.5782090433;710;70;70;0;0;0;0;0
15524;К центру, автобусы на Подольск;K centru, avtobusy na Podol'sk;164;both;55.5700859778;37.5771397452;710;62;24;0;0;410;900;20
15540;К области, на южную сторону Чонгарского б-ра, Артековскую улицу;K oblasti, na juzhnuju storonu Chongarskogo b-ra, Artekovskuju ulicu;27;out;55.6530417319;37.6180533197;540;29;0;0;0;320;830;22
15541;С южной стороны Чонгарского бульвара;S juzhnoj storony Chongarskogo bul'vara;27;in;55.6530417319;37.6180533197;740;76;47;0;0;320;830;22
15550;Главный выход на Варшавское шоссе;Glavnyj vyhod na Varshavskoe shosse;27;out;55.653166796;37.6207547044;740;28;28;0;0;0;0;0
15551;Главный выход на Варшавское шоссе;Glavnyj vyhod na Varshavskoe shosse;27;in;55.653166796;37.6207547044;740;69;69;0;0;0;0;0
15552;В подвальный этаж торгового центра;V podval'nyj jetazh torgovogo centra;27;both;;;740;37;37;0;0;0;0;0
15553;В подвальный этаж торгового центра;V podval'nyj jetazh torgovogo centra;27;both;;;740;24;24;0;0;0;0;0
15554;К пригородным поездам, станция Коломенское, платформа №1;K prigorodnym poezdam, stancija Kolomenskoe, platforma №1;27;both;55.6537272089;37.622019714;740;85;85;0;0;0;0;0
15556;К пригородным поездам, станция Коломенское, платформа №2;K prigorodnym poezdam, stancija Kolomenskoe, platforma №2;27;both;55.653730014;37.6222441291;740;87;47;0;0;300;765;25
15560;К области, Болотниковской улице, Чонгарскому бульвару;K oblasti, Bolotnikovskoj ulice, Chongarskomu bul'varu;27;out;55.6534732031;37.6180095473;540;29;0;0;0;310;800;22
15561;К области, Болотниковской улице, Чонгарскому бульвару;K oblasti, Bolotnikovskoj ulice, Chongarskomu bul'varu;27;in;55.6534732031;37.6180095473;740;76;47;0;0;310;800;22
15570;На Каширский проезд;Na Kashirskij proezd;27;both;55.6536318325;37.6231333737;740;87;48;0;0;310;750;20
15580;К центру, из стеклянных дверей налево, на север;K centru, iz stekljannyh dverej nalevo, na sever;90;out;55.8202442077;37.6400193656;560;68;26;0;0;410;1000;20
15581;К центру, из стеклянных дверей налево, на север;K centru, iz stekljannyh dverej nalevo, na sever;90;in;55.8202442077;37.6400193656;800;68;26;0;0;410;1000;20
15590;К центру, из стеклянных дверей направо. На восток;K centru, iz stekljannyh dverej napravo. Na vostok;90;out;55.8195751117;37.6407447407;560;68;68;0;0;0;0;0
15591;К центру, из стеклянных дверей направо. На восток;K centru, iz stekljannyh dverej napravo. Na vostok;90;in;55.8195751117;37.6407447407;800;68;68;0;0;0;0;0
15600;К центру, из стеклянных дверей налево, на аллею Космонавтов, и на запад;K centru, iz stekljannyh dverej nalevo, na alleju Kosmonavtov, i na zapad;90;out;55.8199002798;37.6396254119;560;68;68;0;0;0;0;0
15601;К центру, из стеклянных дверей налево, на аллею Космонавтов, и на запад;K centru, iz stekljannyh dverej nalevo, na alleju Kosmonavtov, i na zapad;90;in;55.8199002798;37.6396254119;800;68;68;0;0;0;0;0
15610;К центру, из стеклянных дверей направо, по проспекту Мира на север;K centru, iz stekljannyh dverej napravo, po prospektu Mira na sever;90;out;55.8199377992;37.6411512009;560;68;26;0;0;410;1000;20
15611;К центру, из стеклянных дверей направо, по проспекту Мира на север;K centru, iz stekljannyh dverej napravo, po prospektu Mira na sever;90;in;55.8199377992;37.6411512009;800;68;26;0;0;410;1000;20
15620;Северный (закрыт на ремонт);Severnyj (zakryt na remont);90;both;55.8222640021;37.6414513561;800;0;0;0;0;0;0;0
15630;В центр;V centr;132;out;55.8460327815;37.5896400891;750;2;2;0;0;0;0;0
15631;В центр;V centr;132;in;55.8460984404;37.5891773498;750;2;2;0;0;0;0;0
15640;В область;V oblast';132;out;55.8482901988;37.5907250251;740;1;1;0;0;0;0;0
15641;В область;V oblast';132;in;55.8483308448;37.5903717174;740;2;2;0;0;0;0;0
15650;В область;V oblast';40;in;55.8406195405;37.4861842792;720;43;0;0;0;320;770;23
15651;В область;V oblast';40;out;55.840669215;37.4863415819;550;0;0;0;0;0;0;0
15660;В центр;V centr;40;in;55.839121025;37.4873681892;530;44;0;0;0;310;760;24
15661;В центр;V centr;40;out;55.8391624205;37.4875586083;530;0;0;0;0;0;0;0
15670;В центр;V centr;39;both;55.8180467453;37.4980782657;720;51;25;0;0;300;740;20
15680;В область;V oblast';39;both;55.8198865427;37.496617808;720;46;24;0;0;360;820;26
15690;В область, к торговому центру и автобусам;V oblast', k torgovomu centru i avtobusam;39;both;55.8200635678;37.4979075629;720;50;24;0;0;780;330;20
15700;В область;V oblast';39;both;55.819632045;37.4967980737;720;50;50;0;0;0;0;0
15710;В центр;V centr;39;both;55.8178918482;37.4982173569;720;55;55;0;0;0;0;0
15720;В центр, к трамваям;V centr, k tramvajam;39;both;55.8183976345;37.4990582265;720;49;24;0;0;320;780;20
15730;В центр;V centr;39;both;55.8177843687;37.4995671739;720;46;24;0;0;420;880;25
15740;В центр, на Волгоградский проспект;V centr, na Volgogradskij prospekt;114;both;55.7256807813;37.685131139;740;53;25;0;0;310;750;25
15741;В область, на Новоостаповскую улицу;V oblast', na Novoostapovskuju ulicu;114;both;55.7245363533;37.6877733292;740;55;53;0;0;0;0;10
15750;В центр, под мост на северную сторону Волгоградского проспекта;V centr, pod most na severnuju storonu Volgogradskogo prospekta;114;both;55.7255119313;37.6856220548;740;53;53;0;0;0;0;0
15751;В область, на Волгоградский проспект;V oblast', na Volgogradskij prospekt;114;both;55.7244488015;37.6885081396;740;52;52;0;0;0;0;0
15760;К центру, в парк в западном направлении;K centru, v park v zapadnom napravlenii;156;both;55.691167128;37.7509629281;720;64;24;0;0;315;750;20
15770;К центру, в парк, в восточном направлении;K centru, v park, v vostochnom napravlenii;156;both;55.6909693436;37.7516693007;720;57;0;0;0;315;930;20
15780;В область, к троллейбусам по Краснодонской улице на юг;V oblast', k trollejbusam po Krasnodonskoj ulice na jug;156;both;55.6907187008;37.7553240613;720;67;2;0;0;315;920;20
15790;В область, к парку на восток;V oblast', k parku na vostok;156;both;55.6906699593;37.7562826441;720;58;2;0;0;315;870;20
15800;Новотушинский проезд (север);Novotushinskij proezd (sever);214;in;55.8364438999;37.3813282131;800;0;0;0;0;0;0;0
15801;Новотушинский проезд (север);Novotushinskij proezd (sever);214;out;55.8364438999;37.3813282131;800;0;0;0;0;0;0;0
15810;Новотушинский проезд (юг);Novotushinskij proezd (jug);214;both;55.8346327959;37.3832984006;800;0;0;1;0;0;0;2
15820;"Воробьевская набережная, правый берег, заказник ""Воробьевы горы""";"Vorob'evskaja naberezhnaja, pravyj bereg, zakaznik ""Vorob'evy gory""";16;both;55.709501493005;37.5579026558265;720;75;75;0;0;0;0;0
15830;"Олимпийский комплекс ""Лужники"", Лужнецкая набережная (левый берег)";"Olimpijskij kompleks ""Luzhniki"", Luzhneckaja naberezhnaja (levyj bereg)";16;both;55.7114278453;37.5604485125;720;4;0;0;0;605;890;25
15840;"Олимпийский комплекс ""Лужники"", Олимпийский комитет РФ, Лужнецкая набережная (левый берег р. Москвы)";"Olimpijskij kompleks ""Luzhniki"", Olimpijskij komitet RF, Luzhneckaja naberezhnaja (levyj bereg r. Moskvy)";16;both;55.711296365;37.5608891494;720;4;0;0;0;605;890;25
15850;"природный заказник ""Воробьевы горы""";"prirodnyj zakaznik ""Vorob'evy gory""";16;both;55.7085399329839;37.556490128696;720;24;24;0;0;0;0;0
15851;"природный заказник ""Воробьевы горы""";"prirodnyj zakaznik ""Vorob'evy gory""";16;both;55.7085208972959;37.5571896902317;720;22;22;0;0;0;0;0
15860;"ТРЦ ""АФИ Молл""";"TRC ""AFI Moll""";188;out;55.7501533471;37.5428004005;800;21;17;0;0;0;0;6
15861;"ТРЦ ""АФИ Молл""";"TRC ""AFI Moll""";188;in;55.7501533471;37.5428004005;800;50;46;0;0;0;0;6
15862;"ТРЦ ""АФИ Молл""";"TRC ""AFI Moll""";230;both;55.7501533471;37.5428004005;800;21;17;0;0;0;0;6
15863;"Башня ""Федерация""";"Bashnja ""Federacija""";230;both;55.7490619849;37.537743565;800;3;0;0;0;0;0;4
15870;"Мост ""Багратион""";"Most ""Bagration""";188;out;55.7485620153;37.5441888875;860;9;0;0;0;0;0;6
15871;"Мост ""Багратион""";"Most ""Bagration""";188;in;55.7485620153;37.5441888875;790;39;30;0;0;0;0;6
15872;"Мост ""Багратион""";"Most ""Bagration""";188;out;55.7480477608;37.543768913;860;8;0;0;0;0;0;10
15873;"Мост ""Багратион""";"Most ""Bagration""";188;in;55.7480477608;37.543768913;790;38;30;0;0;0;0;10
15874;"Мост ""Багратион""";"Most ""Bagration""";188;in;;;790;30;30;0;0;0;0;0
15875;"Мост ""Багратион""";"Most ""Bagration""";188;out;;;860;0;0;0;0;0;0;0
15890;В область, к Ташкенской улице;V oblast', k Tashkenskoj ulice;110;out;55.7153052646;37.8185065164;890;26;26;0;0;0;0;0
15891;В область, к Ташкенской улице;V oblast', k Tashkenskoj ulice;110;in;55.7153052646;37.8185065164;550;25;25;0;0;0;0;0
15894;В область, к троллейбусам в Новогиреево;V oblast', k trollejbusam v Novogireevo;110;out;55.7158130305;37.8190566344;820;33;33;0;0;0;0;0
15895;В область, к троллейбусам в Новогиреево;V oblast', k trollejbusam v Novogireevo;110;in;55.7158130305;37.8190566344;820;33;33;0;0;0;0;0
15900;К центру, на автостанцию и к пригородным поездам;K centru, na avtostanciju i k prigorodnym poezdam;110;out;55.7157680038;37.8171370583;550;25;25;0;0;0;0;0
15901;К центру, на автостанцию и к пригородным поездам;K centru, na avtostanciju i k prigorodnym poezdam;110;in;55.7157680038;37.8171370583;580;26;26;0;0;0;0;0
15904;К центру, на улицу Красный Казанец;K centru, na ulicu Krasnyj Kazanec;110;out;55.7163683142;37.8175059991;820;63;63;0;0;0;0;0
15905;К центру, на улицу Красный Казанец;K centru, na ulicu Krasnyj Kazanec;110;in;55.7163683142;37.8175059991;820;63;63;0;0;0;0;0
15906;К центру, на автобучные остановки на улице Красный Казанец;K centru, na avtobuchnye ostanovki na ulice Krasnyj Kazanec;110;out;55.7162620093;37.8178686866;820;58;58;0;0;0;0;0
15907;К центру, на автобучные остановки на улице Красный Казанец;K centru, na avtobuchnye ostanovki na ulice Krasnyj Kazanec;110;in;55.7162620093;37.8178686866;820;58;58;0;0;0;0;0
15910;В сторону области;V storonu oblasti;36;in;55.7904958543;37.5565151565;720;3;3;0;0;0;0;0
15911;В сторону области;V storonu oblasti;36;out;55.7905105483;37.5566641767;720;0;0;0;0;0;0;0
15920;В сторону центра;V storonu centra;36;in;55.7889352457;37.5599385606;720;1;1;0;0;0;0;0
15921;В сторону центра;V storonu centra;36;out;55.7889316786;37.5597956501;720;13;13;0;0;0;0;0
15930;К пригородным поездам и трамваям;K prigorodnym poezdam i tramvajam;135;out;55.8078479353;37.5802311882;740;40;40;0;0;0;0;0
15931;К пригородным поездам и трамваям;K prigorodnym poezdam i tramvajam;135;in;55.8078479353;37.5802311882;740;40;37;0;0;420;850;24
15932;Бутырская улица, западная сторона;Butyrskaja ulica, zapadnaja storona;135;out;55.8077103642;37.5806626613;740;39;4;0;0;360;760;22
15933;Бутырская улица, западная сторона;Butyrskaja ulica, zapadnaja storona;135;in;55.8077103642;37.5806626613;740;39;1;0;0;420;760;24
15940;Бутырская улица, восточная сторона;Butyrskaja ulica, vostochnaja storona;135;out;55.8080918114;37.5815318607;740;39;33;0;0;430;850;21
15941;Бутырская улица, восточная сторона;Butyrskaja ulica, vostochnaja storona;135;in;55.8080918114;37.5815318607;740;39;30;0;0;430;850;24
15942;На тропу в промзону на улицу Добролюбова;Na tropu v promzonu na ulicu Dobroljubova;135;out;55.8081387107;37.5818038764;740;36;3;0;0;430;830;21
15943;На тропу в промзону на улицу Добролюбова;Na tropu v promzonu na ulicu Dobroljubova;135;in;55.8081387107;37.5818038764;740;36;0;0;0;430;830;24
15950;На Садовое кольцо;Na Sadovoe kol'co;74;out;55.7289906077;37.6228873877;800;0;0;0;0;0;0;0
15951;На Садовое кольцо;Na Sadovoe kol'co;74;in;55.7289906077;37.6228873877;780;0;0;0;0;0;0;0
15960;на западную сторону дублера Каширского шоссе, к Ореховому бульвару, в сторону центра;na zapadnuju storonu dublera Kashirskogo shosse, k Orehovomu bul'varu, v storonu centra;21;in;55.610880977;37.7165013441;720;79;40;0;0;410;880;20
15961;на западную сторону дублера Каширского шоссе, к Ореховому бульвару, в сторону области;na zapadnuju storonu dublera Kashirskogo shosse, k Orehovomu bul'varu, v storonu oblasti;21;in;55.6106206823;37.716752936;720;77;77;0;0;0;0;0
15962;на западную сторону дублера Каширского шоссе, в сторону центра, через пандус;na zapadnuju storonu dublera Kashirskogo shosse, v storonu centra, cherez pandus;21;in;55.6109869948;37.7166367882;720;48;39;0;0;420;1000;20
15963;на восточную сторону дублера Каширского шоссе, в сторону центра, через пандус;na vostochnuju storonu dublera Kashirskogo shosse, v storonu centra, cherez pandus;21;in;55.6112286989;37.7180660923;720;48;39;0;0;420;1000;20
15964;на восточную сторону дублера Каширского шоссе, в сторону центра;na vostochnuju storonu dublera Kashirskogo shosse, v storonu centra;21;in;55.611145908;37.71808679;720;76;67;0;0;420;1000;20
15965;на западную сторону дублера Каширского шоссе, к Ореховому бульвару, в сторону центра;na zapadnuju storonu dublera Kashirskogo shosse, k Orehovomu bul'varu, v storonu centra;21;out;55.610880977;37.7165013441;720;40;1;0;0;410;880;20
15966;на западную сторону дублера Каширского шоссе, к Ореховому бульвару, в сторону области;na zapadnuju storonu dublera Kashirskogo shosse, k Orehovomu bul'varu, v storonu oblasti;21;out;55.6106206823;37.716752936;720;38;38;0;0;0;0;0
15967;на западную сторону дублера Каширского шоссе, в сторону центра, через пандус;na zapadnuju storonu dublera Kashirskogo shosse, v storonu centra, cherez pandus;21;out;55.6109869948;37.7166367882;720;9;0;0;0;420;1000;20
15968;на восточную сторону дублера Каширского шоссе, в сторону центра, через пандус;na vostochnuju storonu dublera Kashirskogo shosse, v storonu centra, cherez pandus;21;out;55.6112286989;37.7180660923;720;9;0;0;0;420;1000;20
15969;на восточную сторону дублера Каширского шоссе, в сторону центра;na vostochnuju storonu dublera Kashirskogo shosse, v storonu centra;21;out;55.611145908;37.71808679;720;37;28;0;0;420;1000;20
15970;на западную сторону дублера Каширского шоссе;na zapadnuju storonu dublera Kashirskogo shosse;21;in;55.6102103707;37.7168283682;720;78;40;0;0;410;820;20
15971;на западную сторону дублера Каширского шоссе;na zapadnuju storonu dublera Kashirskogo shosse;21;out;55.6102103707;37.7168283682;720;39;1;0;0;410;820;20
15980;на восточную сторону Каширского шоссе, в сторону области;na vostochnuju storonu Kashirskogo shosse, v storonu oblasti;21;in;55.6100240911;37.7182192555;720;72;40;0;0;410;680;20
15981;на западную сторону дублера Каширского шоссе, в сторону области;na zapadnuju storonu dublera Kashirskogo shosse, v storonu oblasti;21;in;55.6098667884;37.7173292532;720;71;71;0;0;0;0;0
15982;на западную сторону Каширского шоссе, в сторону области;na zapadnuju storonu Kashirskogo shosse, v storonu oblasti;21;in;55.6099206025;37.7176148818;720;70;40;0;0;410;680;20
15983;"на восточную сторону дублера Каширского шоссе, к ТЦ ""Домодедовский""";"na vostochnuju storonu dublera Kashirskogo shosse, k TC ""Domodedovskij""";21;in;55.610053068;37.7183517209;720;65;39;0;0;430;1050;20
15984;на восточную сторону Каширского шоссе, к Ореховому бульвару;na vostochnuju storonu Kashirskogo shosse, k Orehovomu bul'varu;21;in;55.6101606961;37.7181530227;720;71;71;0;0;0;0;0
15985;на восточную сторону Каширского шоссе, в сторону области;na vostochnuju storonu Kashirskogo shosse, v storonu oblasti;21;out;55.6100240911;37.7182192555;720;33;1;0;0;410;680;20
15986;на западную сторону дублера Каширского шоссе, в сторону области;na zapadnuju storonu dublera Kashirskogo shosse, v storonu oblasti;21;out;55.6098667884;37.7173292532;720;32;32;0;0;0;0;0
15987;на западную сторону Каширского шоссе, в сторону области;na zapadnuju storonu Kashirskogo shosse, v storonu oblasti;21;out;55.6099206025;37.7176148818;720;31;1;0;0;410;680;20
15988;"на восточную сторону дублера Каширского шоссе, к ТЦ ""Домодедовский""";"na vostochnuju storonu dublera Kashirskogo shosse, k TC ""Domodedovskij""";21;out;55.610053068;37.7183517209;720;26;0;0;0;430;1050;20
15989;на восточную сторону Каширского шоссе, к Ореховому бульвару;na vostochnuju storonu Kashirskogo shosse, k Orehovomu bul'varu;21;out;55.6101606961;37.7181530227;720;32;32;0;0;0;0;0
15990;на северную сторону Орехового бульвара, к Галерее Водолей;na severnuju storonu Orehovogo bul'vara, k Galeree Vodolej;21;both;55.611564002;37.72090996;720;57;26;0;0;400;750;20
16000;на южную сторону Орехового бульвара;na juzhnuju storonu Orehovogo bul'vara;21;both;55.610893183;37.7210504063;720;58;26;0;0;420;820;20
16001;на южную сторону Орехового бульвара, к ТЦ, автостанции;na juzhnuju storonu Orehovogo bul'vara, k TC, avtostancii;21;both;55.6108038385;37.7204905142;720;61;61;0;0;0;0;0
16010;К театру Российской Армии;K teatru Rossijskoj Armii;218;in;55.7815840434;37.6139571863;800;66;0;1;34;470;885;20
16011;К театру Российской Армии;K teatru Rossijskoj Armii;218;out;55.7815840434;37.6139571863;800;66;7;1;34;470;890;20
16020;К Суворовской площади;K Suvorovskoj ploshhadi;218;in;55.781323972;37.6143127269;800;61;1;0;0;470;885;21
16021;К Суворовской площади;K Suvorovskoj ploshhadi;218;out;55.781323972;37.6143127269;800;61;8;0;0;470;890;21
16022;На Селезнёвскую улицу;Na Seleznjovskuju ulicu;218;in;55.7812164;37.6133883;800;63;31;0;0;470;890;18
16023;На Селезнёвскую улицу;Na Seleznjovskuju ulicu;218;out;55.7812164;37.6133883;800;63;38;0;0;470;890;18
16030;На западную сторону Шарикоподшипниковской улицы, 1 ул. Машиностроения, к трамваям;Na zapadnuju storonu Sharikopodshipnikovskoj ulicy, 1 ul. Mashinostroenija, k tramvajam;161;both;55.7178314895572;37.6762061026953;590;38;3;0;0;410;750;26
16031;К Остпаовской улице;K Ostpaovskoj ulice;161;both;55.7180268909762;37.676925300042;590;40;40;0;0;0;0;0
16032;К 2-й улице Машиностроения;K 2-j ulice Mashinostroenija;161;both;55.7176670656545;37.6771960566901;590;40;3;0;0;430;870;18
16040;К автостанции;K avtostancii;222;both;55.6134262765;37.7455978932;800;42;1;2;42;0;0;0
16050;К рынку;K rynku;222;both;55.6133730859;37.7442715625;800;37;1;2;37;0;0;0
16051;К Воронежской улице;K Voronezhskoj ulice;222;both;55.6111487082;37.7448515647;800;60;1;0;0;410;880;20
16060;К центру, на 1-ю Парковую;K centru, na 1-ju Parkovuju;51;both;55.7878204637;37.779895934;530;47;47;0;0;0;0;0
16061;К центру, на Измайловский проспект между вестибюлями посредине;K centru, na Izmajlovskij prospekt mezhdu vestibjuljami posredine;51;both;55.7878184005;37.7801249533;530;52;36;0;0;375;840;24
16062;К центру, в парк на юго-восток;K centru, v park na jugo-vostok;51;both;55.7876388988;37.7801167004;530;46;46;0;0;0;0;0
16063;К центру, в парк, на юго-запад;K centru, v park, na jugo-zapad;51;both;55.7876388988;37.7798979972;530;43;32;0;0;160;290;25
16070;В область, на 3-ю Парковую улицу;V oblast', na 3-ju Parkovuju ulicu;51;both;55.7879236256;37.78334773;540;39;24;0;0;290;830;24
16071;В область, в парк, на аллею на юг;V oblast', v park, na alleju na jug;51;both;55.7876471518;37.7832940858;540;32;32;0;0;0;0;0
16072;В область, в парк, на восток вдоль путей;V oblast', v park, na vostok vdol' putej;51;both;55.7876719106;37.7834096271;540;32;24;0;0;300;810;25
16080;Старокалужское шоссе;Starokaluzhskoe shosse;104;in;55.6555402477;37.5383943087;550;80;46;0;0;320;820;15
16081;Старокалужское шоссе;Starokaluzhskoe shosse;104;out;55.6555402477;37.5383943087;760;34;0;0;0;350;820;15
16090;Главное архивное управление г.Москвы;Glavnoe arhivnoe upravlenie g.Moskvy;104;in;55.6576036575;37.5417237151;550;80;80;0;0;0;0;0
16091;Главное архивное управление г.Москвы;Glavnoe arhivnoe upravlenie g.Moskvy;104;out;55.6565637318;37.5394506759;760;34;34;0;0;0;0;0
16092;Главное архивное управление г.Москвы;Glavnoe arhivnoe upravlenie g.Moskvy;104;in;55.6563129988;37.5391917221;550;80;50;0;0;310;780;18
16093;Главное архивное управление г.Москвы;Glavnoe arhivnoe upravlenie g.Moskvy;104;out;55.6563129988;37.5391917221;760;34;4;0;0;310;780;18
16100;Площадь Ак.Келдыша;Ploshhad' Ak.Keldysha;104;in;55.6552977354;37.5392533778;550;81;46;0;0;320;680;15
16101;Площадь Ак.Келдыша;Ploshhad' Ak.Keldysha;104;out;55.6552977354;37.5392533778;760;35;0;0;0;320;680;15
16110;ТЦ Калужский;TC Kaluzhskij;104;in;55.6563006676;37.5403220761;550;84;50;0;0;310;780;15
16111;ТЦ Калужский;TC Kaluzhskij;104;out;55.6563006676;37.5403220761;760;38;4;0;0;310;780;15
16112;ТЦ Калужский;TC Kaluzhskij;104;in;55.6560334931;37.5400096874;550;81;81;0;0;0;0;0
16113;ТЦ Калужский;TC Kaluzhskij;104;out;55.6560334931;37.5400096874;760;35;35;0;0;0;0;0
16120;Главное архивное управление г.Москвы;Glavnoe arhivnoe upravlenie g.Moskvy;104;in;55.6581462274;37.5410948272;730;79;76;0;0;0;0;18
16121;Главное архивное управление г.Москвы;Glavnoe arhivnoe upravlenie g.Moskvy;104;out;55.6581462274;37.5410948272;730;32;29;0;0;0;0;18
16122;Главное архивное управление г.Москвы;Glavnoe arhivnoe upravlenie g.Moskvy;104;in;55.6578872736;37.5408112111;730;77;47;0;0;310;780;18
16123;Главное архивное управление г.Москвы;Glavnoe arhivnoe upravlenie g.Moskvy;104;out;55.6578872736;37.5408112111;730;30;0;0;0;310;780;18
16130;Хлебобулочный проезд;Hlebobulochnyj proezd;104;in;55.6578420595;37.5419785585;730;81;81;0;0;0;0;0
16131;Хлебобулочный проезд;Hlebobulochnyj proezd;104;out;55.6578420595;37.5419785585;730;34;34;0;0;0;0;0
16132;Хлебобулочный проезд;Hlebobulochnyj proezd;104;in;55.6576036575;37.5417237151;730;84;51;0;0;300;780;18
16133;Хлебобулочный проезд;Hlebobulochnyj proezd;104;out;55.6576036575;37.5417237151;730;37;4;0;0;300;780;18
16140;К Кантемировской улице;K Kantemirovskoj ulice;24;both;55.6369125086;37.6561219341;720;59;0;0;0;410;720;20
16150;На Пролетарский проспект;Na Proletarskij prospekt;24;both;55.6345736655;37.6571940764;720;64;0;0;0;420;750;23
16160;В сторону области, из стеклянных дверей налево, потом налево. ;V storonu oblasti, iz stekljannyh dverej nalevo, potom nalevo. ;24;both;55.6350993877;37.6576287286;720;51;0;0;0;400;750;23
16161;К Кавказскому бульвару, улицам Медиков, Ереванской;K Kavkazskomu bul'varu, ulicam Medikov, Erevanskoj;24;both;55.6348178986;37.6578936595;720;54;30;0;0;320;750;23
16170;К промзоне на Кантемировской улице;K promzone na Kantemirovskoj ulice;24;both;55.6366931127;37.65533956;720;63;38;0;0;320;720;20
16171;К автобусам по Пролетарскому проспекту на юг;K avtobusam po Proletarskomu prospektu na jug;24;both;55.63644474;37.6555713745;720;58;0;0;0;420;720;20
16180;На северную сторону улицы Каховка, на запад;Na severnuju storonu ulicy Kahovka, na zapad;26;out;55.6529182146;37.5963552128;550;51;24;0;0;350;830;20
16181;На северную сторону улицы Каховка, на запад;Na severnuju storonu ulicy Kahovka, na zapad;26;in;55.6529182146;37.5963552128;720;51;24;0;0;350;830;20
16190;На северную сторону улицы Каховка в сквер;Na severnuju storonu ulicy Kahovka v skver;26;out;55.6530530011;37.596968724;550;55;55;0;0;0;0;0
16191;На северную сторону улицы Каховка в сквер;Na severnuju storonu ulicy Kahovka v skver;26;in;55.6530530011;37.596968724;720;55;55;0;0;0;0;0
16200;На южную сторону улицы Каховка, на запад;Na juzhnuju storonu ulicy Kahovka, na zapad;26;out;55.6524766725;37.5966015468;550;56;29;0;0;310;780;20
16201;На южную сторону улицы Каховка, на запад;Na juzhnuju storonu ulicy Kahovka, na zapad;26;in;55.6524766725;37.5966015468;720;56;29;0;0;310;780;20
16210;На южную сторону улицы Каховка, на площадку между выходами, и Азовской улице;Na juzhnuju storonu ulicy Kahovka, na ploshhadku mezhdu vyhodami, i Azovskoj ulice;26;out;55.6526161068;37.5972011145;550;58;58;0;0;0;0;0
16211;На южную сторону улицы Каховка, на площадку между выходами, и Азовской улице;Na juzhnuju storonu ulicy Kahovka, na ploshhadku mezhdu vyhodami, i Azovskoj ulice;26;in;55.6526161068;37.5972011145;720;58;58;0;0;0;0;0
16220;К центру, на Азовскую улицу;K centru, na Azovskuju ulicu;26;out;55.653401587;37.5996412157;550;54;54;0;0;0;0;0
16221;К центру, на Азовскую улицу;K centru, na Azovskuju ulicu;26;in;55.653401587;37.5996412157;720;54;54;0;0;0;0;0
16230;К центру, на Азовскую улицу в южном направлении;K centru, na Azovskuju ulicu v juzhnom napravlenii;26;out;55.6529600449;37.59978065;550;57;57;0;0;0;0;0
16231;К центру, на Азовскую улицу в южном направлении;K centru, na Azovskuju ulicu v juzhnom napravlenii;26;in;55.6529600449;37.59978065;720;57;57;0;0;0;0;0
16234;В сторону центра;V storonu centra;25;in;55.6555984168;37.6495524755;540;46;0;0;0;320;710;20
16240;К центру, на северную сторону Чонгарского бульвара;K centru, na severnuju storonu Chongarskogo bul'vara;26;out;55.653401587;37.6002965571;550;55;25;0;0;370;800;20
16241;К центру, на северную сторону Чонгарского бульвара;K centru, na severnuju storonu Chongarskogo bul'vara;26;in;55.653401587;37.6002965571;720;55;25;0;0;370;800;20
16250;К центру, на южную сторону Чонгарского бульвара;K centru, na juzhnuju storonu Chongarskogo bul'vara;26;out;55.6529553971;37.6004499349;550;44;24;0;0;300;870;18
16251;К центру, на южную сторону Чонгарского бульвара;K centru, na juzhnuju storonu Chongarskogo bul'vara;26;in;55.6529553971;37.6004499349;720;44;24;0;0;300;870;18
16260;В сторону области;V storonu oblasti;226;in;55.6544062277;37.6478966573;700;51;1;0;0;320;710;20
16261;В сторону области;V storonu oblasti;226;out;55.654061623;37.6477979024;550;1;1;0;0;0;0;0
16262;Южный вестибюль;Juzhnyj vestibjul';25;in;55.6544062277;37.6478966573;550;51;1;0;0;320;710;20
16263;Южный вестибюль;Juzhnyj vestibjul';25;out;55.654061623;37.6477979024;550;1;1;0;0;0;0;0
16265;В сторону центра;V storonu centra;25;out;55.6557143241;37.6501651282;550;3;3;0;0;0;0;0
16270;В сторону центра;V storonu centra;226;in;55.6555984168;37.6495524755;720;46;0;0;0;320;710;20
16271;В сторону центра;V storonu centra;226;out;55.6557143241;37.6501651282;550;3;3;0;0;0;0;0
16272;Южный вестибюль;Juzhnyj vestibjul';226;out;55.6542915377;37.6473568842;550;3;3;0;0;0;0;0
16273;Северный вестибюль;Severnyj vestibjul';226;out;55.655934383;37.6496769328;550;3;3;0;0;0;0;0
16274;Южный вестибюль;Juzhnyj vestibjul';25;out;55.6542915377;37.6473568842;550;53;3;0;0;0;0;0
16275;Северный вестибюль;Severnyj vestibjul';25;out;55.655934383;37.6496769328;550;49;3;0;0;0;0;0
16280;площадь Киевского вокзала;ploshhad' Kievskogo vokzala;42;both;55.7430807424;37.5644074775;770;70;70;0;0;0;0;0
16281;площадь Киевского вокзала;ploshhad' Kievskogo vokzala;57;both;55.7430807424;37.5644074775;770;93;72;0;0;300;760;25
16282;площадь Киевского вокзала;ploshhad' Kievskogo vokzala;77;both;55.7430807424;37.5644074775;770;48;48;0;0;0;0;0
16283;пригородные поезда;prigorodnye poezda;42;both;55.7429009009;37.5641539305;770;54;54;0;0;0;0;0
16284;пригородные поезда;prigorodnye poezda;57;both;55.7429009009;37.5641539305;770;77;56;0;0;300;760;25
16285;пригородные поезда;prigorodnye poezda;77;both;55.7429009009;37.5641539305;770;32;32;0;0;0;0;0
16286;площадь Киевского вокзала;ploshhad' Kievskogo vokzala;42;both;55.7430660013;37.5643632542;770;38;38;0;0;0;0;0
16287;площадь Киевского вокзала;ploshhad' Kievskogo vokzala;57;both;55.7430660013;37.5643632542;770;61;40;0;0;300;760;25
16288;площадь Киевского вокзала;ploshhad' Kievskogo vokzala;77;both;55.7430660013;37.5643632542;770;16;16;0;0;0;0;0
16290;площадь Киевского вокзала;ploshhad' Kievskogo vokzala;42;out;55.7431632926;37.5647140925;770;21;21;0;0;0;0;0
16291;площадь Киевского вокзала;ploshhad' Kievskogo vokzala;57;out;55.7431632926;37.5647140925;770;63;42;0;0;300;760;25
16292;площадь Киевского вокзала;ploshhad' Kievskogo vokzala;77;out;55.7431632926;37.5647140925;770;0;0;0;0;0;0;0
16293;площадь Киевского вокзала;ploshhad' Kievskogo vokzala;42;in;55.7431603443;37.5647199889;770;31;31;0;0;0;0;0
16294;площадь Киевского вокзала;ploshhad' Kievskogo vokzala;57;in;55.7431603443;37.5647199889;770;54;33;0;0;300;760;25
16295;площадь Киевского вокзала;ploshhad' Kievskogo vokzala;77;in;55.7431603443;37.5647199889;770;9;9;0;0;0;0;0
16300;ТРЦ Европейский, выход 4;TRC Evropejskij, vyhod 4;57;both;55.7440682406;37.5669715807;740;69;17;0;0;400;760;25
16301;ТРЦ Европейский, выход 4;TRC Evropejskij, vyhod 4;77;both;55.7440682406;37.5669715807;740;53;22;0;0;400;760;25
16310;Киевский вокзал;Kievskij vokzal;57;both;55.7438060048;37.5671611161;740;64;43;0;0;400;760;25
16311;Киевский вокзал;Kievskij vokzal;77;both;55.7438060048;37.5671611161;740;48;48;0;0;0;0;0
16320;Киевский вокзал;Kievskij vokzal;57;both;55.7437205064;37.5676092457;740;67;17;0;0;400;760;25
16321;Киевский вокзал;Kievskij vokzal;77;both;55.7437205064;37.5676092457;740;51;22;0;0;400;760;25
16330;ТРЦ Европейский;TRC Evropejskij;57;both;55.7443581383;37.5671386982;740;72;51;0;0;400;760;25
16331;ТРЦ Европейский;TRC Evropejskij;77;both;55.7443581383;37.5671386982;740;56;56;0;0;0;0;0
16340;На север, Старая площадь;Na sever, Staraja ploshhad';96;both;55.7562893888;37.6300345728;740;61;61;0;0;0;0;0
16341;На север, Старая площадь;Na sever, Staraja ploshhad';227;both;55.7562893888;37.6300345728;740;61;61;0;0;0;0;0
16350;На север, к Политехническому музею;Na sever, k Politehnicheskomu muzeju;96;both;55.7569715217;37.6305015363;740;73;73;0;0;0;0;0
16351;На север, к Политехническому музею;Na sever, k Politehnicheskomu muzeju;227;both;55.7569715217;37.6305015363;740;73;73;0;0;0;0;0
16360;На север, к памятнику героям Плевны, западный;Na sever, k pamjatniku gerojam Plevny, zapadnyj;96;both;55.7567838207;37.6309913901;740;69;67;0;0;0;0;4
16361;На север, к памятнику героям Плевны, западный;Na sever, k pamjatniku gerojam Plevny, zapadnyj;227;both;55.7567838207;37.6309913901;740;69;67;0;0;0;0;4
16370;На север, улица Маросейка, северная сторона;Na sever, ulica Marosejka, severnaja storona;96;both;55.7573251779;37.6317811078;740;71;71;0;0;0;0;0
16371;На север, улица Маросейка, северная сторона;Na sever, ulica Marosejka, severnaja storona;227;both;55.7573251779;37.6317811078;740;71;71;0;0;0;0;0
16380;На север, к памятнику героям Плевны, восточный;Na sever, k pamjatniku gerojam Plevny, vostochnyj;96;both;55.7568708041;37.6312202938;740;72;68;0;0;0;0;4
16381;На север, к памятнику героям Плевны, восточный;Na sever, k pamjatniku gerojam Plevny, vostochnyj;227;both;55.7568708041;37.6312202938;740;72;68;0;0;0;0;4
16390;На север, улица Маросейка, южная сторона;Na sever, ulica Marosejka, juzhnaja storona;96;both;55.7572153041;37.6320649484;740;72;72;0;0;0;0;0
16391;На север, улица Маросейка, южная сторона;Na sever, ulica Marosejka, juzhnaja storona;227;both;55.7572153041;37.6320649484;740;72;72;0;0;0;0;0
16392;На север, Лубянский проезд, угол с Маросейкой;Na sever, Lubjanskij proezd, ugol s Marosejkoj;96;both;55.7570127244;37.6318886925;740;54;54;0;0;0;0;0
16393;На север, Лубянский проезд, угол с Маросейкой;Na sever, Lubjanskij proezd, ugol s Marosejkoj;227;both;55.7570127244;37.6318886925;740;54;54;0;0;0;0;0
16400;На юг, на Варварку;Na jug, na Varvarku;96;both;55.7531385296;37.6330675465;740;35;35;0;0;0;0;0
16401;На юг, на Варварку;Na jug, na Varvarku;227;both;55.7531385296;37.6330675465;740;35;35;0;0;0;0;0
16402;На юг, Китайгородский проезд, троллейбусная остановка;Na jug, Kitajgorodskij proezd, trollejbusnaja ostanovka;96;both;55.7529738673;37.6333069206;740;6;6;0;0;0;0;5
16403;На юг, Китайгородский проезд, троллейбусная остановка;Na jug, Kitajgorodskij proezd, trollejbusnaja ostanovka;227;both;55.7529738673;37.6333069206;740;6;6;0;0;0;0;5
16410;На юг, Китайгородский проезд, лицом на площадь;Na jug, Kitajgorodskij proezd, licom na ploshhad';96;both;55.7532361938;37.6337378856;740;26;26;0;0;0;0;0
16411;На юг, Китайгородский проезд, лицом на площадь;Na jug, Kitajgorodskij proezd, licom na ploshhad';227;both;55.7532361938;37.6337378856;740;26;26;0;0;0;0;0
16412;На юг, Китайгородский проезд, восточная сторона;Na jug, Kitajgorodskij proezd, vostochnaja storona;96;both;55.7530011874;37.6336535399;740;22;22;0;0;0;0;0
16413;На юг, Китайгородский проезд, восточная сторона;Na jug, Kitajgorodskij proezd, vostochnaja storona;227;both;55.7530011874;37.6336535399;740;22;22;0;0;0;0;0
16420;На юг, в сквер;Na jug, v skver;96;both;55.75418955;37.63409557;740;38;38;0;0;0;0;0
16421;На юг, в сквер;Na jug, v skver;227;both;55.75418955;37.63409557;740;38;38;0;0;0;0;0
16430;На юг, троллейбусная остановка на север;Na jug, trollejbusnaja ostanovka na sever;96;both;55.7541148038;37.6350704537;740;33;33;0;0;0;0;0
16431;На юг, троллейбусная остановка на север;Na jug, trollejbusnaja ostanovka na sever;227;both;55.7541148038;37.6350704537;740;33;33;0;0;0;0;0
16440;На север, Новая площадь, западная сторона;Na sever, Novaja ploshhad', zapadnaja storona;96;both;55.7566556346;37.6295309847;740;69;69;0;0;0;0;0
16441;На север, Новая площадь, западная сторона;Na sever, Novaja ploshhad', zapadnaja storona;227;both;55.7566556346;37.6295309847;740;69;69;0;0;0;0;0
16450;На юг, троллейбусная остановка на восток, на Солянку;Na jug, trollejbusnaja ostanovka na vostok, na Soljanku;96;both;55.7537657257;37.6355351281;740;31;31;0;0;0;0;0
16451;На юг, троллейбусная остановка на восток, на Солянку;Na jug, trollejbusnaja ostanovka na vostok, na Soljanku;227;both;55.7537657257;37.6355351281;740;31;31;0;0;0;0;0
16460;Со второго этажа вестибюля, к жилым домам;So vtorogo jetazha vestibjulja, k zhilym domam;154;both;55.70621492;37.68544243;700;26;26;0;0;315;760;20
16470;С первого этажа вестибюля, на улицы;S pervogo jetazha vestibjulja, na ulicy;154;both;55.7063415069;37.6856446879;700;63;63;0;0;315;760;20
16480;В сторону области, на проспект Андропова;V storonu oblasti, na prospekt Andropova;28;out;55.6767572311;37.6627855326;720;55;24;0;0;350;790;20
16481;В сторону области, на проспект Андропова;V storonu oblasti, na prospekt Andropova;28;in;55.6767572311;37.6627855326;540;55;24;0;0;350;790;20
16490;В сторону области, на Нагатинскую улицу;V storonu oblasti, na Nagatinskuju ulicu;28;out;55.6777537448;37.662986685;720;53;24;0;0;350;830;20
16491;В сторону области, на Нагатинскую улицу;V storonu oblasti, na Nagatinskuju ulicu;28;in;55.6777537448;37.662986685;540;53;24;0;0;350;830;20
16500;В сторону центра, к автобусам по проспекту Андропова в Орехово, Бирюлёво;V storonu centra, k avtobusam po prospektu Andropova v Orehovo, Birjuljovo;28;out;55.6792612319;37.663368181;720;56;32;0;0;320;780;20
16501;В сторону центра, к автобусам по проспекту Андропова в Орехово, Бирюлёво;V storonu centra, k avtobusam po prospektu Andropova v Orehovo, Birjuljovo;28;in;55.6792612319;37.663368181;540;56;32;0;0;320;780;20
16510;В сторону области, к кинотеатру Орбита, парку Коломенское.;V storonu oblasti, k kinoteatru Orbita, parku Kolomenskoe.;28;out;55.6765318016;37.6642722108;720;32;24;0;0;480;680;20
16511;В сторону области, к кинотеатру Орбита, парку Коломенское.;V storonu oblasti, k kinoteatru Orbita, parku Kolomenskoe.;28;in;55.6765318016;37.6642722108;540;32;24;0;0;480;680;20
16520;В сторону области, к трамваям;V storonu oblasti, k tramvajam;28;out;55.6776739774;37.6645450382;720;51;25;0;0;340;770;20
16521;В сторону области, к трамваям;V storonu oblasti, k tramvajam;28;in;55.6776739774;37.6645450382;540;51;25;0;0;340;770;20
16530;В сторону центра, к автобусам про проспекту Андропова в центр;V storonu centra, k avtobusam pro prospektu Andropova v centr;28;out;55.6795317472;37.665016706;720;54;0;0;0;320;680;20
16531;В сторону центра, к автобусам про проспекту Андропова в центр;V storonu centra, k avtobusam pro prospektu Andropova v centr;28;in;55.6795317472;37.665016706;540;54;0;0;0;320;680;20
16540;В сторону центра, на Судостроительную улицу;V storonu centra, na Sudostroitel'nuju ulicu;28;out;55.6791502512;37.6649496552;720;55;31;0;0;320;780;20
16541;В сторону центра, на Судостроительную улицу;V storonu centra, na Sudostroitel'nuju ulicu;28;in;55.6791502512;37.6649496552;540;55;31;0;0;320;780;20
16550;В сторону центра, к Высокой улице;V storonu centra, k Vysokoj ulice;28;out;55.6796265431;37.6634306076;720;55;1;0;0;320;720;20
16551;В сторону центра, к Высокой улице;V storonu centra, k Vysokoj ulice;28;in;55.6796265431;37.6634306076;540;55;1;0;0;320;720;20
16560;Ленинградский и Ярославский вокзалы, Комсомольская площадь;Leningradskij i Jaroslavskij vokzaly, Komsomol'skaja ploshhad';70;in;55.7758404599999;37.6559069899999;700;71;47;0;0;325;775;19
16561;Ленинградский и Ярославский вокзалы, Комсомольская площадь;Leningradskij i Jaroslavskij vokzaly, Komsomol'skaja ploshhad';6;in;55.7758404599999;37.6559069899999;700;68;68;0;0;0;0;0
16570;Казанский вокзал, Комсомольская площадь;Kazanskij vokzal, Komsomol'skaja ploshhad';70;in;55.7749230193837;37.6562295240408;700;65;24;0;0;325;730;23
16571;Казанский вокзал, Комсомольская площадь;Kazanskij vokzal, Komsomol'skaja ploshhad';70;in;55.7751489982246;37.6566520831376;700;76;52;0;0;325;775;19
16572;Казанский вокзал, Комсомольская площадь;Kazanskij vokzal, Komsomol'skaja ploshhad';6;in;55.7749230193837;37.6562295240408;700;62;21;0;0;320;730;23
16573;Казанский вокзал, Комсомольская площадь;Kazanskij vokzal, Komsomol'skaja ploshhad';6;in;55.7751489982246;37.6566520831376;700;73;73;0;0;0;0;0
16580;Казанский вокзал, Комсомольская площадь;Kazanskij vokzal, Komsomol'skaja ploshhad';70;in;55.7744461256;37.655666333;725;33;33;0;0;0;0;0
16581;Казанский вокзал, поезда;Kazanskij vokzal, poezda;70;in;55.773892794362;37.6557684467885;725;30;23;0;0;360;650;20
16582;Казанский вокзал, пригородные кассы;Kazanskij vokzal, prigorodnye kassy;70;in;;;725;6;6;0;0;0;0;0
16583;Казанский вокзал, Комсомольская площадь;Kazanskij vokzal, Komsomol'skaja ploshhad';6;in;55.7744461256;37.655666333;725;54;54;0;0;0;0;0
16584;Казанский вокзал, поезда;Kazanskij vokzal, poezda;6;in;55.773892794362;37.6557684467885;725;51;44;0;0;360;650;20
16585;Казанский вокзал, пригородные кассы;Kazanskij vokzal, prigorodnye kassy;6;in;;;725;27;27;0;0;0;0;0
16586;Казанский вокзал, поезда;Kazanskij vokzal, poezda;70;in;55.7735602068878;37.6558157512647;725;41;6;0;0;500;600;25
16587;Казанский вокзал, поезда;Kazanskij vokzal, poezda;6;in;55.7735602068878;37.6558157512647;725;62;27;0;0;500;600;25
16590;Ленинградский и Ярославский вокзалы;Leningradskij i Jaroslavskij vokzaly;70;out;55.7767378472;37.6559332597;540;24;0;0;0;325;775;19
16591;Ленинградский и Ярославский вокзалы;Leningradskij i Jaroslavskij vokzaly;6;out;55.7767378472;37.6559332597;540;21;21;0;0;0;0;0
16592;Ленинградский и Ярославский вокзалы, Комсомольская площадь;Leningradskij i Jaroslavskij vokzaly, Komsomol'skaja ploshhad';70;out;55.7761919702;37.6562987809;540;24;0;0;0;325;775;19
16593;Ленинградский и Ярославский вокзалы, Комсомольская площадь;Leningradskij i Jaroslavskij vokzaly, Komsomol'skaja ploshhad';6;out;55.7761919702;37.6562987809;540;21;21;0;0;0;0;0
16594;Ленинградский вокзал, электрички;Leningradskij vokzal, jelektrichki;70;in;55.7781936958;37.654779014;740;48;24;0;0;325;775;19
16595;Ленинградский вокзал, электрички;Leningradskij vokzal, jelektrichki;6;in;55.7781936958;37.654779014;740;45;45;0;0;0;0;0
16596;Ярославский вокзал, электрички;Jaroslavskij vokzal, jelektrichki;70;in;;;740;48;24;0;0;325;775;19
16597;Ярославский вокзал, электрички;Jaroslavskij vokzal, jelektrichki;6;in;;;740;45;45;0;0;0;0;0
16600;Комсомольская площадь, трамвайная остановка;Komsomol'skaja ploshhad', tramvajnaja ostanovka;6;in;55.7754917;37.65612513;700;67;67;0;0;0;0;0
16601;Комсомольская площадь, трамвайная остановка;Komsomol'skaja ploshhad', tramvajnaja ostanovka;70;in;55.7754917;37.65612513;700;70;46;0;0;325;775;19
16602;Комсомольская площадь, трамвайная остановка;Komsomol'skaja ploshhad', tramvajnaja ostanovka;6;in;55.7752757625;37.6557384754;700;68;68;0;0;0;0;0
16603;Комсомольская площадь, трамвайная остановка;Komsomol'skaja ploshhad', tramvajnaja ostanovka;70;in;55.7752757625;37.6557384754;700;71;47;0;0;325;775;19
16610;Ленинградский и Ярославский вокзалы, Комсомольская площадь;Leningradskij i Jaroslavskij vokzaly, Komsomol'skaja ploshhad';6;in;55.77570816;37.65528109;700;66;45;0;0;320;740;26
16611;Ленинградский и Ярославский вокзалы, Комсомольская площадь;Leningradskij i Jaroslavskij vokzaly, Komsomol'skaja ploshhad';70;in;55.77570816;37.65528109;700;69;24;0;0;325;740;26
16612;Казанский вокзал, Комсомольская площадь;Kazanskij vokzal, Komsomol'skaja ploshhad';70;out;55.7744461256;37.655666333;540;33;33;0;0;0;0;0
16613;Казанский вокзал, поезда;Kazanskij vokzal, poezda;70;out;55.773892794362;37.6557684467885;540;30;17;0;0;360;510;22
16614;Казанский вокзал, пригородные кассы;Kazanskij vokzal, prigorodnye kassy;70;out;;;540;6;0;0;0;290;510;22
16615;Казанский вокзал, Комсомольская площадь;Kazanskij vokzal, Komsomol'skaja ploshhad';6;out;55.7744461256;37.655666333;540;54;54;0;0;0;0;0
16616;Казанский вокзал, поезда;Kazanskij vokzal, poezda;6;out;55.773892794362;37.6557684467885;540;51;38;0;0;360;510;22
16617;Казанский вокзал, пригородные кассы;Kazanskij vokzal, prigorodnye kassy;6;out;;;540;27;21;0;0;290;510;22
16618;Казанский вокзал, поезда;Kazanskij vokzal, poezda;70;out;55.7735602068878;37.6558157512647;540;41;0;0;0;500;510;25
16619;Казанский вокзал, поезда;Kazanskij vokzal, poezda;6;out;55.7735602068878;37.6558157512647;540;62;21;0;0;500;510;25
16620;"Вещевой рынок ""Коньково""";"Veshhevoj rynok ""Kon'kovo""";106;both;55.6324377819;37.5181354951;520;68;43;0;0;310;1000;20
16621;"Вещевой рынок ""Коньково""";"Veshhevoj rynok ""Kon'kovo""";106;both;55.6320476185;37.5178579562;520;66;0;0;0;310;1000;20
16630;ул.Островитянова (четн.);ul.Ostrovitjanova (chetn.);106;both;55.6343483758;37.5190083349;540;63;25;0;0;400;960;20
16631;ул.Островитянова (четн.);ul.Ostrovitjanova (chetn.);106;both;55.6340306139;37.5192054278;540;62;62;0;0;0;0;0
16640;Продуктовый рай;Produktovyj raj;106;both;55.6321924214;37.5194145875;520;57;32;0;0;310;780;15
16641;Продуктовый рай;Produktovyj raj;106;both;55.6317741018;37.5191410709;520;60;0;0;0;310;1030;22
16650;ул.Островитянова (нечет.);ul.Ostrovitjanova (nechet.);106;both;55.6347023385;37.519301963;540;59;34;0;0;0;0;0
16651;ул.Островитянова (нечет.);ul.Ostrovitjanova (nechet.);106;both;55.6345615579;37.51992542;540;56;25;0;0;400;940;15
16660;ул.Профсоюзная;ul.Profsojuznaja;106;both;55.6339179894;37.5199857546;540;54;54;0;0;0;0;0
16670;ТЦ Виктория;TC Viktorija;106;both;55.6338093872;37.5205689885;540;54;25;0;0;350;920;18
16680;К улице Мусы Джалиля;K ulice Musy Dzhalilja;20;in;55.6141664369;37.746071294;800;64;64;0;0;0;0;0
16681;К улице Мусы Джалиля;K ulice Musy Dzhalilja;20;out;55.6141664369;37.746071294;800;34;34;0;0;0;0;0
16690;К магазину ТУК;K magazinu TUK;20;in;55.613590196;37.7461625048;800;62;62;0;0;0;0;0
16691;К магазину ТУК;K magazinu TUK;20;out;55.613590196;37.7461625048;800;32;32;0;0;0;0;0
16700;К автостанции;K avtostancii;20;in;55.6136175159;37.7467726495;800;66;32;0;0;420;820;20
16701;К автостанции;K avtostancii;20;out;55.6136175159;37.7467726495;800;36;2;0;0;420;820;20
16710;К Кустанайской улице;K Kustanajskoj ulice;20;in;55.614191234;37.7466178366;800;66;30;0;0;320;750;20
16711;К Кустанайской улице;K Kustanajskoj ulice;20;out;55.614191234;37.7466178366;800;36;0;0;0;320;750;20
16720;К ТЦ Облака;K TC Oblaka;20;both;55.6134126165;37.7423513769;800;63;38;0;0;320;750;20
16730;К Мусы Джалиля на север.;K Musy Dzhalilja na sever.;20;both;55.6139681214;37.7428932218;800;62;37;0;0;320;740;20
16740;К рынку;K rynku;20;both;55.6134353831;37.7429842882;800;61;0;0;0;320;820;20
16750;К Ореховому проезду;K Orehovomu proezdu;20;both;55.6139408015;37.7422876304;800;67;25;0;0;320;750;20
16751;К рынку;K rynku;20;both;55.6133730859;37.7442715625;800;37;1;2;37;0;0;0
16752;К автостанции;K avtostancii;20;both;55.61342628;37.74559789;800;42;1;2;42;0;0;0
16760;Выход на ул. Красная пресня;Vyhod na ul. Krasnaja presnja;78;out;55.7603447471;37.5773749825;750;2;2;0;0;0;0;0
16761;Вход с ул. Красная пресня;Vhod s ul. Krasnaja presnja;78;in;55.7603875443;37.5770517895;600;2;2;0;0;0;0;0
16770;Краснопрудная улица, верхняя Красносельская улица;Krasnoprudnaja ulica, verhnjaja Krasnosel'skaja ulica;5;both;55.78007357;37.66609759;780;59;59;0;0;0;0;0
16780;Площадь Красные ворота, Садовое кольцо (внутренняя сторона);Ploshhad' Krasnye vorota, Sadovoe kol'co (vnutrennjaja storona);7;both;55.7683616161;37.6480432082;730;41;41;0;0;0;0;0
16790;Каланчевская улица, Садовое кольцо (внешняя сторона);Kalanchevskaja ulica, Sadovoe kol'co (vneshnjaja storona);7;in;55.7698506489;37.650350681;730;5;5;0;0;0;0;0
16791;Каланчевская улица, Садовое кольцо (внешняя сторона);Kalanchevskaja ulica, Sadovoe kol'co (vneshnjaja storona);7;out;55.7698506489;37.650350681;700;2;2;0;0;0;0;0
16800;На Воронцовскую улицу;Na Voroncovskuju ulicu;153;both;55.732304914;37.6654816515;720;44;1;0;0;320;790;20
16801;На Воронцовскую улицу;Na Voroncovskuju ulicu;115;both;55.732304914;37.6654816515;720;95;54;0;0;320;790;20
16810;ул. Волхонка, музей им. Пушкина;ul. Volhonka, muzej im. Pushkina;12;both;55.74571998;37.60517249;720;49;49;0;0;0;0;0
16811;Храм Христа Спасителя, ул. Волхонка;Hram Hrista Spasitelja, ul. Volhonka;12;both;55.7454179066;37.6052280196;720;33;33;0;0;0;0;0
16820;Гоголевский бульвар;Gogolevskij bul'var;12;in;55.7449504083;37.601575021;700;47;47;0;0;0;0;0
16821;Гоголевский бульвар;Gogolevskij bul'var;12;out;55.7450370138;37.6016870109;700;48;48;0;0;0;0;0
16830;Осенний бульвар (север);Osennij bul'var (sever);66;both;55.7579053533;37.4072899322;740;28;28;0;0;0;0;0
16840;Осенний бульвар (юг);Osennij bul'var (jug);66;both;55.7556186382;37.4076061801;740;32;32;0;0;0;0;0
16850;Осенний бульвар (юг);Osennij bul'var (jug);66;both;55.7553023903;37.4085995226;740;35;1;0;0;400;780;20
16860;Осенний бульвар (север);Osennij bul'var (sever);66;both;55.7576499224;37.4086279039;740;35;0;0;0;360;630;15
16870;Осенний бульвар (север);Osennij bul'var (sever);66;both;55.7573580013;37.4073872392;740;39;0;0;0;350;820;18
16880;Осенний бульвар (север);Osennij bul'var (sever);66;both;55.7581324031;37.4085549236;740;26;0;0;0;370;860;18
16890;Осенний бульвар (юг);Osennij bul'var (jug);66;both;55.7556551283;37.4088630625;740;32;0;0;0;420;780;19
16900;Осенний бульвар (юг);Osennij bul'var (jug);66;both;55.7552861725;37.4076629425;740;33;0;0;0;410;900;23
16910;улица  Рождественка;ulica  Rozhdestvenka;118;both;55.761595376;37.6241906619;710;1;1;0;0;0;0;0
16920;К центру, на улицу Маршала Чуйкова;K centru, na ulicu Marshala Chujkova;112;both;55.705286869;37.7637516423;740;49;1;0;0;410;730;26
16922;К центру, к рынку и торговым центрам;K centru, k rynku i torgovym centram;112;both;55.7052373513;37.7641415942;740;48;24;0;0;330;770;21
16930;К центру, на северную сторону Волгоградского проспекта;K centru, na severnuju storonu Volgogradskogo prospekta;112;both;55.7060007491;37.7639827249;740;52;1;0;0;330;770;21
16932;К центру, на Жигулёвскую улицу;K centru, na Zhiguljovskuju ulicu;112;both;55.7059594843;37.7643582341;740;52;1;0;0;430;770;24
16940;К области, на Зеленодольскую улицу;K oblasti, na Zelenodol'skuju ulicu;112;out;55.7048453362;37.7670425058;550;22;22;0;0;0;0;0
16941;К области, на Зеленодольскую улицу;K oblasti, na Zelenodol'skuju ulicu;112;in;55.7048453362;37.7670425058;740;56;56;0;0;0;0;0
16942;К области, к автобусам по Волгоградскому проспекту в область;K oblasti, k avtobusam po Volgogradskomu prospektu v oblast';112;out;55.7047937553;37.7674654695;550;25;1;0;0;290;800;26
16943;К области, к автобусам по Волгоградскому проспекту в область;K oblasti, k avtobusam po Volgogradskomu prospektu v oblast';112;in;55.7047937553;37.7674654695;740;59;35;0;0;290;800;26
16950;К области, на Зеленодольскую улицу на север, макдональдсу, театру;K oblasti, na Zelenodol'skuju ulicu na sever, makdonal'dsu, teatru;112;out;55.7055674692;37.7672859678;550;27;3;0;0;310;840;25
16951;К области, на Зеленодольскую улицу на север, макдональдсу, театру;K oblasti, na Zelenodol'skuju ulicu na sever, makdonal'dsu, teatru;112;in;55.7055674692;37.7672859678;740;61;37;0;0;310;840;25
16952;К области, на северную сторону Волгоградского проспекта;K oblasti, na severnuju storonu Volgogradskogo prospekta;112;out;55.7055055721;37.7677522595;550;28;28;0;0;0;0;0
16953;К области, на северную сторону Волгоградского проспекта;K oblasti, na severnuju storonu Volgogradskogo prospekta;112;in;55.7055055721;37.7677522595;740;62;62;0;0;0;0;0
16960;Молдавская ул.;Moldavskaja ul.;210;in;55.7306920536;37.4454977688;850;42;40;1;40;0;0;5
16961;Молдавская ул.;Moldavskaja ul.;210;out;55.7307416413;37.4454836009;850;42;40;1;40;0;0;5
16970;Малая Филевская ул.;Malaja Filevskaja ul.;210;in;55.7308514427;37.4464541035;800;40;40;1;38;0;0;0
16971;Малая Филевская ул.;Malaja Filevskaja ul.;210;out;55.730794771;37.4464859813;800;40;40;1;38;0;0;0
16980;Рублевское ш.;Rublevskoe sh.;64;in;55.7305680842;37.44564299;550;32;32;0;0;0;0;0
16981;Рублевское ш.;Rublevskoe sh.;64;out;55.7305149545;37.4456642419;550;32;32;0;0;0;0;0
16990;Кастанаевская ул.;Kastanaevskaja ul.;64;in;55.7306778856;37.4465249431;550;29;29;0;0;0;0;0
16991;Кастанаевская ул.;Kastanaevskaja ul.;64;out;55.7307274734;37.4465072332;550;29;29;0;0;0;0;0
17000;Старый выход на Садовое кольцо;Staryj vyhod na Sadovoe kol'co;46;both;55.7586200673;37.6588607328;800;0;0;0;0;0;0;0
17001;Старый выход на Садовое кольцо;Staryj vyhod na Sadovoe kol'co;71;both;55.7586200673;37.6588607328;800;0;0;0;0;0;0;0
17010;На улицу в пристройку к Курскому вокзалу;Na ulicu v pristrojku k Kurskomu vokzalu;46;both;55.7584696984;37.660199732;700;43;43;0;0;0;0;0
17011;На улицу в пристройку к Курскому вокзалу;Na ulicu v pristrojku k Kurskomu vokzalu;71;both;55.7584696984;37.660199732;700;43;43;0;0;0;0;0
17012;На нижний уровень Курского вокзала;Na nizhnij uroven' Kurskogo vokzala;46;both;55.7579523;37.6600452;720;15;0;0;0;310;720;23
17013;На нижний уровень Курского вокзала;Na nizhnij uroven' Kurskogo vokzala;71;both;55.7579523;37.6600452;720;15;0;0;0;310;720;23
17014;На платформу №1, к поездам дальнего следования;Na platformu №1, k poezdam dal'nego sledovanija;46;both;55.7586021662;37.6610518224;730;15;15;0;0;0;0;0
17015;На платформу №1, к поездам дальнего следования;Na platformu №1, k poezdam dal'nego sledovanija;71;both;55.7586021662;37.6610518224;730;15;15;0;0;0;0;0
17020;Через переход под путями, на Нижний Сусальный переулок;Cherez perehod pod putjami, na Nizhnij Susal'nyj pereulok;46;both;55.7601917802;37.6619683566;730;15;15;0;0;0;0;0
17021;Через переход под путями, на Нижний Сусальный переулок;Cherez perehod pod putjami, na Nizhnij Susal'nyj pereulok;71;both;55.7601917802;37.6619683566;730;15;15;0;0;0;0;0
17030;К пригородным поездам Горьковского направления, трамвайному кольцу;K prigorodnym poezdam Gor'kovskogo napravlenija, tramvajnomu kol'cu;71;in;55.7560208335;37.6595624543;720;32;0;0;0;0;0;7
17031;К пригородным поездам Горьковского направления, трамвайному кольцу;K prigorodnym poezdam Gor'kovskogo napravlenija, tramvajnomu kol'cu;71;out;55.7560208335;37.6595624543;600;32;0;0;0;0;0;7
17032;На Садовое кольцо на юг;Na Sadovoe kol'co na jug;71;in;55.7560208335;37.6595624543;720;66;66;0;0;0;0;0
17033;На Садовое кольцо на юг;Na Sadovoe kol'co na jug;71;out;55.7560208335;37.6595624543;600;58;58;0;0;0;0;0
17034;К пригородным поездам Горьковского направления, трамвайному кольцу;K prigorodnym poezdam Gor'kovskogo napravlenija, tramvajnomu kol'cu;151;in;55.75602493;37.65934368;720;32;0;0;0;0;0;7
17035;К пригородным поездам Горьковского направления, трамвайному кольцу;K prigorodnym poezdam Gor'kovskogo napravlenija, tramvajnomu kol'cu;151;out;55.75602493;37.65934368;600;32;0;0;0;0;0;7
17036;На Садовое кольцо на юг;Na Sadovoe kol'co na jug;151;in;55.7559227;37.6582024;720;66;66;0;0;0;0;0
17037;На Садовое кольцо на юг;Na Sadovoe kol'co na jug;151;out;55.7559227;37.6582024;600;58;58;0;0;0;0;0
17040;Кутузовский проспект (юг);Kutuzovskij prospekt (jug);59;in;55.739462883;37.5349365164;660;31;31;0;0;0;0;0
17041;Кутузовский проспект (юг);Kutuzovskij prospekt (jug);59;out;55.7395324881;37.5348858945;540;32;32;0;0;0;0;0
17050;Кутузовский проспект (север);Kutuzovskij prospekt (sever);59;in;55.7405734009;37.5342594485;800;34;34;0;0;0;0;0
17051;Кутузовский проспект (север);Kutuzovskij prospekt (sever);59;out;55.7405417622;37.5342784317;560;36;36;0;0;0;0;0
17060;Площадь Гагарина;Ploshhad' Gagarina;100;in;55.7068826274;37.5850109175;600;0;0;0;0;0;0;0
17061;Площадь Гагарина;Ploshhad' Gagarina;100;out;55.7068636169;37.5851202279;600;0;0;0;0;0;0;0
17070;ул.Орджоникидзе;ul.Ordzhonikidze;100;in;55.708327425;37.5873777241;600;0;0;0;0;0;0;0
17071;ул.Орджоникидзе;ul.Ordzhonikidze;100;out;55.7083797039;37.5872874243;600;0;0;0;0;0;0;0
17090;Лубянская площадь, Малый Черкасский переулок;Lubjanskaja ploshhad', Malyj Cherkasskij pereulok;9;both;55.7588336531;37.6262759744;720;22;22;0;0;0;0;0
17100;Политехнический музей, Лубянская площадь;Politehnicheskij muzej, Lubjanskaja ploshhad';9;both;55.758950394;37.6271320741;720;20;20;0;0;0;0;0
17110;Политехнический музей, Лубянская площадь;Politehnicheskij muzej, Lubjanskaja ploshhad';9;both;55.7592420352623;37.628021263033;720;34;34;0;0;0;0;15
17120;Лубянская площадь, ФСБ;Lubjanskaja ploshhad', FSB;9;both;55.7600306699999;37.6279527;720;25;25;0;0;0;0;0
17130;Мясницкая улица, Лубянский проезд;Mjasnickaja ulica, Lubjanskij proezd;9;both;55.75961894;37.62854544;720;32;32;0;0;0;0;0
17140;Мясницкая улица, ФСБ;Mjasnickaja ulica, FSB;9;both;55.7600093;37.62846718;720;26;26;0;0;0;0;0
17150;Лубянская площадь, Никольская улица;Lubjanskaja ploshhad', Nikol'skaja ulica;9;both;55.7590373774;37.6259738215;720;21;21;0;0;0;0;0
17160;Лубянский проезд, Мясницка улица;Lubjanskij proezd, Mjasnicka ulica;9;both;55.7593624206;37.6283406855;720;30;30;0;0;0;0;0
17170;К области, южный выход, к улицам Судакова, Новороссийской, Совхозной;K oblasti, juzhnyj vyhod, k ulicam Sudakova, Novorossijskoj, Sovhoznoj;157;both;55.6744150842;37.760986755;720;73;29;0;0;490;885;19
17180;К центру, южная часть Краснодарской улицы;K centru, juzhnaja chast' Krasnodarskoj ulicy;157;both;55.6767213935;37.7616733034;720;71;29;0;0;415;860;18
17190;К центру, северная часть Краснодарской улицы на запад;K centru, severnaja chast' Krasnodarskoj ulicy na zapad;157;both;55.6770461679;37.7617760801;720;70;60;0;0;415;860;18
17200;К центру, западная сторона Совхозной улицы;K centru, zapadnaja storona Sovhoznoj ulicy;157;both;55.6771489446;37.7621419652;720;64;29;0;0;415;860;18
17210;К центру, восточная сторона Совхозной улицы;K centru, vostochnaja storona Sovhoznoj ulicy;157;both;55.6770920723;37.7629469636;720;60;29;0;0;420;880;20
17220;К центру, на восток по Краснодарской улице, к ТЦ Москвв;K centru, na vostok po Krasnodarskoj ulice, k TC Moskvv;157;both;55.676867594;37.763221326;720;56;56;0;0;0;0;0
17230;Марксистская улица, южная сторона;Marksistskaja ulica, juzhnaja storona;84;in;55.7406605071;37.6564802891;740;43;39;0;0;0;800;26
17231;Марксистская улица, южная сторона;Marksistskaja ulica, juzhnaja storona;84;out;55.7410618321;37.6568020722;740;43;43;0;0;0;0;0
17240;Марксистская улица, северная сторона;Marksistskaja ulica, severnaja storona;84;in;55.74120492;37.65660879;740;43;39;0;0;0;800;26
17241;Марксистская улица, северная сторона;Marksistskaja ulica, severnaja storona;84;out;55.74120492;37.65660879;740;43;43;0;0;0;0;0
17250;К центру, на северную сторону Сущёвского вала в восточном направлении, на Шереметьевскую улицу на юг;K centru, na severnuju storonu Sushhjovskogo vala v vostochnom napravlenii, na Sheremet'evskuju ulicu na jug;217;both;55.7935400442;37.6169652933;740;39;0;1;26;410;1200;18
17251;К центру, к концентному залу;K centru, k koncentnomu zalu;217;both;55.7938762731;37.6171441385;740;41;1;1;35;0;0;5
17260;К центру, на Сущёвский Вал в западном направлении;K centru, na Sushhjovskij Val v zapadnom napravlenii;217;both;55.7935507749;37.6158779148;740;40;0;0;0;410;680;21
17261;К центру, на западную сторону Шереметьевской улицы;K centru, na zapadnuju storonu Sheremet'evskoj ulicy;217;both;55.7937424;37.6160021;740;42;29;0;0;410;1200;19
17270;К области, выход к театру, на север;K oblasti, vyhod k teatru, na sever;217;both;55.7970336031;37.6169924503;730;46;33;0;0;0;0;5
17271;К области, выход к театру, на север;K oblasti, vyhod k teatru, na sever;217;both;55.7972314083;37.6168114865;740;12;0;0;0;0;0;5
17280;К центру, на правую сторону Люблинской улицы;K centru, na pravuju storonu Ljublinskoj ulicy;159;both;55.6512930682;37.7437329464;590;73;37;0;0;420;800;21
17290;К центрю, на Новомарьинскую улицу;K centrju, na Novomar'inskuju ulicu;159;both;55.6509324617;37.7438882846;590;74;74;0;0;0;0;0
17300;К области, на левую сторону Люблинской улицы;K oblasti, na levuju storonu Ljublinskoj ulicy;159;both;55.6491839827;37.7438586964;725;71;33;0;0;420;800;19
17310;К области, на Новочеркасском бульваре;K oblasti, na Novocherkasskom bul'vare;159;both;55.6488122807;37.7440232809;725;72;72;0;0;0;0;0
17320;К области, к Макдональдсу,;K oblasti, k Makdonal'dsu,;159;both;55.6492671996;37.7445225821;725;64;64;0;0;0;0;0
17330;К области, к Марьинскому бульвару;K oblasti, k Mar'inskomu bul'varu;159;both;55.6489176887;37.7446520306;725;64;33;0;0;420;800;19
17340;К центру, на западную сторону Люблинскй улицы;K centru, na zapadnuju storonu Ljublinskj ulicy;159;both;55.651235741;37.7430764578;590;73;37;0;0;420;800;21
17350;К центру, на запад, к жилым домам;K centru, na zapad, k zhilym domam;159;both;55.6508399985;37.7432280974;590;74;74;0;0;0;0;0
17360;В сторону области;V storonu oblasti;34;both;55.7711394733;37.5945542458;750;37;1;0;0;410;880;20
17370;В сторону центра;V storonu centra;34;both;55.769327318;37.5964727471;780;41;0;0;0;420;900;20
17371;В сторону центра;V storonu centra;34;in;55.7696894134;37.5972629804;790;48;0;0;0;330;760;24
17372;В сторону центра;V storonu centra;34;out;55.7696894134;37.5972629804;850;48;0;0;0;330;760;24
17380;К центру;K centru;86;both;55.8860093033;37.6612996793;800;2;2;0;0;0;0;0
17390;К области, выход;K oblasti, vyhod;86;out;55.8881416559;37.6618624703;800;2;2;0;0;0;0;0
17391;К области, вход;K oblasti, vhod;86;in;55.8879540589;37.6614935295;800;6;0;0;0;0;0;20
17400;На Тестовскую улицу;Na Testovskuju ulicu;189;both;55.7481391838;37.5330238519;780;11;11;0;0;0;0;0
17410;Новослободская улица западная сторона на юг;Novoslobodskaja ulica zapadnaja storona na jug;137;both;55.7813359895;37.5988233766;750;33;3;0;0;390;860;20
17420;Новослободская улица восточная сторона, во дворы к Сущёвской;Novoslobodskaja ulica vostochnaja storona, vo dvory k Sushhjovskoj;137;both;55.7818800208;37.5990735059;750;43;43;0;0;0;0;0
17430;Новослободская улица западная сторона на север;Novoslobodskaja ulica zapadnaja storona na sever;137;both;55.781463057;37.59871399;750;35;3;0;0;390;860;20
17440;Дубравная ул. (запад);Dubravnaja ul. (zapad);213;both;55.8461813568;37.3593954945;800;60;60;1;31;0;0;0
17441;Митинская ул., к-тр Люксор;Mitinskaja ul., k-tr Ljuksor;213;both;55.8464952634;37.3593077853;800;61;31;1;31;400;900;18
17450;Митинская ул. (север);Mitinskaja ul. (sever);213;both;55.8463983217;37.3611081321;800;76;31;2;76;0;0;5
17460;Митинская ул. (юг);Mitinskaja ul. (jug);213;both;55.8448580864;37.363496702;800;59;27;0;0;400;900;18
17461;Митинская ул. (юг);Mitinskaja ul. (jug);213;both;55.8447687771;37.3637163267;800;57;57;0;0;0;0;0
17470;Дубравная ул. (восток);Dubravnaja ul. (vostok);213;both;55.8470122861;37.360568028;800;67;31;1;31;400;900;21
17480;Митинская ул. (юг);Mitinskaja ul. (jug);213;both;55.8455627761;37.363924059;800;65;27;0;0;400;900;20
17490;Дубравная ул. (восток);Dubravnaja ul. (vostok);213;both;55.8467860887;37.3612558528;800;69;31;2;62;400;900;21
17500;Дубравная ул. (запад);Dubravnaja ul. (zapad);213;both;55.8461028802;37.3601202495;800;61;61;2;61;0;0;5
17501;Дубравная ул. (запад);Dubravnaja ul. (zapad);213;both;55.8460521011;37.3605634118;800;65;31;2;65;0;0;5
17510;на Ярцевскую ул.;na Jarcevskuju ul.;65;in;55.7411976639;37.4157678381;730;47;47;0;0;0;0;0
17511;на Ярцевскую ул.;na Jarcevskuju ul.;65;out;55.7412984049;37.415937083;730;0;0;0;0;0;0;0
17520;на Ельнинскую ул.;na El'ninskuju ul.;65;in;55.7402104025;37.4179720504;730;43;43;0;0;0;0;0
17521;на Ельнинскую ул.;na El'ninskuju ul.;65;out;55.7403474102;37.4181654731;730;0;0;0;0;0;0;0
17530;Крокус Экспо, пав. 1,2;Krokus Jekspo, pav. 1,2;215;both;55.8235522598;37.3855503584;800;56;0;0;0;400;950;23
17531;Крокус Экспо, пав. 1,2;Krokus Jekspo, pav. 1,2;215;both;55.8230865775;37.3855859314;800;57;0;0;0;400;950;20
17532;Крокус Экспо, пав. 3;Krokus Jekspo, pav. 3;215;both;55.8264083775;37.385546953;800;31;0;0;0;380;970;22
17540;К области, на 742 автобус;K oblasti, na 742 avtobus;144;both;55.6821833796;37.6216016506;800;30;30;0;0;0;0;0
17550;К области, вход с пригородных поездов;K oblasti, vhod s prigorodnyh poezdov;144;both;55.6821958861;37.6213140018;800;30;0;0;0;310;780;20
17560;К области, к пригородным поездам, северная лестница;K oblasti, k prigorodnym poezdam, severnaja lestnica;144;both;55.6823522169;37.6208950352;800;48;8;0;0;310;780;20
17562;К области, к пригородным поездам, южная лестница;K oblasti, k prigorodnym poezdam, juzhnaja lestnica;144;both;55.6817143871;37.6210075934;800;48;48;0;0;0;0;0
17570;К центру за западную сторону;K centru za zapadnuju storonu;144;both;55.6840906158;37.6227084729;800;58;25;0;0;420;770;20
17572;К центру на восточную сторону, на троллейбус к центру;K centru na vostochnuju storonu, na trollejbus k centru;144;both;55.68404059;37.6236589644;800;58;25;0;0;420;920;20
17574;К центру на восточную сторону, на трамвай и на Нагатинскую ул.;K centru na vostochnuju storonu, na tramvaj i na Nagatinskuju ul.;144;both;55.6838029671;37.6237214967;800;62;25;0;0;420;920;20
17580;На улицу Ремизова;Na ulicu Remizova;145;both;55.6729450412;37.6102594122;800;39;25;0;0;320;790;20
17590;На Криворожскую улицу;Na Krivorozhskuju ulicu;145;both;55.6728137233;37.6109847873;800;65;65;0;0;0;0;0
17592;На Электролитный проезд;Na Jelektrolitnyj proezd;145;both;55.6730575994;37.6114412734;800;64;64;0;0;0;0;0
17600;К центру, налево;K centru, nalevo;146;out;55.6634411197;37.6062048513;790;39;0;0;0;320;800;20
17601;К центру, налево;K centru, nalevo;146;in;55.6634411197;37.6062048513;790;71;32;0;0;320;800;20
17610;К центру, На троллейбусы по Нахимовскому проспекту;K centru, Na trollejbusy po Nahimovskomu prospektu;146;out;55.6635474247;37.6070865572;790;28;0;0;0;320;800;20
17611;К центру, На троллейбусы по Нахимовскому проспекту;K centru, Na trollejbusy po Nahimovskomu prospektu;146;in;55.6635474247;37.6070865572;790;60;32;0;0;320;800;20
17620;К области, на западную сторону;K oblasti, na zapadnuju storonu;146;both;55.6615901626;37.6040850052;790;40;0;0;0;320;800;20
17630;К области, на восточную сторону;K oblasti, na vostochnuju storonu;146;both;55.6617402402;37.6048729126;790;36;0;0;0;320;800;20
17640;К центру, Нахимовский проспект на запад;K centru, Nahimovskij prospekt na zapad;146;out;55.6637787943;37.606142319;790;31;31;0;0;0;0;0
17641;К центру, Нахимовский проспект на запад;K centru, Nahimovskij prospekt na zapad;146;in;55.6637787943;37.606142319;790;63;63;0;0;0;0;0
17650;К центру, Зелёный проспект, северная сторона;K centru, Zeljonyj prospekt, severnaja storona;79;in;55.7522557;37.8144915;720;64;27;0;0;355;780;18
17651;К центру, Зелёный проспект, северная сторона;K centru, Zeljonyj prospekt, severnaja storona;79;out;55.7522557;37.8144915;720;37;0;0;0;355;780;18
17652;К центру, 5-й проспект, северная сторона;K centru, 5-j prospekt, severnaja storona;79;in;55.7521484;37.8152651;720;64;27;0;0;410;920;20
17653;К центру, 5-й проспект, северная сторона;K centru, 5-j prospekt, severnaja storona;79;out;55.7521484;37.8152651;720;37;0;0;0;410;920;20
17660;К центру, 5-й проспект, южная сторона;K centru, 5-j prospekt, juzhnaja storona;79;in;55.7517192;37.8150193;720;64;64;0;0;0;0;0
17661;К центру, 5-й проспект, южная сторона;K centru, 5-j prospekt, juzhnaja storona;79;out;55.7517192;37.8150193;720;37;37;0;0;0;0;0
17662;К центру, Зелёный проспект, южная сторона;K centru, Zeljonyj prospekt, juzhnaja storona;79;in;55.7518222;37.8143058;720;62;27;0;0;355;780;18
17663;К центру, Зелёный проспект, южная сторона;K centru, Zeljonyj prospekt, juzhnaja storona;79;out;55.7518222;37.8143058;720;35;0;0;0;355;780;18
17670;В область, Свободный проспект, на юг;V oblast', Svobodnyj prospekt, na jug;79;both;55.751274;37.818077;720;55;33;0;0;310;760;21
17671;В область, на трамвай;V oblast', na tramvaj;79;both;55.751189;37.818662;720;56;34;0;0;310;760;21
17680;Свободный проспект на север, к троллейбусам в Ивановское;Svobodnyj prospekt na sever, k trollejbusam v Ivanovskoe;79;both;55.751673;37.818253;720;58;36;0;0;310;760;21
17681;В область, на север, к  улице Молостовых;V oblast', na sever, k  ulice Molostovyh;79;both;55.751582;37.818878;720;58;36;0;0;310;760;21
17690;В область, в Реутов;V oblast', v Reutov;186;both;55.7461492292;37.8661727259;800;75;68;2;68;0;0;5
17700;В область, к Городецкой улице;V oblast', k Gorodeckoj ulice;186;both;55.7444651771;37.8659600035;800;68;68;2;68;0;0;5
17710;В центр, к Городецкой улице;V centr, k Gorodeckoj ulice;186;both;55.7439466663;37.8631502954;800;68;68;2;68;0;0;3
17720;В центр, на Суздальскую улицу;V centr, na Suzdal'skuju ulicu;186;both;55.7442657499;37.8629287096;800;68;68;1;29;0;0;0
17730;В центр, в Реутов, к Макдональдсу;V centr, v Reutov, k Makdonal'dsu;186;both;55.7455420841;37.8624146305;800;68;68;2;68;0;0;3
17740;На Пятницкую улицу, Садовнический проезд;Na Pjatnickuju ulicu, Sadovnicheskij proezd;31;both;55.7422799751;37.6290703334;720;1;1;0;0;0;0;0
17750;На Новослободскую улицу, и к трамваям;Na Novoslobodskuju ulicu, i k tramvajam;68;both;55.7795037921;37.60111206;860;0;0;0;0;0;0;0
17760;Западный, к центру. Юг Новоясеневского проспекта.;Zapadnyj, k centru. Jug Novojasenevskogo prospekta.;109;both;55.6014489167;37.5529533379;830;67;25;0;0;0;0;0
17761;Битцевский парк;Bitcevskij park;109;both;55.6003871603;37.5560135212;900;67;0;0;0;400;1000;22
17770;Битцевский парк;Bitcevskij park;232;both;55.6003871603;37.5560135212;900;65;0;0;0;400;1000;20
17780;ТЦ Черемушки;TC Cheremushki;103;in;55.6696081208;37.5536839177;550;50;24;0;0;310;780;17
17781;ТЦ Черемушки;TC Cheremushki;103;out;55.6696081208;37.5536839177;750;50;24;0;0;310;780;17
17782;ТЦ Черемушки;TC Cheremushki;103;in;55.6694384587;37.5534777129;550;67;67;0;0;0;0;0
17783;ТЦ Черемушки;TC Cheremushki;103;out;55.6694384587;37.5534777129;750;67;67;0;0;0;0;0
17790;Росбанк;Rosbank;103;in;55.6694358485;37.554219006;550;52;52;0;0;0;0;0
17791;Росбанк;Rosbank;103;out;55.6694358485;37.554219006;750;52;52;0;0;0;0;0
17792;Росбанк;Rosbank;103;in;55.669247915;37.5540180216;550;50;24;0;0;310;780;22
17793;Росбанк;Rosbank;103;out;55.669247915;37.5540180216;750;50;24;0;0;310;780;22
17800;ТЦ Панорама;TC Panorama;103;both;55.6712420979;37.5554014207;550;51;24;0;0;320;780;22
17801;ТЦ Панорама;TC Panorama;103;both;55.6710385033;37.5551795548;550;50;50;0;0;0;0;0
17810;Магазин Охотник;Magazin Ohotnik;103;both;55.6710541644;37.5559417294;550;51;24;0;0;310;780;20
17811;Магазин Охотник;Magazin Ohotnik;103;both;55.6708610106;37.5557303043;550;51;51;0;0;0;0;0
17820;ул. Крымский Вал;ul. Krymskij Val;75;in;55.7292228966;37.6115408384;720;0;0;0;0;0;0;0
17821;ул. Крымский Вал;ul. Krymskij Val;75;out;55.7293125017;37.6115497989;740;0;0;0;0;0;0;0
17822;МИСиС;MISiS;75;both;55.729419;37.6113577;750;7;0;0;0;0;0;10
17830;ул. Большая Якиманка;ul. Bol'shaja Jakimanka;98;in;55.7312930478;37.6128503697;720;0;0;0;0;0;0;0
17831;ул. Большая Якиманка;ul. Bol'shaja Jakimanka;98;out;55.7311765237;37.6128503697;730;0;0;0;0;0;0;0
17840;К области, к троллейбусам по улице Народного Ополчения на юг;K oblasti, k trollejbusam po ulice Narodnogo Opolchenija na jug;124;both;55.7939584062;37.4923188399;740;60;25;0;0;310;750;17
17850;К области, на южную сторону улицы Маршала Бирюзова;K oblasti, na juzhnuju storonu ulicy Marshala Birjuzova;124;both;55.7941710161;37.4919624055;740;57;57;0;0;0;0;0
17860;К области, на западную сторону улицы Народного Ополчения;K oblasti, na zapadnuju storonu ulicy Narodnogo Opolchenija;124;both;55.7941272435;37.4926565145;740;58;25;0;0;430;850;19
17870;К области, на северную сторону ул. Маршала Бирюзова;K oblasti, na severnuju storonu ul. Marshala Birjuzova;124;both;55.7943398534;37.492268814;740;59;25;0;0;280;710;19
17880;К центру, на улицу Маршала Малиновского;K centru, na ulicu Marshala Malinovskogo;124;both;55.7928765968;37.4943636472;740;58;58;0;0;0;0;0
17890;На улицу Маршала Бирюзова;Na ulicu Marshala Birjuzova;124;both;55.7926639868;37.4947388412;740;56;25;0;0;310;770;18
17900;К троллейбусам по Народного Ополчения к Соколу;K trollejbusam po Narodnogo Opolchenija k Sokolu;124;both;55.7930641938;37.4947388412;740;60;25;0;0;430;900;19
17910;На улицу Маршала Бирюзова;Na ulicu Marshala Birjuzova;124;both;55.7928640903;37.4951327949;740;57;25;0;0;330;870;18
17920;На Шипиловский проспект, в сторону области;Na Shipilovskij prospekt, v storonu oblasti;22;both;55.6121228407;37.6959319427;720;1;0;0;0;0;0;0
17930;К парку Царицыно;K parku Caricyno;22;both;55.6137455425;37.6934730527;720;47;25;0;0;330;730;23
17940;К автостанции;K avtostancii;22;both;55.6141835716;37.6941672923;720;48;0;0;0;430;730;23
17950;К центру, улица Декабристов на восток;K centru, ulica Dekabristov na vostok;131;in;55.8625668017;37.6045379352;740;65;0;0;0;420;760;22
17951;К центру, улица Декабристов на восток;K centru, ulica Dekabristov na vostok;131;out;55.8625668017;37.6045379352;740;65;0;0;0;420;760;22
17952;К центру, улица Хачатуряна восточная сторона;K centru, ulica Hachaturjana vostochnaja storona;131;in;55.8622447602;37.60423778;740;63;39;0;0;300;760;22
17953;К центру, улица Хачатуряна восточная сторона;K centru, ulica Hachaturjana vostochnaja storona;131;out;55.8622447602;37.60423778;740;63;39;0;0;300;760;22
17960;К области, Северный бульвар, западная сторона;K oblasti, Severnyj bul'var, zapadnaja storona;131;in;55.86434272;37.6054634137;740;64;40;0;0;300;770;24
17961;К области, Северный бульвар, западная сторона;K oblasti, Severnyj bul'var, zapadnaja storona;131;out;55.86434272;37.6054634137;740;64;40;0;0;300;770;24
17962;К области, улица Декабристов на запад;K oblasti, ulica Dekabristov na zapad;131;in;55.8643489733;37.6046911394;740;24;0;0;0;300;770;24
17963;К области, улица Декабристов на запад;K oblasti, ulica Dekabristov na zapad;131;out;55.8643489733;37.6046911394;740;24;0;0;0;300;770;24
17970;К области, Северный бульвар, западная сторона;K oblasti, Severnyj bul'var, zapadnaja storona;131;in;55.8641832626;37.6061575226;740;64;40;0;0;300;770;24
17971;К области, Северный бульвар, западная сторона;K oblasti, Severnyj bul'var, zapadnaja storona;131;out;55.8641832626;37.6061575226;740;64;40;0;0;300;770;24
17972;К области, улица Декабристов на восток;K oblasti, ulica Dekabristov na vostok;131;in;55.8639487663;37.6061293831;740;24;0;0;0;300;770;24
17973;К области, улица Декабристов на восток;K oblasti, ulica Dekabristov na vostok;131;out;55.8639487663;37.6061293831;740;24;0;0;0;300;770;24
17980;К центру, к ТЦ;K centru, k TC;131;in;55.8150468159;37.7320865333;750;61;1;0;0;410;760;22
17981;К центру, к ТЦ;K centru, k TC;131;out;55.8628231843;37.6037625342;750;61;1;0;0;410;760;22
17982;К центру, улица Хачатуряна западная сторона;K centru, ulica Hachaturjana zapadnaja storona;131;in;55.8624448637;37.6033529475;750;59;35;0;0;300;760;22
17983;К центру, улица Хачатуряна западная сторона;K centru, ulica Hachaturjana zapadnaja storona;131;out;55.8624448637;37.6033529475;750;59;35;0;0;300;760;22
17990;улица Тверская, улица Моховая;ulica Tverskaja, ulica Mohovaja;10;both;55.7570418859;37.6144082727;730;51;51;0;0;0;0;0
18000;улица Тверская, улица Моховая;ulica Tverskaja, ulica Mohovaja;10;both;55.7568993271;37.6145799251;730;49;49;0;0;0;0;0
18010;улица Тверская, улица Моховая;ulica Tverskaja, ulica Mohovaja;10;both;55.7572862747;37.6147987032;730;51;25;0;0;415;815;23
18020;улица Тверская, улица Моховая;ulica Tverskaja, ulica Mohovaja;10;both;55.7571859498;37.6151472003;730;50;50;0;0;0;0;0
18030;Манежная площадь, гостиница Москва;Manezhnaja ploshhad', gostinica Moskva;10;both;55.7567362494;37.6159508594;730;58;34;0;0;415;815;25
18040;Манежная площадь, Исторический музей, Красная площадь;Manezhnaja ploshhad', Istoricheskij muzej, Krasnaja ploshhad';10;both;55.7561050709;37.6177220376;730;59;59;0;0;0;0;0
18050;Манежная площадь, гостиница Москва;Manezhnaja ploshhad', gostinica Moskva;10;both;55.7569080552;37.61570003;730;57;33;0;0;415;815;25
18052;"ТЦ ""Охотный ряд""";"TC ""Ohotnyj rjad""";10;both;;;740;3;3;0;0;0;0;0
18060;На ул. Новокузнецкая;Na ul. Novokuzneckaja;30;in;55.7314463454;37.6360323383;720;1;1;0;0;0;0;0
18061;На ул. Валовая;Na ul. Valovaja;30;out;55.7313658139;37.6366111589;560;1;1;0;0;0;0;0
18062;На ул. Новокузнецкая;Na ul. Novokuzneckaja;30;out;55.7314983554;37.6359870392;560;1;1;0;0;0;0;0
18063;На ул. Новокузнецкая;Na ul. Novokuzneckaja;73;in;55.7314463454;37.6360323383;720;1;1;0;0;0;0;0
18064;На ул. Валовая;Na ul. Valovaja;73;out;55.7313658139;37.6366111589;560;1;1;0;0;0;0;0
18065;На ул. Новокузнецкая;Na ul. Novokuzneckaja;73;out;55.7314983554;37.6359870392;560;1;1;0;0;0;0;0
18066;На ул. Валовая;Na ul. Valovaja;73;in;55.7312852823;37.6362068233;720;1;1;0;0;0;0;0
18067;На ул. Валовая;Na ul. Valovaja;73;in;55.7312852823;37.6362068233;720;1;1;0;0;0;0;0
18070;В здание Павелецкого вокзала, выход к Аэроэкспрессам;V zdanie Paveleckogo vokzala, vyhod k Ajerojekspressam;30;out;55.7295119461;37.6400971211;590;0;0;0;0;0;0;0
18071;В здание Павелецкого вокзала;V zdanie Paveleckogo vokzala;30;in;55.7295119461;37.6400971211;720;9;0;0;0;310;560;20
18072;В здание Павелецкого вокзала;V zdanie Paveleckogo vokzala;30;out;55.7295119461;37.6400971211;540;9;0;0;0;310;560;20
18080;Крымская площадь, Зубовский бульвар (внешняя сторона Садового кольца);Krymskaja ploshhad', Zubovskij bul'var (vneshnjaja storona Sadovogo kol'ca);13;in;55.7351206599;37.5934010479;740;63;63;0;0;0;0;0
18081;Крымская площадь, Зубовский бульвар (внешняя сторона Садового кольца);Krymskaja ploshhad', Zubovskij bul'var (vneshnjaja storona Sadovogo kol'ca);76;in;55.7351206599;37.5934010479;740;0;0;0;0;0;0;0
18082;Крымская площадь, Зубовский бульвар (внешняя сторона Садового кольца);Krymskaja ploshhad', Zubovskij bul'var (vneshnjaja storona Sadovogo kol'ca);13;out;55.7352608397;37.593454215;740;21;21;0;0;0;0;0
18083;Крымская площадь, Зубовский бульвар (внешняя сторона Садового кольца);Krymskaja ploshhad', Zubovskij bul'var (vneshnjaja storona Sadovogo kol'ca);76;out;55.7352608397;37.593454215;740;0;0;0;0;0;0;0
18090;ул. Остоженка, внутренняя сторона Садового кольца;ul. Ostozhenka, vnutrennjaja storona Sadovogo kol'ca;13;in;55.7361460234;37.5949497441;720;59;59;0;0;0;0;0
18091;ул. Остоженка, внутренняя сторона Садового кольца;ul. Ostozhenka, vnutrennjaja storona Sadovogo kol'ca;13;out;55.7361460234;37.5949497441;550;60;60;0;0;0;0;0
18100;улица Генерала Ермолова;ulica Generala Ermolova;165;out;55.736456544;37.5159071924;740;39;0;0;0;310;670;17
18101;улица Генерала Ермолова;ulica Generala Ermolova;165;in;55.736456544;37.5159071924;740;39;12;0;0;310;670;17
18102;улица Генерала Ермолова;ulica Generala Ermolova;233;out;55.736456544;37.5159071924;740;39;0;0;0;310;670;17
18103;улица Генерала Ермолова;ulica Generala Ermolova;233;in;55.736456544;37.5159071924;740;39;12;0;0;310;670;17
18110;Парк Победы;Park Pobedy;165;out;55.7358180205;37.5171017988;740;51;31;0;0;390;620;19
18111;Парк Победы;Park Pobedy;165;in;55.7358180205;37.5171017988;740;51;43;0;0;390;620;19
18112;Парк Победы;Park Pobedy;233;out;55.7358180205;37.5171017988;740;51;31;0;0;390;620;19
18113;Парк Победы;Park Pobedy;233;in;55.7358180205;37.5171017988;740;51;43;0;0;390;620;19
18120;Триумфальная арка;Triumfal'naja arka;165;out;55.7363269001;37.517630918;740;49;33;0;0;390;620;19
18121;Триумфальная арка;Triumfal'naja arka;165;in;55.7363269001;37.517630918;740;49;45;0;0;390;620;19
18122;Триумфальная арка;Triumfal'naja arka;233;out;55.7363269001;37.517630918;740;49;33;0;0;390;620;19
18123;Триумфальная арка;Triumfal'naja arka;233;in;55.7363269001;37.517630918;740;49;45;0;0;390;620;19
18130;Парк Победы;Park Pobedy;165;out;55.7359365663;37.5178043997;740;48;0;0;0;390;620;24
18131;Парк Победы;Park Pobedy;165;in;55.7359365663;37.5178043997;740;48;12;0;0;390;620;24
18132;Парк Победы;Park Pobedy;233;out;55.7359365663;37.5178043997;740;48;0;0;0;390;620;24
18133;Парк Победы;Park Pobedy;233;in;55.7359365663;37.5178043997;740;48;12;0;0;390;620;24
18140;площадь Победы;ploshhad' Pobedy;165;out;55.736653624;37.5174053918;740;39;0;0;0;310;670;16
18141;площадь Победы;ploshhad' Pobedy;165;in;55.736653624;37.5174053918;740;39;12;0;0;310;670;16
18142;площадь Победы;ploshhad' Pobedy;233;out;55.736653624;37.5174053918;740;39;0;0;0;310;670;16
18143;площадь Победы;ploshhad' Pobedy;233;in;55.736653624;37.5174053918;740;39;12;0;0;310;670;16
18150;г-ца Измайловская;g-ca Izmajlovskaja;50;in;55.7885146638;37.7496783263;950;66;66;0;0;0;0;
18151;г-ца Измайловская;g-ca Izmajlovskaja;50;out;55.7883724466;37.7497036094;950;66;66;0;0;0;0;
18160;К области, на 9-ю Парковую, западную сторону;K oblasti, na 9-ju Parkovuju, zapadnuju storonu;52;both;55.7957195677;37.7990077011;520;52;24;0;0;300;810;25
18170;К центру, на западную сторону;K centru, na zapadnuju storonu;52;both;55.7935985598;37.799110863;550;53;24;0;0;400;805;25
18180;К области, на 9-ю Парковую, восточную сторону;K oblasti, na 9-ju Parkovuju, vostochnuju storonu;52;both;55.7957360736;37.7997009489;520;53;53;0;0;0;0;0
18190;К центру, на Первомайскую улицу в направлении 16-й Парковой;K centru, na Pervomajskuju ulicu v napravlenii 16-j Parkovoj;52;both;55.7935903068;37.799762846;550;53;24;0;0;390;805;25
18200;К центру, Зелёный проспект в центр, северная сторона;K centru, Zeljonyj prospekt v centr, severnaja storona;80;both;55.7509784;37.7841057;720;59;24;0;0;325;790;19
18201;К центру, 2-я Владимирская на север, западная сторона;K centru, 2-ja Vladimirskaja na sever, zapadnaja storona;80;both;55.7512271;37.7843379;720;58;58;0;0;0;0;0
18210;К центру, 2-я Владимирская на юг, западная сторона;K centru, 2-ja Vladimirskaja na jug, zapadnaja storona;80;both;55.7505691;37.7847455;720;58;24;0;0;310;865;17
18211;К центру, 2-я Владимирская на юг, восточная сторона;K centru, 2-ja Vladimirskaja na jug, vostochnaja storona;80;both;55.7507838;37.7850613;720;58;24;0;0;310;865;17
18220;К центру, Зелёный проспект в сторону области на север;K centru, Zeljonyj prospekt v storonu oblasti na sever;80;both;55.7511507;37.7850557;720;58;24;0;0;325;790;19
18221;К центру, 2-я Владимирская на север;K centru, 2-ja Vladimirskaja na sever;80;both;55.7512811190738;37.784681354429;720;57;24;0;0;325;790;19
18230;К области, Зелёный проспект, северная сторона;K oblasti, Zeljonyj prospekt, severnaja storona;80;both;55.7517542;37.7884106;720;62;24;0;0;310;865;17
18240;К области, Зелёный проспект, южная сторона;K oblasti, Zeljonyj prospekt, juzhnaja storona;80;both;55.7512134748;37.7884164394;720;60;24;0;0;310;865;17
18250;К автобусам;K avtobusam;133;out;55.8366285489;37.5752213838;740;2;2;0;0;0;0;0
18251;К автобусам;K avtobusam;133;in;55.8366235413;37.5758323219;740;1;1;0;0;0;0;0
