id_entrance;meetcode;name_ru;name_en;id_station;direction;lat;lon;max_width;min_step;min_step_ramp;lift;lift_minus_step;min_rail_width;max_rail_width;max_angle;escalator;time
14800;1;"шоссе Энтузиастов, кинотеатр ""Факел""";"shosse Entuziastov, cinema ""Fakel""";82;in;55.7516306;37.7162886;740;43;15;0;0;290;690;19;1;203
14801;1;"шоссе Энтузиастов, кинотеатр ""Факел""";"shosse Entuziastov, cinema ""Fakel""";82;out;55.7516306;37.7162886;740;43;10;0;0;350;690;19;1;203
14810;2;шоссе Энтузиастов, трамвайная остановка;shosse Entuziastov, tramway stop;82;in;55.7515293;37.7163578;740;41;41;0;0;0;0;0;1;201
14811;2;"шоссе Энтузиастов, кинотеатр ""Факел""";shosse Entuziastov, tramway stop;82;out;55.7515293;37.7163578;740;41;36;0;0;350;950;19;1;201
14820;4;ул. Авиамоторная, ул. Красноказарменная;ul. Aviamotornaja, ul. Krasnokazarmennaja;82;in;55.7519588;37.71678911;740;44;44;0;0;0;0;0;1;204
14821;4;ул. Авиамоторная, ул. Красноказарменная;ul. Aviamotornaja, ul. Krasnokazarmennaja;82;out;55.7519588;37.71678911;740;44;39;0;0;350;950;19;1;204
14830;3;шоссе Энтузиастов, 2-й Кабельный проезд;shosse Entuziastov, Vtoroj Kabel'nyj proezd;82;in;55.7512042;37.7165431;740;41;15;0;0;280;680;15;1;201
14831;3;шоссе Энтузиастов, 2-й Кабельный проезд;shosse Entuziastov, Vtoroj Kabel'nyj proezd;82;out;55.7512042;37.7165431;740;41;10;0;0;350;680;18;1;201
14840;7;сквер им. Калинина, Лефортовский рынок;skver im. Kalinina, Lefortovskij market;82;in;55.75228308;37.71715318;740;42;42;0;0;0;0;0;1;202
14841;7;сквер им. Калинина, Лефортовский рынок;skver im. Kalinina, Lefortovskij market;82;out;55.75228308;37.71715318;740;42;37;0;0;350;950;19;1;202
14850;8;Дангауэровский путепровод;Dangaujerovskij overpass;82;in;55.75191105;37.71755903;740;41;41;0;0;0;0;0;1;201
14851;8;Дангауэровский путепровод;Dangaujerovskij overpass;82;out;55.75191105;37.71755903;740;41;36;0;0;350;950;19;1;201
14860;6;ул. Авиамоторная, ж/д платформа;ul. Aviamotornaja, railway platform;82;in;55.7509103;37.7178209;740;43;15;0;0;280;680;15;1;203
14861;6;ул. Авиамоторная, ж/д платформа;ul. Aviamotornaja, railway platform;82;out;55.7509103;37.7178209;740;43;10;0;0;350;680;18;1;203
14870;9;"ж/д платформа ""Новая"", ул. 2-я Кабельная";"railway platform ""Novaja"", ul. Vtoraja Kabel'naja";82;in;55.7510902;37.7179455;740;43;16;0;0;280;680;15;1;203
14871;9;"ж/д платформа ""Новая"", ул. 2-я Кабельная";"railway platform ""Novaja"", ul. Vtoraja Kabel'naja";82;out;55.7510902;37.7179455;740;43;11;0;0;350;680;18;1;203
14880;5;"ул. Авиамоторная, НИИ ""Интеграл""";"ul. Aviamotornaja, NII ""Integral""";82;in;55.7508406;37.7175337;740;44;44;0;0;0;0;0;1;204
14881;5;"ул. Авиамоторная, НИИ ""Интеграл""";"ul. Aviamotornaja, NII ""Integral""";82;out;55.7508406;37.7175337;740;44;39;0;0;350;950;19;1;204
14890;3;Автозаводская пл., 1-й, 2-й Автозаводский пр-д;Avtozavodskaja square, Pervyj i Vtoroj Avtozavodskij proezd;29;both;55.7063731;37.65727076;720;1;1;0;0;0;0;0;1;161
14900;1;"ул. Мастеркова, стадион ""Торпедо""";"ul. Masterkova, staduim ""Torpedo""";29;both;55.70864009;37.6573207;720;36;5;0;0;330;820;20;1;196
14910;2;ул. Автозаводская;ul. Avtozavodskaja;29;both;55.70840587;37.65828504;720;35;3;0;0;310;800;20;1;195
14920;5;ул. Дмитрия Ульянова, ул. Ивана Бабушкина;ul. Dmitrija Ul'janova, ul. Ivana Babushkina;101;out;55.68718607;37.57238937;740;31;31;0;0;0;0;0;1;191
14921;6;ул. Профсоюзная, ул. Львова, ул. Кедрова;ul. Profsojuznaja, ul. L'vova, ul. Kedrova;101;out;55.68698826;37.57219156;740;34;34;0;0;0;0;0;1;194
14922;5;ул. Дмитрия Ульянова, ул. Ивана Бабушкина;ul. Dmitrija Ul'janova, ul. Ivana Babushkina;101;in;55.68718607;37.57238937;740;58;58;0;0;0;0;0;0;118
14923;6;ул. Профсоюзная, ул. Львова, ул. Кедрова;ul. Profsojuznaja, ul. L'vova, ul. Kedrova;101;in;55.68698826;37.57219156;740;61;61;0;0;0;0;0;0;121
14930;7;ул. Дмитрия Ульянова, ул. Новочеремушкинская;ul. Dmitrija Ul'janova, ul. Novocheremushkinskaja;101;out;55.6869716;37.57305897;740;32;32;0;0;0;0;0;1;192
14931;8;ул. Профсоюзная, ул. Кедрова;ul. Profsojuznaja, ul. Kedrova;101;out;55.68677536;37.57284763;740;34;34;0;0;0;0;0;1;194
14932;7;ул. Дмитрия Ульянова, ул. Новочеремушкинская;ul. Dmitrija Ul'janova, ul. Novocheremushkinskaja;101;in;55.6869716;37.57305897;740;59;59;0;0;0;0;0;0;119
14933;8;ул. Профсоюзная, ул. Кедрова;ul. Profsojuznaja, ul. Kedrova;101;in;55.68677536;37.57284763;740;61;61;0;0;0;0;0;0;121
14940;1;проспект 60-летия Октября, Черемушкинский пр-д;prospekt Shestidesjatiletija Oktjabrja, Cheremushkinskij proezd;101;both;55.68881224;37.57414197;740;48;23;0;0;290;760;22;0;108
14941;2;ул. Дмитрия Ульянова, Эндокринологический центр;ul. Dmitrija Ul'janova, Endocrinology center;101;both;55.68861454;37.57392692;740;51;51;0;0;0;0;0;0;111
14950;3;проспект 60-летия Октября, ул. Гримау;prospekt Shestidesjatiletija Oktjabrja, ul. Grimau;101;both;55.68861939;37.57484329;740;47;47;0;0;0;0;0;0;107
14951;4;площадь Хо Ши Мина;square Ho Shi Mina;101;both;55.68833914;37.5745457;740;51;23;0;0;290;760;24;0;111
14960;6;ул. Воздвиженка, РГБ;ul. Vozdvizhenka, RGB;54;in;55.75227573;37.61012101;730;77;46;0;0;310;860;20;0;137
14961;6;ул. Воздвиженка, РГБ;ul. Vozdvizhenka, RGB;54;out;55.75227573;37.61012101;550;80;49;0;0;310;860;20;0;140
14962;6;ул. Воздвиженка, РГБ;ul. Vozdvizhenka, RGB;44;in;55.75227573;37.61012101;730;62;31;0;0;310;860;20;1;222
14963;6;ул. Воздвиженка, РГБ;ul. Vozdvizhenka, RGB;44;out;55.75227573;37.61012101;550;65;34;0;0;310;860;20;1;225
14964;6;ул. Воздвиженка, РГБ;ul. Vozdvizhenka, RGB;11;in;55.75227573;37.61012101;730;87;56;0;0;310;860;20;0;147
14965;6;ул. Воздвиженка, РГБ;ul. Vozdvizhenka, RGB;11;out;55.75227573;37.61012101;550;90;59;0;0;310;860;20;0;150
14970;4;ул. Моховая, РГБ;ul. Mohovaja, RGB;54;in;55.75198235;37.61026076;730;71;71;0;0;0;0;0;0;131
14971;4;ул. Моховая, РГБ;ul. Mohovaja, RGB;54;out;55.75198235;37.61026076;550;74;74;0;0;0;0;0;0;134
14972;4;ул. Моховая, РГБ;ul. Mohovaja, RGB;44;in;55.75198235;37.61026076;730;56;56;0;0;0;0;0;1;216
14973;4;ул. Моховая, РГБ;ul. Mohovaja, RGB;44;out;55.75198235;37.61026076;550;59;59;0;0;0;0;0;1;219
14974;4;ул. Моховая, РГБ;ul. Mohovaja, RGB;11;in;55.75198235;37.61026076;730;81;81;0;0;0;0;0;0;141
14975;4;ул. Моховая, РГБ;ul. Mohovaja, RGB;11;out;55.75198235;37.61026076;550;84;84;0;0;0;0;0;0;144
14976;1;ул. Моховая, ул. Знаменка;ul. Mohovaja, ul. Znamenka;11;out;55.75053692;37.60920082;730;29;29;0;0;0;0;0;1;189
14977;1;ул. Моховая, ул. Знаменка;ul. Mohovaja, ul. Znamenka;140;out;55.75053692;37.60920082;730;23;23;0;0;0;0;0;2;283
14978;1;ул. Моховая, ул. Знаменка;ul. Mohovaja, ul. Znamenka;11;in;55.75053692;37.60920082;730;69;69;0;0;0;0;0;0;129
14979;1;ул. Моховая, ул. Знаменка;ul. Mohovaja, ul. Znamenka;140;in;55.75053692;37.60920082;730;63;63;0;0;0;0;0;1;223
14980;9;Александровский сад, кассы Московского Кремля;Aleksandrovskij sad, Moscow Kremlin ticket office;54;in;55.75188995;37.61254218;730;83;52;0;0;350;710;20;0;143
14981;9;Александровский сад, кассы Московского Кремля;Aleksandrovskij sad, Moscow Kremlin ticket office;54;out;55.75188995;37.61254218;550;86;55;0;0;350;710;20;0;146
14982;9;Александровский сад, кассы Московского Кремля;Aleksandrovskij sad, Moscow Kremlin ticket office;44;in;55.75188995;37.61254218;730;68;37;0;0;350;710;20;1;228
14983;9;Александровский сад, кассы Московского Кремля;Aleksandrovskij sad, Moscow Kremlin ticket office;44;out;55.75188995;37.61254218;550;71;40;0;0;350;710;20;1;231
14984;9;Александровский сад, кассы Московского Кремля;Aleksandrovskij sad, Moscow Kremlin ticket office;11;in;55.75188995;37.61254218;730;93;62;0;0;350;710;20;0;153
14985;9;Александровский сад, кассы Московского Кремля;Aleksandrovskij sad, Moscow Kremlin ticket office;11;out;55.75188995;37.61254218;550;96;65;0;0;350;710;20;0;156
14990;1;проспект Мира;prospekt Mira;91;out;55.80768499;37.63865132;740;1;1;0;0;0;0;0;1;161
14991;2;проспект Мира;prospekt Mira;91;in;55.80790697;37.63856947;740;3;3;0;0;0;0;0;1;163
15000;1;ул. Ключевая;ul. Kljuchevaja;225;both;55.63218265;37.76710805;800;71;30;2;71;0;1000;2;0;131
15010;2;ул. Братеевская;ul. Brateevskaja;225;both;55.63370843;37.76521561;800;3;0;0;0;0;1000;6;1;163
15011;3;ул. Братеевская;ul. Brateevskaja;225;both;55.6337779;37.76548359;800;3;0;0;0;0;1000;6;1;163
15020;2;ул. Череповецкая, парк Чермянка;ul. Cherepoveckaja, park Chermjanka;129;both;55.89876237;37.58644996;740;64;34;0;0;300;770;22;0;124
15022;1;Алтуфьевское шоссе, пандус;Altuf'evskoe shosse, ramp;129;both;55.89901875;37.58642494;900;30;0;0;0;300;770;22;0;90
15030;5;ул. Череповецкая;ul. Cherepoveckaja;129;both;55.897074;37.58659065;740;61;36;0;0;300;780;22;0;121
15032;6;Алтуфьевское шоссе, ул. Илимская;Altuf'evskoe shosse, ul. Ilimskaja;129;both;55.8966394;37.58656877;740;56;1;0;0;400;780;22;0;116
15040;7;ул. Лескова, Шенкурский пр-д;ul. Leskova, Shenkurskij proezd;129;both;55.89706149;37.58781629;740;63;0;0;0;420;780;22;0;123
15042;8;ул. Пришвина;ul. Prishvina;129;both;55.89661438;37.58781004;740;62;37;0;0;300;780;22;0;122
15050;4;ул. Лескова;ul. Leskova;129;both;55.89874361;37.5878413;740;67;37;0;0;300;770;22;0;127
15052;3;Алтуфьевский лесопарк;Altuf'evskij lesopark;129;both;55.89923136;37.58785693;740;71;1;0;0;390;770;22;0;131
15060;1;"дублер Варшавского шоссе, ЖК ""Аннинский"", лесопарк";"dubler Varshavskogo shosse, housing estate ""Anninskij"", lesopark";163;both;55.5838751;37.59659198;740;39;0;0;0;420;870;20;1;199
15062;2;Варшавское шоссе (четная сторона);Varshavskoe shosse (even side);163;both;55.58342837;37.59714;740;36;1;0;0;410;870;20;1;196
15070;6;Варшавское шоссе, перехватывающая парковка, ГАИ;Varshavskoe shosse, parking, GAI;163;both;55.58143608;37.59616882;800;66;2;0;0;370;940;23;0;126
15072;4;Варшавское шоссе (нечетная сторона), Макдональдс;Varshavskoe shosse (odd side), McDonalds;163;both;55.58368087;37.59789612;740;31;31;0;0;0;0;0;1;191
15074;3;Варшавское шоссе;Varshavskoe shosse;163;both;55.58362928;37.59731537;740;0;0;0;0;0;1000;5;1;160
15076;5;Варшавское шоссе (нечетная сторона), пандус;Varshavskoe shosse (odd side), ramp;163;both;55.58353797;37.59783369;740;1;1;0;0;0;1000;5;1;161
15080;2;улица Воздвиженка, Генштаб;ulica Vozdvizhenka, Genshtab;44;both;55.75240905;37.60339122;735;0;0;0;0;0;0;0;1;160
15090;1;"кинотеатр ""Художественный""";"cinema ""Hudozhestvennyj""";55;in;55.75214597;37.60167518;750;67;67;0;0;0;0;0;0;127
15091;2;ул. Воздвиженка;ul. Vozdvizhenka;55;in;55.75219096;37.60156045;750;67;67;0;0;0;0;0;0;127
15092;3;Гоголевский бульвар;Gogolevskiy boulevard;55;out;55.75215385;37.60146259;550;68;68;0;0;0;0;0;0;128
15100;2;Финансовая академия, ул. Викторенко;Finansovaja akademija, ul. Viktorenko;37;out;55.80048732;37.53048858;720;49;21;0;0;300;620;20;1;209
15101;2;Финансовая академия, ул. Викторенко;Finansovaja akademija, ul. Viktorenko;37;in;55.80048732;37.53048858;720;70;42;0;0;300;620;20;0;130
15110;1;"галерея ""Аэропорт"", МАДИ";"galereja ""Aeroport"", MADI";37;out;55.8013473;37.53183845;720;52;21;0;0;300;620;20;1;212
15111;1;"галерея ""Аэропорт"", МАДИ";"galereja ""Aeroport"", MADI";37;in;55.8013473;37.53183845;720;73;42;0;0;300;620;20;0;133
15120;4;Ленинградский проспект, ул. 1-я Аэропортовская;Leningradskij prospekt, ul. Pervaja Aeroportovskaja;37;both;55.79999492;37.53439016;720;58;58;0;0;0;0;0;0;118
15130;3;Ленинградский проспект;Leningradskij prospekt;37;both;55.80097876;37.53211329;720;58;58;0;0;0;0;0;0;118
15140;5;ул. Менжинского, ул. Енисейская;ul. Menzhinskogo, ul. Enisejskaja;87;both;55.86880566;37.6634266;750;33;33;0;0;0;0;0;1;193
15142;6;ул. Енисейская, ул. Ленская;ul. Enisejskaja, ul. Lenskaja;87;both;55.86842135;37.66322404;750;34;0;0;0;320;750;18;1;194
15150;1;ул. Енисейская, Староватутинский пр-д, к Яузе;ul. Enisejskaja, Starovatutinskij proezd, Jauza river;87;both;55.87075771;37.66440054;740;61;37;0;0;310;770;22;0;121
15152;2;ул. Менжинского, Олонецкий пр-д;ul. Menzhinskogo, Oloneckij proezd;87;both;55.87038866;37.66421741;740;67;30;0;0;370;770;22;0;127
15160;3;ул. Енисейская, Староватутинский пр-д, ул. Тайнинская;ul. Enisejskaja, Starovatutinskij proezd, ul. Tajninskaja;87;both;55.87062452;37.66528708;740;54;30;0;0;310;770;22;0;114
15162;4;ул. Менжинского, ул. Тайнинская;ul. Menzhinskogo, ul. Tajninskaja;87;both;55.87025131;37.66509979;740;59;35;0;0;350;800;22;0;119
15170;3;ул. Барклая, ул. Сеславинская;ul. Barklaja, ul. Seslavinskaja;61;in;55.74366355;37.49740014;550;28;28;0;0;0;0;0;0;88
15171;1;"ул. Барклая, ТЦ ""Горбушкин двор""";"ul. Barklaja, shopping mall ""Gorbushkin dvor""";61;out;55.74361366;37.49744326;560;28;28;0;0;0;0;0;0;88
15180;2;"ул. Барклая, ТЦ ""Горбушкин двор""";"ul. Barklaja, shopping mall ""Gorbushkin dvor""";61;in;55.74382973;37.49819683;550;28;28;0;0;0;0;0;0;88
15181;4;ул. Барклая, ул. Сеславинская;ul. Barklaja, ul. Seslavinskaja;61;out;55.74387722;37.49815201;560;28;28;0;0;0;0;0;0;88
15190;4;ул. Баррикадная;ul. Barrikadnaja;120;out;55.76075223;37.5815535;730;0;0;0;0;0;0;0;1;160
15191;3;ул. Баррикадная;ul. Barrikadnaja;120;in;55.76064941;37.58123922;730;0;0;0;0;0;0;0;1;160
15200;1;ул. Бауманская;ul. Baumanskaya;47;out;55.77235933;37.67920882;550;0;0;0;0;0;0;0;1;160
15201;1;ул. Бауманская;ul. Baumanskaya;47;in;55.77233436;37.67881619;700;0;0;0;0;0;0;0;1;160
15210;1;Хорошевское шоссе, ул. Розанова;Horoshevskoe shosse, ul. Rozanova;122;out;55.77335546;37.54447085;810;31;1;0;0;300;840;24;1;191
15211;1;Хорошевское шоссе, ул. Розанова;Horoshevskoe shosse, ul. Rozanova;122;in;55.77335546;37.54447085;810;78;48;0;0;300;840;24;0;138
15220;2;"Хорошевское шоссе, ТЦ ""На Беговой""";"Horoshevskoe shosse, shopping mall ""Na Begovoj""";122;out;55.7739818;37.54452534;810;36;1;0;0;310;810;22;1;196
15221;2;"Хорошевское шоссе, ТЦ ""На Беговой""";"Horoshevskoe shosse, shopping mall ""Na Begovoj""";122;in;55.7739818;37.54452534;810;83;48;0;0;310;810;22;0;143
15230;4;Хорошевское шоссе, автобусная остановка, ж/д платформа;Horoshevskoe shosse, bus stop, railway platform;122;out;55.77326352;37.54905697;740;40;40;0;0;0;0;0;1;200
15231;4;Хорошевское шоссе, автобусная остановка, ж/д платформа;Horoshevskoe shosse, bus stop, railway platform;122;in;55.77326352;37.54905697;740;73;73;0;0;0;0;0;0;133
15232;3;ж/д платформа ;railway platform ;122;out;55.77295218;37.54898761;740;55;55;0;0;0;0;0;1;215
15233;3;ж/д платформа ;railway platform ;122;in;55.77295218;37.54898761;740;88;88;0;0;0;0;0;0;148
15234;5;Хорошевское шоссе, автобусная остановка, пандус;Horoshevskoe shosse, bus stop, ramp;122;out;55.7732861;37.54869805;740;2;2;0;0;0;1000;5;1;162
15235;5;Хорошевское шоссе, автобусная остановка, пандус;Horoshevskoe shosse, bus stop, ramp;122;in;55.7732861;37.54869805;740;35;35;0;0;0;1000;5;0;95
15240;6;"ул. Беговая, ОЦ ""На Беговой""";"ul. Begovaja, office center ""Na Begovoj""";122;out;55.77435794;37.54927579;740;48;37;0;0;0;1000;4;1;208
15241;6;"ул. Беговая, ОЦ ""На Беговой""";"ul. Begovaja, office center ""Na Begovoj""";122;in;55.77435794;37.54927579;740;81;70;0;0;0;1000;4;0;141
15250;6;Грузинский вал, Белорусский вокзал;Gruzinskij val, Belorusskij railway station;67;in;55.77541963;37.5827102;720;2;2;0;0;0;0;0;1;162
15251;7;Грузинский вал, Белорусский вокзал;Gruzinskij val, Belorusskij railway station;67;out;55.77530248;37.58280105;800;0;0;0;0;0;0;0;1;160
15260;4;вход в здание Белорусского вокзала;entrance to Belorusskij railway station building;35;in;55.77725873;37.58218169;720;0;0;0;0;0;0;0;1;160
15261;2;Белорусский вокзал, аэроэкспресс;Belorusskij railway station, aeroexpress;35;out;55.77749761;37.58223151;720;0;0;0;0;0;0;0;1;160
15262;1;Ленинградский пр-т, путепровод;Leningradskij prospekt, overpass;35;in;55.77755623;37.58214505;720;40;40;0;0;0;0;0;1;200
15270;3;Бутырский вал;Butyrskij val;67;both;55.77743145;37.58571551;550;68;5;0;0;320;760;22;1;228
15271;5;ул. Лесная;ul. Lesnaja;67;both;55.77765498;37.58624537;550;73;38;0;0;320;760;22;1;233
15281;5;НИИ вычислительных комплексов им.М.А.Карцева;NII vychislitel'nyh kompleksov im.M.A.Karceva;105;both;55.64185264;37.52542177;740;56;24;0;0;320;770;18;0;116
15283;6;НИИ вычислительных комплексов им.М.А.Карцева;NII vychislitel'nyh kompleksov im.M.A.Karceva;105;both;55.64158349;37.5252317;740;50;50;0;0;0;0;0;0;110
15291;7;АШАН Сити;"""AUCHAN City"" shopping mall";105;both;55.64172778;37.52606968;740;59;25;0;0;310;780;20;0;119
15293;8;АШАН Сити;"""AUCHAN City"" shopping mall";105;both;55.64144614;37.52587406;740;53;53;0;0;0;0;0;0;113
15300;1;ул. Профсоюзная (дублер);ul. Profsojuznaja (dubler);105;both;55.64381025;37.52676615;740;38;38;0;0;0;0;0;1;198
15301;2;ул. Профсоюзная (дублер);ul. Profsojuznaja (dubler);105;both;55.64351751;37.52657747;740;32;0;0;0;330;780;17;1;192
15310;3;ул. Генерала Антонова;ul. Generala Antonova;105;both;55.64368538;37.52741684;740;31;31;0;0;0;0;0;1;191
15311;4;ул. Генерала Антонова;ul. Generala Antonova;105;both;55.64342178;37.52722399;740;28;0;0;0;330;780;20;1;188
15320;5;"ТВК ""Миллион мелочей""";"shopping mall ""Million melochej""";130;out;55.88409675;37.60478381;720;39;34;0;0;500;1000;17;1;199
15321;5;"ТВК ""Миллион мелочей""";"shopping mall ""Million melochej""";130;in;55.88409675;37.60478381;720;76;71;0;0;500;1000;17;0;136
15322;5;"БЦ ""Бибиревский""";"business center ""Bibirevskij""";130;out;55.88386922;37.60425105;720;37;1;0;0;500;960;17;1;197
15323;3;"БЦ ""Бибиревский""";"business center ""Bibirevskij""";130;in;55.88386922;37.60425105;720;74;38;0;0;500;960;17;0;134
15330;1;"ул. Костромская, ТЦ ""Александр Лэнд""";"ul. Kostromskaja, shopping mall ""Alexander Land""";130;both;55.88443672;37.60130892;730;49;27;0;0;300;740;24;0;109
15332;2;ул. Костромкая, ул. Бибиревская;ul. Kostromkaja, ul. Bibirevskaja;130;both;55.8841991;37.60167786;730;50;0;0;0;350;740;24;0;110
15340;6;ул. Пришвина, ул. Плещеева;ul. Prishvina, ul. Plescheeva;130;out;55.88360422;37.60542062;720;43;38;0;0;500;1000;17;0;103
15341;6;ул. Пришвина, ул. Плещеева;ul. Prishvina, ul. Plescheeva;130;in;55.88360422;37.60542062;720;80;75;0;0;500;1000;17;0;140
15342;4;"ТК ""Гран плюс""";"shopping mall ""Gran plus""";130;out;55.88337669;37.60489202;720;38;0;0;0;500;870;20;0;98
15343;4;"ТК ""Гран плюс""";"shopping mall ""Gran plus""";130;in;55.88337669;37.60489202;720;75;37;0;0;500;870;20;0;135
15350;3;ул. Воздвиженка, Староваганьковский пер.;ul. Vozdvizhenka, Starovagan'kovskij per.;54;both;55.75229634;37.60889863;800;41;41;0;0;0;0;0;0;101
15351;3;ул. Воздвиженка, Староваганьковский пер.;ul. Vozdvizhenka, Starovagan'kovskij per.;44;both;55.75229634;37.60889863;800;60;60;0;0;0;0;0;1;220
15352;3;ул. Воздвиженка, Староваганьковский пер.;ul. Vozdvizhenka, Starovagan'kovskij per.;11;both;55.75229634;37.60889863;800;85;85;0;0;0;0;0;0;145
15353;5;ул. Манежная;ul. Manezhnaja;54;in;55.75175535;37.61220038;730;100;69;0;0;350;710;20;0;160
15354;5;ул. Манежная;ul. Manezhnaja;54;out;55.75175535;37.61220038;550;103;72;0;0;350;710;20;0;163
15355;5;ул. Манежная;ul. Manezhnaja;44;in;55.75175535;37.61220038;730;85;54;0;0;350;710;20;1;245
15356;5;ул. Манежная;ul. Manezhnaja;44;out;55.75175535;37.61220038;550;88;57;0;0;350;710;20;1;248
15357;5;ул. Манежная;ul. Manezhnaja;11;in;55.75175535;37.61220038;730;110;79;0;0;350;710;20;0;170
15358;5;ул. Манежная;ul. Manezhnaja;11;out;55.75175535;37.61220038;550;113;82;0;0;350;710;20;0;173
15360;7;ул. Воздвиженка, ул. Моховая, факультет журналистики МГУ;ul. Vozdvizhenka, ul. Mohovaja, MSU faculty of journalism;54;in;55.75259653;37.61085057;730;71;46;0;0;430;710;23;0;131
15361;7;ул. Воздвиженка, ул. Моховая, факультет журналистики МГУ;ul. Vozdvizhenka, ul. Mohovaja, MSU faculty of journalism;54;out;55.75259653;37.61085057;550;74;49;0;0;430;710;23;0;134
15362;7;ул. Воздвиженка, ул. Моховая, факультет журналистики МГУ;ul. Vozdvizhenka, ul. Mohovaja, MSU faculty of journalism;44;in;55.75259653;37.61085057;730;56;31;0;0;430;710;23;1;216
15363;7;ул. Воздвиженка, ул. Моховая, факультет журналистики МГУ;ul. Vozdvizhenka, ul. Mohovaja, MSU faculty of journalism;44;out;55.75259653;37.61085057;550;59;34;0;0;430;710;23;1;219
15364;7;ул. Воздвиженка, ул. Моховая, факультет журналистики МГУ;ul. Vozdvizhenka, ul. Mohovaja, MSU faculty of journalism;11;in;55.75259653;37.61085057;730;81;56;0;0;430;710;23;0;141
15365;7;ул. Воздвиженка, ул. Моховая, факультет журналистики МГУ;ul. Vozdvizhenka, ul. Mohovaja, MSU faculty of journalism;11;out;55.75259653;37.61085057;550;84;59;0;0;430;710;23;0;144
15370;2;Братеевский проезд;Brateevskij proezd;220;both;55.63229788;37.74351653;725;39;1;0;0;355;900;21;1;199
15380;1;ул. Борисовские пруды;ul. Borisovskie prudy;220;both;55.63412612;37.7445777;780;39;0;2;39;0;1000;5;0;99
15400;2;пр-д Серебрякова, ул. Вильгельма Пика;proezd Serebrjakova, ul. Wilhelm Pieck;89;both;55.84593596;37.63842726;740;57;25;0;0;370;830;20;0;117
15410;1;пр-д Серебрякова, 1-й Ботанический пр-д;proezd Serebrjakova, Pervyj Botanicheskij proezd;89;both;55.84663659;37.63878382;740;50;50;0;0;0;0;0;0;110
15412;3;пр-д Серебрякова, ул. Снежная;proezd Serebrjakova, ul. Snezhnaja;89;both;55.84665185;37.63932906;740;57;24;0;0;370;830;20;0;117
15420;4;"Ботанический сад, ул. Вильгельма Пика, 1-я ул. Леонова, парк ""Сад будущего""";Botanicheskij sad, ul. Wilhelm Pieck, Pervaya ulitsa Leonova, Sad Buduschego Park;89;out;55.84379698;37.6375905;900;0;0;0;0;0;0;0;1;160
15421;4;"Ботанический сад, ул. Вильгельма Пика, 1-я ул. Леонова, парк ""Сад будущего""";Botanicheskij sad, ul. Wilhelm Pieck, Pervaya ulitsa Leonova, Sad Buduschego Park;89;in;55.84391492;37.6373667;900;0;0;0;0;0;0;0;1;160
15440;6;ул. Перерва, ул. Люблинская, 1-й мкр. Марьинского парка;ul. Pererva, ul. Ljublinskaja, Pervyj mikrorajon Mar'inskogo parka;158;both;55.6586579;37.74892822;740;59;1;0;0;410;720;19;0;119
15450;4;"ул. Перерва, ""Ашан""";"ul. Pererva, ""AUCHAN"" shopping mall";158;both;55.65928933;37.74974671;740;63;0;0;0;410;720;19;0;123
15460;5;ул. Перерва, Мячковский б-р;ul. Pererva, Mjachkovskij boulevard;158;both;55.65902286;37.74995286;740;64;38;0;0;310;720;19;0;124
15470;3;ул. Перерва, 5-й мкр. Марьинского парка;ul. Pererva, Pjatyj mikrorajon Mar'inskogo parka;158;both;55.65988335;37.75208689;740;64;1;0;0;410;720;19;0;124
15480;2;ул. Перерва, ул. Братиславская, парк;ul. Pererva, ul. Bratislavskaja, park;158;both;55.66013989;37.75275649;740;58;32;0;0;310;720;19;0;118
15490;1;"ул. Перерва, ТЦ ""БУМ""";"ul. Pererva, shopping mall ""BUM""";158;both;55.66003071;37.75173643;740;60;0;0;0;410;720;19;0;120
15500;1;ул. Адмирала Лазарева, ул. Южнобутовская;ul. Admirala Lazareva, ul. Juzhnobutovskaja;193;both;55.5450345;37.54156776;800;0;0;1;0;0;0;0;0;60
15510;1;б-р Дмитрия Донского, мкр. 2 и 2А Северного Бутова;boulevard Dmitrija Donskogo, mikrorajon 2 and 2A Severnogo Butova;164;both;55.57026254;37.5764086;740;61;37;0;0;300;770;20;0;121
15511;1;б-р Дмитрия Донского, мкр. 2 и 2А Северного Бутова;boulevard Dmitrija Donskogo, mikrorajon 2 and 2A Severnogo Butova;191;both;55.57026254;37.5764086;740;61;37;0;0;300;770;20;0;121
15512;2;ул. Знаменские Садки;ul. Znamenskie Sadki;164;both;55.57065804;37.57671248;740;58;1;0;0;420;770;20;0;118
15513;2;ул. Знаменские Садки;ul. Znamenskie Sadki;191;both;55.57065804;37.57671248;740;58;1;0;0;420;770;20;0;118
15520;5;"ТРК ""Круг""";"shopping mall ""Krug""";164;both;55.56995561;37.57790815;740;67;43;0;0;300;770;20;0;127
15521;5;"ТРК ""Круг""";"shopping mall ""Krug""";191;both;55.56995561;37.57790815;740;67;43;0;0;300;770;20;0;127
15522;4;ул. Старокачаловская;ul. Starokachalovskaja;164;both;55.57033431;37.57818912;740;64;2;0;0;420;770;21;0;124
15523;4;ул. Старокачаловская;ul. Starokachalovskaja;191;both;55.57033431;37.57818912;740;64;2;0;0;420;770;21;0;124
15524;3;б-р Дмитрия Донского, автобусы на Подольск;boulevard Dmitrija Donskogo, buses to Podolsk;164;both;55.57009304;37.5771202;740;60;1;0;0;410;770;20;0;120
15525;3;б-р Дмитрия Донского, автобусы на Подольск;boulevard Dmitrija Donskogo, buses to Podolsk;191;both;55.57009304;37.5771202;740;60;1;0;0;410;770;20;0;120
15540;1;Чонгарский б-р, ул. Артековская;Chongarskij boulevard, ul. Artekovskaja;27;out;55.65305522;37.61795612;540;30;0;0;0;310;1030;19;1;190
15541;1;Чонгарский б-р, ул. Артековская;Chongarskij boulevard, ul. Artekovskaja;27;in;55.65305522;37.61795612;740;77;47;0;0;310;1030;19;0;137
15550;3;Варшавское шоссе;Varshavskoe shosse;27;out;55.65317891;37.620181;740;28;28;0;0;0;0;0;1;188
15551;3;Варшавское шоссе;Varshavskoe shosse;27;in;55.65317891;37.620181;740;69;69;0;0;0;0;0;0;129
15552;7;вход в подвальный этаж торгового центра;entrance to shopping mall (underground level);27;both;55.65365992;37.6209262;740;37;37;0;0;0;0;0;0;97
15553;8;вход в торговый центр;entrance to shopping mall;27;both;55.6536248;37.62031844;740;24;24;0;0;0;0;0;1;184
15554;6;"ж/д станция ""Коломенское"", платформа №1";"railway station ""Kolomenskoe,"" platform №1";27;both;55.65372721;37.62201971;740;85;85;0;0;0;0;0;0;145
15556;5;"ж/д станция ""Коломенское"", платформа №2";"railway station ""Kolomenskoe"", platform №2";27;both;55.6537294;37.62225319;740;87;47;0;0;300;765;25;0;147
15560;2;ул. Болотниковская, Чонгарский б-р;ul. Bolotnikovskaja, Chongarskij boulevard;27;out;55.65347515;37.61794237;540;29;0;0;0;310;800;22;1;189
15561;2;ул. Болотниковская, Чонгарский б-р;ul. Bolotnikovskaja, Chongarskij boulevard;27;in;55.65347515;37.61794237;740;76;47;0;0;310;800;22;0;136
15570;4;Каширский пр-д, пригородные кассы;Kashirskij proezd, suburban trains ticket office;27;both;55.65363244;37.62314116;740;87;48;0;0;310;750;20;0;147
15580;1;ВДНХ, Аллея Космонавтов;VDNH, Alleja Kosmonavtov;90;both;55.82025958;37.64000333;800;65;26;0;0;410;1000;20;1;225
15590;6;ул. Церковная горка, ул. Кибальчича;ul. Cerkovnaja gorka, ul. Kibalchicha;90;both;55.81957511;37.64074474;800;62;62;0;0;0;0;0;1;222
15600;2;Останкинский пр-д, Звездный б-р;Ostankinskij proezd, Zvezdnyj boulevard;90;both;55.81990579;37.63961764;800;64;64;0;0;0;0;0;1;224
15610;5;ул. Космонавтов;ul. Kosmonavtov;90;both;55.81995713;37.64113405;800;69;26;0;0;410;1000;20;1;229
15620;4;"Главный вход ВДНХ, гостиница ""Космос""";"VDNH main entrance, hotel ""Cosmos""";90;out;55.82227447;37.64170146;800;0;0;0;0;0;0;0;1;160
15621;3;"Главный вход ВДНХ, гостиница ""Космос""";"VDNH main entrance, hotel ""Cosmos""";90;in;55.82243908;37.64149495;800;0;0;0;0;0;0;0;1;160
15630;4;ул. Станционная, Ботанический сад;ul. Stancionnaja, Botanicheskij sad;132;out;55.84603278;37.58964009;750;2;2;0;0;0;0;0;1;162
15631;2;ул. Станционная, Ботанический сад;ul. Stancionnaja, Botanicheskij sad;132;in;55.84609844;37.58917735;750;2;2;0;0;0;0;0;1;162
15640;3;Сигнальный пр-д;Signal'nyj proezd;132;out;55.8482902;37.59072503;740;1;1;0;0;0;0;0;1;161
15641;1;Сигнальный пр-д;Signal'nyj proezd;132;in;55.84833084;37.59037172;740;2;2;0;0;0;0;0;1;162
15650;2;"ТЦ ""Персей""";"shopping mall ""Persej""";40;in;55.84055661;37.48617434;720;43;0;0;0;320;770;23;0;103
15651;1;Кронштадтский б-р;Kronshtadtskij boulevard;40;out;55.84060421;37.48635795;550;0;0;0;0;0;0;0;1;160
15660;4;ул. Адмирала Макарова;ul. Admirala Makarova;40;in;55.83910654;37.48732203;530;44;0;0;0;310;760;24;0;104
15661;3;Головинское шоссе;Golovinskoe shosse;40;out;55.83914955;37.48749407;530;0;0;0;0;0;0;0;1;160
15670;5;2-й Войковский пр-д;Vtoroj Vojkovskij proezd;39;both;55.81812508;37.49800491;720;51;25;0;0;300;740;20;0;111
15680;2;3-й Войковский пр-д;Tretij Vojkovskij proezd;39;both;55.81988654;37.49661781;720;46;24;0;0;360;820;26;0;106
15690;1;"Старопетровский пр-д, ТЦ ""Метрополис""";"Staropetrovskij proezd, shopping mall ""Metropolis""";39;both;55.82006357;37.49790756;720;50;24;0;0;780;330;20;0;110
15700;3;3-й Войковский пр-д;Tretij Vojkovskij proezd;39;both;55.81964843;37.49679095;720;50;50;0;0;0;0;0;0;110
15710;7;2-й Войковский пр-д;Vtoroj Vojkovskij proezd;39;both;55.81787535;37.49821718;720;55;55;0;0;0;0;0;0;115
15720;4;парк им. Воровского;park im. Vorovskogo;39;both;55.81838869;37.49907043;720;49;24;0;0;320;780;20;0;109
15730;6;ул. Космодемьянских;ul. Kosmodem'janskih;39;both;55.81777269;37.49956989;720;46;24;0;0;420;880;25;0;106
15740;1;Волгоградский пр-т, ул. Мельникова;Volgogradskij prospekt, ul. Mel'nikova;114;both;55.72568078;37.68513114;740;53;25;0;0;310;750;25;0;113
15741;3;ул. Новоостаповская;ul. Novoostapovskaja;114;both;55.7245807;37.68776068;740;55;53;0;0;0;1000;10;0;115
15750;2;Волгоградский пр-т, под мост;Volgogradskij prospekt, under the bridge;114;both;55.72551193;37.68562205;740;53;53;0;0;0;0;0;0;113
15751;4;Волгоградский пр-т, МФЮА;Volgogradskij prospekt, Financial Academy;114;both;55.7244662;37.68851206;740;52;52;0;0;0;0;0;0;112
15760;1;Люблинский парк;Ljublinskij park;156;both;55.69116844;37.75094314;720;63;39;0;0;315;750;20;0;123
15770;2;Люблинский парк;Ljublinskij park;156;both;55.69098825;37.75166237;720;64;1;0;0;415;750;20;0;124
15780;4;ул. Краснодонская, Люблинский парк;ul. Krasnodonskaja, Ljublinskij park;156;both;55.69069659;37.75533794;590;70;5;0;0;410;750;20;0;130
15790;3;ул. Краснодонская, Кузьминский лесопарк;ul. Krasnodonskaja, Kuz'minskij  woodland park;156;both;55.69065612;37.75629768;590;59;3;0;0;350;750;20;0;119
15800;2;Новотушинский пр-д, Цариков пер.;Novotushinskij proezd, Carikov per.;214;in;55.83642889;37.38133533;800;0;0;0;0;0;0;0;1;160
15801;1;Новотушинский пр-д, Цариков пер.;Novotushinskij proezd, Carikov per.;214;out;55.83642889;37.38133533;800;0;0;0;0;0;0;0;1;160
15810;3;Новотушинский пр-д;Novotushinskij proezd;214;both;55.8346328;37.3832984;800;0;0;1;0;0;1000;2;0;60
15820;2;Воробьевская набережная;Vorob'evskaja embankment;16;both;55.70952948;37.55790096;720;74;74;0;0;0;0;0;0;134
15830;4;"СК ""Лужники""";"sport center ""Luzhniki""";16;both;55.71175616;37.5609106;720;5;1;0;0;605;890;25;1;165
15840;5;Лужнецкая набережная;Luzhneckaja embankment;16;both;55.71157871;37.56127915;720;5;1;0;0;605;890;25;1;165
15850;3;мост через Москва-реку;Luzhneckij bridge;16;both;55.70937983;37.55776353;720;72;72;0;0;0;0;0;0;132
15851;1;"природный заказник ""Воробьевы горы""";"""Vorob'evy gory"" nature reserve";16;both;55.70920728;37.55780323;720;12;12;0;0;0;0;0;1;172
15860;5;"ТРЦ ""АФИ Молл""";"shopping mall ""AFIMall""";188;out;55.75018288;37.54277344;800;21;17;0;0;0;1000;6;2;281
15861;5;"ТРЦ ""АФИ Молл""";"shopping mall ""AFIMall""";188;in;55.75018288;37.54277344;800;50;46;0;0;0;1000;6;1;210
15862;5;"ТРЦ ""АФИ Молл""";"shopping mall ""AFIMall""";230;both;55.75018288;37.54277344;800;21;17;1;0;0;1000;6;2;281
15863;1;"Башня ""Федерация""";"Tower ""Federacija""";230;both;55.74906198;37.53774357;800;3;0;1;0;0;1000;4;1;163
15870;4;Выставочный переулок;Vystavochnyj pereulok;188;out;55.74856202;37.54418889;860;9;0;0;0;0;1000;6;2;269
15871;4;Выставочный переулок;Vystavochnyj pereulok;188;in;55.74856202;37.54418889;790;39;30;0;0;0;1000;6;1;199
15872;2;Пресненская набережная;Presnenskaja embankment;188;out;55.74804776;37.54376891;860;8;0;0;0;0;1000;10;2;268
15873;2;Пресненская набережная;Presnenskaja embankment;188;in;55.74804776;37.54376891;790;38;30;0;0;0;1000;10;1;198
15874;3;"Мост ""Багратион""";"Bridge ""Bagration""";188;in;55.7482348;37.54407662;790;30;30;0;0;0;0;0;2;290
15875;3;"Мост ""Багратион""";"Bridge ""Bagration""";188;out;55.7482348;37.54407662;860;0;0;0;0;0;0;0;3;360
15890;5;Рязанский пр-т, ул. Ташкентская;Rjazanskij prospekt, ul. Tashkentskaja;110;out;55.71531223;37.81850023;890;26;26;0;0;0;0;0;0;86
15891;5;Рязанский пр-т, ул. Ташкентская;Rjazanskij prospekt, ul. Tashkentskaja;110;in;55.71531223;37.81850023;550;25;25;0;0;0;0;0;0;85
15894;4;ул. Косинская, ул. Вешняковская;ul. Kosinskaja, ul. Veshnjakovskaja;110;out;55.71581303;37.81905663;820;33;33;0;0;0;0;0;0;93
15895;4;ул. Косинская, ул. Вешняковская;ul. Kosinskaja, ul. Veshnjakovskaja;110;in;55.71581303;37.81905663;820;33;33;0;0;0;0;0;0;93
15900;3;ул. Хлобыстова, автостанция, пригородные кассы;ul. Hlobystova, bus station, suburban trains ticket office;110;out;55.71577804;37.81712164;550;25;25;0;0;0;0;0;0;85
15901;3;ул. Хлобыстова, автостанция, пригородные кассы;ul. Hlobystova, bus station, suburban trains ticket office;110;in;55.71577804;37.81712164;580;26;26;0;0;0;0;0;0;86
15904;1;ул. Красный Казанец, кассы дальнего следования;ul. Krasnyj Kazanec, long-distance trains ticket office;110;out;55.71637948;37.81750525;820;63;63;0;0;0;0;0;0;123
15905;1;ул. Красный Казанец, кассы дальнего следования;ul. Krasnyj Kazanec, long-distance trains ticket office;110;in;55.71637948;37.81750525;820;63;63;0;0;0;0;0;0;123
15906;2;ул. Красный Казанец;ul. Krasnyj Kazanec;110;out;55.71626201;37.81786869;820;58;58;0;0;0;0;0;0;118
15907;2;ул. Красный Казанец;ul. Krasnyj Kazanec;110;in;55.71626201;37.81786869;820;58;58;0;0;0;0;0;0;118
15910;1;"стадион ""Динамо"", Петровский парк";"staduim ""Dinamo"", Petrovskij park";36;in;55.79049585;37.55651516;720;3;3;0;0;0;0;0;1;163
15911;2;"стадион ""Динамо"", Петровский парк";"staduim ""Dinamo"", Petrovskij park";36;out;55.79051055;37.55666418;720;0;0;0;0;0;0;0;1;160
15920;4;Ленинградский пр-т, ул. Новая Башиловка;Leningradskij prospekt, ul. Novaja Bashilovka;36;in;55.78892612;37.55993165;720;1;1;0;0;0;0;0;1;161
15921;3;Ленинградский пр-т, ул. Новая Башиловка;Leningradskij prospekt, ul. Novaja Bashilovka;36;out;55.78892612;37.55980124;720;13;13;0;0;0;0;0;1;173
15930;1;пригородные поезда, трамвайное кольцо;suburban trains, tramways;135;out;55.80788637;37.5802296;740;40;40;0;0;0;0;0;1;200
15931;1;пригородные поезда, трамвайное кольцо;suburban trains, tramways;135;in;55.80788637;37.5802296;740;40;37;0;0;420;850;24;1;200
15932;2;ул. Бутырская, ул. Вятская;ul. Butyrskaja, ul. Vjatskaja;135;out;55.80775404;37.58067675;740;39;4;0;0;360;760;22;1;199
15933;2;ул. Бутырская, ул. Вятская;ul. Butyrskaja, ul. Vjatskaja;135;in;55.80775404;37.58067675;740;39;1;0;0;420;760;24;1;199
15940;3;ул. Бутырская, ул. Новодмитровская;ul. Butyrskaja, ul. Novodmitrovskaja;135;out;55.8081377;37.58151644;740;39;33;0;0;430;850;21;1;199
15941;3;ул. Бутырская, ул. Новодмитровская;ul. Butyrskaja, ul. Novodmitrovskaja;135;in;55.8081377;37.58151644;740;39;30;0;0;430;850;24;1;199
15942;4;ул. Бутырская, хлебозавод № 9;ul. Butyrskaja, bakery plant № 9;135;out;55.8081821;37.58178375;740;36;3;0;0;430;830;21;1;196
15943;4;ул. Бутырская, хлебозавод № 9;ul. Butyrskaja, bakery plant № 9;135;in;55.8081821;37.58178375;740;36;0;0;0;430;830;24;1;196
15950;2;Садовое кольцо, Серпуховская площадь;Sadovoe ring, Serpuhovskaja square;74;out;55.72899946;37.62287647;800;0;0;0;0;0;0;0;1;160
15951;1;Садовое кольцо, Серпуховская площадь;Sadovoe ring, Serpuhovskaja square;74;in;55.72899946;37.62287647;780;0;0;0;0;0;0;0;1;160
15960;1;автобусы в аэропорт Домодедово;buses to aeroport Domodedovo;21;in;55.61088407;37.71649348;720;79;40;0;0;410;880;20;0;139
15961;2;дублер Каширского шоссе (четная сторона), Ореховый б-р;dubler Kashirskogo shosse (even side), Orehovyj boulevard;21;in;55.610617;37.71673835;720;77;77;0;0;0;0;0;0;137
15962;3;автобусы в аэропорт Домодедово, пандус;buses to aeroport Domodedovo, ramp;21;in;55.61098699;37.71663679;720;48;39;0;0;420;1000;20;0;108
15963;4;дублер Каширского шоссе (нечетная сторона), Ореховый б-р, пандус;dubler Kashirskogo shosse (odd side), Orehovyj boulevard, ramp;21;in;55.61122329;37.71805498;720;48;39;0;0;420;1000;20;0;108
15964;5;дублер Каширского шоссе (нечетная сторона), Ореховый б-р;dubler Kashirskogo shosse (odd side), Orehovyj boulevard;21;in;55.61116363;37.71805498;720;76;67;0;0;420;1000;20;0;136
15965;1;автобусы в аэропорт Домодедово;avtobusy v aeroport Domodedovo;21;out;55.61088407;37.71649348;720;40;1;0;0;410;880;20;1;200
15966;2;дублер Каширского шоссе (четная сторона), Ореховый б-р;dubler Kashirskogo shosse (even side), Orehovyj boulevard;21;out;55.610617;37.71673835;720;38;38;0;0;0;0;0;1;198
15967;3;автобусы в аэропорт Домодедово, пандус;avtobusy v aeroport Domodedovo, ramp;21;out;55.61098699;37.71663679;720;9;0;0;0;420;1000;20;1;169
15968;4;дублер Каширского шоссе (нечетная сторона), Ореховый б-р, пандус;dubler Kashirskogo shosse (odd side), Orehovyj boulevard, ramp;21;out;55.61122329;37.71805498;720;9;0;0;0;420;1000;20;1;169
15969;5;дублер Каширского шоссе (нечетная сторона), Ореховый б-р;dubler Kashirskogo shosse (odd side), Orehovyj boulevard;21;out;55.61116363;37.71805498;720;37;28;0;0;420;1000;20;1;197
15970;6;"ТЦ ""Снежная королева""";"shopping mall ""Snezhnaja koroleva""";21;in;55.61020841;37.71682298;720;78;40;0;0;410;820;20;0;138
15971;6;"ТЦ ""Снежная королева""";"shopping mall ""Snezhnaja koroleva""";21;out;55.61020841;37.71682298;720;39;1;0;0;410;820;20;1;199
15980;9;Каширское шоссе (нечетная сторона);Kashirskoe shosse (odd side);21;in;55.61003083;37.7182284;720;72;40;0;0;410;680;20;0;132
15981;7;дублер Каширского шоссе (четная сторона), парк;dubler Kashirskogo shosse (even side), park;21;in;55.60987683;37.71733077;720;71;71;0;0;0;0;0;0;131
15982;8;Каширское шоссе (четная сторона);Kashirskoe shosse (even side);21;in;55.6099206;37.71761488;720;70;40;0;0;410;680;20;0;130
15983;11;"ТЦ ""Домодедовский""";"shopping mall ""Domodedovskij""";21;in;55.61005164;37.71832968;720;65;39;0;0;430;1050;20;0;125
15984;10;Каширское шоссе (нечетная сторона), Ореховый б-р;Kashirskoe shosse (odd side), Orehovyj boulevard;21;in;55.61015847;37.71816597;720;71;71;0;0;0;0;0;0;131
15985;9;Каширское шоссе (нечетная сторона);Kashirskoe shosse (odd side);21;out;55.61003083;37.7182284;720;33;1;0;0;410;680;20;1;193
15986;7;дублер Каширского шоссе (четная сторона), парк;dubler Kashirskogo shosse (even side), park;21;out;55.60987683;37.71733077;720;32;32;0;0;0;0;0;1;192
15987;8;Каширское шоссе (четная сторона);Kashirskoe shosse (even side);21;out;55.6099206;37.71761488;720;31;1;0;0;410;680;20;1;191
15988;11;"ТЦ ""Домодедовский""";"shopping mall ""Domodedovskij""";21;out;55.61005164;37.71832968;720;26;0;0;0;430;1050;20;1;186
15989;10;Каширское шоссе (нечетная сторона), Ореховый б-р;Kashirskoe shosse (odd side), Orehovyj boulevard;21;out;55.61015847;37.71816597;720;32;32;0;0;0;0;0;1;192
15990;13;"Ореховый б-р, Галерея ""Водолей""";"Orehovyj boulevard, Galereja ""Vodolej""";21;both;55.61156389;37.72089358;720;57;1;0;0;400;740;22;0;117
16000;14;Домодедовская ярмарка;Domodedovskaja jarmarka;21;both;55.61088823;37.7210448;720;58;1;0;0;420;740;22;0;118
16001;12;Домодедовская ярмарка, автостанция;Domodedovskaja jarmarka, bus station;21;both;55.61079528;37.72048568;720;61;36;0;0;310;740;22;0;121
16010;2;театр Российской Армии;theatre Rossijskoj Armii;218;in;55.78162262;37.6139829;800;66;0;1;34;470;885;20;1;226
16011;2;театр Российской Армии;theatre Rossijskoj Armii;218;out;55.78162262;37.6139829;800;66;7;1;34;470;890;20;1;226
16020;3;Суворовская пл., ул. Самотечная;Suvorovskaja square, ul. Samotechnaja;218;in;55.78132397;37.61431273;800;61;1;0;0;470;885;21;1;221
16021;3;Суворовская пл., ул. Самотечная;Suvorovskaja square, ul. Samotechnaja;218;out;55.78132397;37.61431273;800;61;8;0;0;470;890;21;1;221
16022;1;ул. Селезнёвская;ul. Seleznjovskaja;218;in;55.7812164;37.6133883;800;63;31;0;0;470;890;18;1;223
16023;1;ул. Селезнёвская;ul. Seleznjovskaja;218;out;55.7812164;37.6133883;800;63;38;0;0;470;890;18;1;223
16030;1;ул. Шарикоподшипниковская, 1-я ул. Машиностроения;ul. Sharikopodshipnikovskaja, Pervaja ul. Mashinostroenija;161;both;55.71785837;37.67614323;550;39;1;0;0;410;740;26;1;199
16031;2;"ТЦ ""Дубровка"", ул. Новоостаповская";"shopping mall ""Dubrovka"", ul. Novoostapovskaja";161;both;55.71802689;37.6769253;550;43;40;0;0;410;740;19;1;203
16032;3;"ТЦ ""Дубровка"", 2-я ул. Машиностроения";"shopping mall ""Dubrovka"", Vtoraja ul. Mashinostroenija";161;both;55.71766707;37.67719606;550;41;1;0;0;430;740;18;1;201
16040;10;ул. Ясеневая, Ореховый б-р, автостанция;ul. Jasenevaja, Orehovyj boulevard, bus station;222;both;55.61344093;37.74559318;800;42;1;2;42;0;0;0;0;102
16050;5;ул. Ясеневая, Ореховый б-р, рынок;ul. Jasenevaja, Orehovyj boulevard, market;222;both;55.61337832;37.74426161;800;37;1;2;37;0;0;0;0;97
16051;11;ул. Ясеневая, ул. Воронежская;ul. Jasenevaja, ul. Voronezhskaja;222;both;55.61113816;37.74485562;800;60;1;0;0;410;880;20;0;120
16060;1;ул. 1-я Парковая;ul. 1st Parkovaja;51;both;55.78782046;37.77989593;710;47;47;0;0;0;0;0;0;107
16061;2;ул. 2-я Парковая;ul. 2nd Parkovaja;51;both;55.7878184;37.78012495;710;51;35;0;0;340;840;24;0;111
16062;4;"парк ""Измайлово"", на юго-восток";"park ""Izmajlovo"", to south-east";51;both;55.78764418;37.78011491;710;47;47;0;0;0;0;0;0;107
16063;3;"парк ""Измайлово"", на юго-запад";"park ""Izmajlovo"", to south-west";51;both;55.7876389;37.779898;710;44;33;0;0;300;900;25;0;104
16070;6;ул. 3-я Парковая;ul. 3rd Parkovaja;51;both;55.78793553;37.78334197;600;39;24;0;0;320;810;24;0;99
16071;5;"парк ""Измайлово"", на юг";"park ""Izmajlovo"", to south";51;both;55.78761366;37.78325456;600;49;33;0;0;320;810;25;0;109
16072;7;"парк ""Измайлово"", на восток";"park ""Izmajlovo"", to east";51;both;55.78761782;37.78342383;600;48;24;0;0;320;810;25;0;108
16080;7;Институт космических исследований РАН;Institut kosmicheskih issledovanij RAN;104;in;55.65555171;37.53838552;550;80;46;0;0;320;820;15;0;140
16081;7;Институт космических исследований РАН;Institut kosmicheskih issledovanij RAN;104;out;55.65555171;37.53838552;760;34;0;0;0;350;820;15;1;194
16090;5;Главное архивное управление г.Москвы;Moscow Archive office;104;in;55.65657421;37.53944271;550;80;80;0;0;0;0;0;0;140
16091;5;Главное архивное управление г.Москвы;Moscow Archive office;104;out;55.65657421;37.53944271;760;34;34;0;0;0;0;0;1;194
16092;6;Старокалужское шоссе;Starokaluzhskoe shosse;104;in;55.65631962;37.53919021;550;80;50;0;0;310;780;18;0;140
16093;6;Старокалужское шоссе;Starokaluzhskoe shosse;104;out;55.65631962;37.53919021;760;34;4;0;0;310;780;18;1;194
16100;8;Площадь Академика Келдыша;square Akademika Keldysha;104;in;55.65529774;37.53925338;550;81;46;0;0;320;680;15;0;141
16101;8;Площадь Академика Келдыша;square Akademika Keldysha;104;out;55.65529774;37.53925338;760;35;0;0;0;320;680;15;1;195
16110;9;"ул. Профсоюзная, ТЦ ""Калужский""";"ul. Profsojuznaja, shopping mall ""Kaluzhskij""";104;in;55.65630853;37.54031399;550;84;50;0;0;310;780;15;0;144
16111;9;"ул. Профсоюзная, ТЦ ""Калужский""";"ul. Profsojuznaja, shopping mall ""Kaluzhskij""";104;out;55.65630853;37.54031399;760;38;4;0;0;310;780;15;1;198
16112;10;"ул. Обручева, ТЦ ""Калужский""";"ul. Obrucheva, shopping mall ""Kaluzhskij""";104;in;55.65603349;37.54000969;550;81;81;0;0;0;0;0;0;141
16113;10;"ул. Обручева, ТЦ ""Калужский""";"ul. Obrucheva, shopping mall ""Kaluzhskij""";104;out;55.65603349;37.54000969;760;35;35;0;0;0;0;0;1;195
16120;1;"Транспортный комбинат ""Россия"", ул. Наметкина";"Transportnyj kombinat ""Rossija"", ul. Nametkina";104;in;55.65815098;37.54108607;730;79;76;0;0;0;1000;18;0;139
16121;1;"Транспортный комбинат ""Россия"", ул. Наметкина";"Transportnyj kombinat ""Rossija"", ul. Nametkina";104;out;55.65815098;37.54108607;730;32;29;0;0;0;1000;18;1;192
16122;2;Главное архивное управление г.Москвы;Moscow Archive office;104;in;55.65789431;37.54080651;730;77;47;0;0;310;780;18;0;137
16123;2;Главное архивное управление г.Москвы;Moscow Archive office;104;out;55.65789431;37.54080651;730;30;0;0;0;310;780;18;1;190
16130;3;Хлебобулочный проезд;Hlebobulochnyj proezd;104;in;55.65785824;37.54193931;730;81;81;0;0;0;0;0;0;141
16131;3;Хлебобулочный проезд;Hlebobulochnyj proezd;104;out;55.65785824;37.54193931;730;34;34;0;0;0;0;0;1;194
16132;4;"Центр культуры и искусства ""Меридиан""";"Culture center ""Meridian""";104;in;55.65762169;37.54167987;730;84;51;0;0;300;780;18;0;144
16133;4;"Центр культуры и искусства ""Меридиан""";"Culture center ""Meridian""";104;out;55.65762169;37.54167987;730;37;4;0;0;300;780;18;1;197
16140;1;ул. Кантемировская;ul. Kantemirovskaja;24;both;55.63690522;37.65611645;720;59;0;0;0;410;720;20;0;119
16150;6;Пролетарский пр-т (четная сторона), Кавказский б-р;Proletarskij prospekt (even side), Kavkazskij boulevard;24;both;55.63460493;37.65717087;720;64;0;0;0;420;750;23;0;124
16160;4;Пролетарский пр-т (нечетная сторона), ул. Кантемировская;Proletarskij prospekt (odd side), ul. Kantemirovskaja;24;both;55.63509939;37.65762873;720;51;0;0;0;400;750;23;0;111
16161;5;Пролетарский пр-т (нечетная сторона), Кавказский б-р;Proletarskij prospekt (odd side), Kavkazskij boulevard;24;both;55.6348179;37.65789366;720;54;30;0;0;320;750;23;0;114
16170;2;ул. Кантемировская, ул. Бехтерева;ul. Kantemirovskaja, ul. Behtereva;24;both;55.63669311;37.65533956;720;63;38;0;0;320;720;20;0;123
16171;3;Пролетарский пр-т (четная сторона), автобусная остановка;Proletarskij prospekt (even side), bus stop;24;both;55.63645154;37.65555872;720;58;0;0;0;420;720;20;0;118
16190;3;Севастопольская площадь, ул. Азовская;Sevastopol'skaja square, ul. Azovskaja;26;out;55.65303384;37.59698079;550;56;25;0;0;310;1030;19;0;116
16191;3;Севастопольская площадь, ул. Азовская;Sevastopol'skaja square, ul. Azovskaja;26;in;55.65303384;37.59698079;720;56;25;0;0;310;1030;19;0;116
16200;2;ул. Каховка, ул. Б. Юшуньская;ul. Kahovka, ul. B. Jushun'skaja;26;out;55.6524612;37.59660972;550;57;57;0;0;0;0;0;0;117
16201;2;ул. Каховка, ул. Б. Юшуньская;ul. Kahovka, ul. B. Jushun'skaja;26;in;55.6524612;37.59660972;720;57;57;0;0;0;0;0;0;117
16230;6;Чонгарский б-р (нечетная сторона), ул. Азовская;Chongarskij boulevard (odd side), ul. Azovskaja;26;out;55.65296665;37.599789;550;57;57;0;0;0;0;0;0;117
16231;6;Чонгарский б-р (нечетная сторона), ул. Азовская;Chongarskij boulevard (odd side), ul. Azovskaja;26;in;55.65296665;37.599789;720;57;57;0;0;0;0;0;0;117
16234;4;Каширское шоссе, пр-т Андропова, Онкоцентр;Kashirskoe shosse, prospekt Andropova, Onkocentr;25;in;55.65559842;37.64955248;540;46;0;0;0;320;710;20;0;106
16240;7;Чонгарский б-р, Внутренний пр-д;Chongarskij boulevard, Vnutrennij proezd;26;out;55.65341407;37.60031278;550;56;56;0;0;0;0;0;0;116
16241;7;Чонгарский б-р, Внутренний пр-д;Chongarskij boulevard, Vnutrennij proezd;26;in;55.65341407;37.60031278;720;56;56;0;0;0;0;0;0;116
16260;3;Каширское шоссе, ул. Москворечье;Kashirskoe shosse, ul. Moskvorech'e;226;in;55.65442573;37.64790582;700;51;1;0;0;320;710;20;0;111
16261;2;ул. Маршала Шестопалова, Институт ревматологии РАН;ul. Marshala Shestopalova, Institut revmatologii RAN;226;out;55.65406162;37.6477979;550;1;1;0;0;0;0;0;1;161
16262;3;Каширское шоссе, ул. Москворечье;Kashirskoe shosse, ul. Moskvorech'e;25;in;55.65442573;37.64790582;550;51;1;0;0;320;710;20;0;111
16263;2;ул. Маршала Шестопалова, Институт ревматологии РАН;ul. Marshala Shestopalova, Institut revmatologii RAN;25;out;55.65406162;37.6477979;550;1;1;0;0;0;0;0;1;161
16265;6;парк Коломенское;park Kolomenskoe;25;out;55.65571432;37.65016513;550;3;3;0;0;0;0;0;1;163
16270;4;Каширское шоссе, пр-т Андропова, Онкоцентр;Kashirskoe shosse, prospekt Andropova, Onkocentr;226;in;55.65559842;37.64955248;720;46;0;0;0;320;710;20;0;106
16271;6;парк Коломенское;park Kolomenskoe;226;out;55.65571432;37.65016513;550;3;3;0;0;0;0;0;1;163
16272;1;ул. Маршала Шестопалова, Котляковский пр-д;ul. Marshala Shestopalova, Kotljakovskij proezd;226;out;55.65428524;37.64734998;550;3;3;0;0;0;0;0;1;163
16273;5;Онкоцентр, парк Садовники;Onkology center, park Sadovniki;226;out;55.65593597;37.64968787;550;3;3;0;0;0;0;0;1;163
16274;1;ул. Маршала Шестопалова, Котляковский пр-д;ul. Marshala Shestopalova, Kotljakovskij proezd;25;out;55.65428524;37.64734998;550;53;3;0;0;0;0;0;0;113
16275;5;Онкоцентр, парк Садовники;Onkology center, park Sadovniki;25;out;55.65593597;37.64968787;550;49;3;0;0;0;0;0;0;109
16280;3;площадь Киевского вокзала, ул. Киевская;square Kievskogo vokzala, ul. Kievskaja;42;both;55.74299495;37.56406603;740;70;70;0;0;0;0;0;1;230
16281;3;площадь Киевского вокзала, ул. Киевская;square Kievskogo vokzala, ul. Kievskaja;57;both;55.74299495;37.56406603;740;93;72;0;0;300;760;25;0;153
16282;3;площадь Киевского вокзала, ул. Киевская;square Kievskogo vokzala, ul. Kievskaja;77;both;55.74299495;37.56406603;740;48;48;0;0;0;0;0;2;308
16283;2;пригородные поезда;suburban trains;42;both;55.74249898;37.56359077;740;54;54;0;0;0;0;0;1;214
16284;2;пригородные поезда;suburban trains;57;both;55.74249898;37.56359077;740;77;56;0;0;300;760;25;0;137
16285;2;пригородные поезда;suburban trains;77;both;55.74249898;37.56359077;740;32;32;0;0;0;0;0;2;292
16286;4;площадь Киевского вокзала;square Kievskogo vokzala;42;both;55.74304104;37.56427341;740;38;38;0;0;0;0;0;1;198
16287;4;площадь Киевского вокзала;square Kievskogo vokzala;57;both;55.74304104;37.56427341;740;61;40;0;0;300;760;25;0;121
16288;4;площадь Киевского вокзала;square Kievskogo vokzala;77;both;55.74304104;37.56427341;740;16;16;0;0;0;0;0;2;276
16290;5;"площадь Киевского вокзала, ТРЦ ""Европейский""";"square Kievskogo vokzala, shopping mall ""Evropejskij""";42;out;55.74328711;37.56517155;740;22;22;0;0;0;0;0;1;182
16291;5;"площадь Киевского вокзала, ТРЦ ""Европейский""";"square Kievskogo vokzala, shopping mall ""Evropejskij""";57;out;55.74328711;37.56517155;740;63;42;0;0;300;760;25;0;123
16292;5;"площадь Киевского вокзала, ТРЦ ""Европейский""";"square Kievskogo vokzala, shopping mall ""Evropejskij""";77;out;55.74328711;37.56517155;740;0;0;0;0;0;0;0;2;260
16293;6;"площадь Киевского вокзала, ТРЦ ""Европейский""";"square Kievskogo vokzala, shopping mall ""Evropejskij""";42;in;55.74316236;37.56470914;740;39;39;0;0;0;0;0;1;199
16294;6;"площадь Киевского вокзала, ТРЦ ""Европейский""";"square Kievskogo vokzala, shopping mall ""Evropejskij""";57;in;55.74316236;37.56470914;740;62;41;0;0;300;760;25;0;122
16295;6;"площадь Киевского вокзала, ТРЦ ""Европейский""";"square Kievskogo vokzala, shopping mall ""Evropejskij""";77;in;55.74316236;37.56470914;740;8;8;0;0;0;0;0;2;268
16296;1;поезда дальнего следования;Kievskij railway station, long-distance trains;42;both;55.7427411;37.56453209;740;31;31;0;0;0;0;0;1;191
16297;1;поезда дальнего следования;Kievskij railway station, long-distance trains;57;both;55.7427411;37.56453209;740;54;33;0;0;300;760;25;0;114
16298;1;поезда дальнего следования;Kievskij railway station, long-distance trains;77;both;55.7427411;37.56453209;740;9;9;0;0;0;0;0;2;269
16300;7;"ТРЦ ""Европейский"", выход 4";"shopping mall ""Evropejskij"", exit 4";57;both;55.74410312;37.56694426;740;70;18;0;0;400;760;25;0;130
16301;7;"ТРЦ ""Европейский"", выход 4";"shopping mall ""Evropejskij"", exit 4";77;both;55.74410312;37.56694426;740;54;23;0;0;400;980;25;1;214
16310;8;Киевский вокзал, аэроэкспресс;Kievskij railway station, aeroexpress;57;both;55.74381329;37.56715904;740;64;43;0;0;300;760;25;0;124
16311;8;Киевский вокзал, аэроэкспресс;Kievskij railway station, aeroexpress;77;both;55.74381329;37.56715904;740;48;48;0;0;0;0;0;1;208
16320;9;площадь Европы;square Evropy;57;both;55.74372051;37.56760925;740;68;18;0;0;400;760;25;0;128
16321;9;площадь Европы;square Evropy;77;both;55.74372051;37.56760925;740;52;23;0;0;400;980;25;1;212
16330;10;здание ТРЦ Европейский;"entrance to shopping mall ""Evropejskij"" building";57;both;55.74432729;37.5671506;740;72;51;0;0;300;760;25;0;132
16331;10;здание ТРЦ Европейский;"entrance to shopping mall ""Evropejskij"" building";77;both;55.74432729;37.5671506;740;56;56;0;0;0;0;0;1;216
16340;2;Старая площадь;Staraja square;96;both;55.7562284;37.63006166;740;61;61;0;0;0;0;0;1;221
16341;2;Старая площадь;Staraja square;227;both;55.7562284;37.63006166;740;61;61;0;0;0;0;0;1;221
16350;3;Политехнический музей;Politehnicheskij museum;96;both;55.75695687;37.63054214;740;73;73;0;0;0;0;0;1;233
16351;3;Политехнический музей;Politehnicheskij museum;227;both;55.75695687;37.63054214;740;73;73;0;0;0;0;0;1;233
16360;4;памятник героям Плевны;pamjatnik gerojam Plevny;96;both;55.75674763;37.63094512;740;69;67;0;0;0;1000;4;1;229
16361;4;памятник героям Плевны;pamjatnik gerojam Plevny;227;both;55.75674763;37.63094512;740;69;67;0;0;0;1000;4;1;229
16370;7;ул. Маросейка (нечетная сторона);ul. Marosejka (odd side);96;both;55.75732518;37.63178111;740;71;71;0;0;0;0;0;1;231
16371;7;ул. Маросейка (нечетная сторона);ul. Marosejka (odd side);227;both;55.75732518;37.63178111;740;71;71;0;0;0;0;0;1;231
16380;5;памятник героям Плевны;pamjatnik gerojam Plevny;96;both;55.75685483;37.6312112;740;72;68;0;0;0;1000;4;1;232
16381;5;памятник героям Плевны;pamjatnik gerojam Plevny;227;both;55.75685483;37.6312112;740;72;68;0;0;0;1000;4;1;232
16390;8;ул. Маросейка (четная сторона);ul. Marosejka (even side);96;both;55.75721809;37.63210396;740;72;72;0;0;0;0;0;1;232
16391;8;ул. Маросейка (четная сторона);ul. Marosejka (even side);227;both;55.75721809;37.63210396;740;72;72;0;0;0;0;0;1;232
16392;6;Лубянский проезд, ул. Маросейка;Lubjanskij proezd, ul. Marosejka;96;both;55.75700691;37.63188019;740;54;54;0;0;0;0;0;1;214
16393;6;Лубянский проезд, ул. Маросейка;Lubjanskij proezd, ul. Marosejka;227;both;55.75700691;37.63188019;740;54;54;0;0;0;0;0;1;214
16400;9;ул. Варварка;ul. Varvarka;96;both;55.75311303;37.63307112;740;35;35;0;0;0;0;0;1;195
16401;9;ул. Варварка;ul. Varvarka;227;both;55.75311303;37.63307112;740;35;35;0;0;0;0;0;1;195
16402;10;Китайгородский проезд, ул. Варварка, пандус;Kitajgorodskij proezd, ul. Varvarka, ramp;96;both;55.75294466;37.63320918;740;6;6;0;0;0;1000;5;1;166
16403;10;Китайгородский проезд, ул. Варварка, пандус;Kitajgorodskij proezd, ul. Varvarka, ramp;227;both;55.75294466;37.63320918;740;6;6;0;0;0;1000;5;1;166
16410;12;Китайгородский проезд, Славянская площадь;Kitajgorodskij proezd, Slavjanskaja square;96;both;55.75322669;37.63364976;740;26;26;0;0;0;0;0;1;186
16411;12;Китайгородский проезд, Славянская площадь;Kitajgorodskij proezd, Slavjanskaja square;227;both;55.75322669;37.63364976;740;26;26;0;0;0;0;0;1;186
16412;11;Китайгородский проезд, Москворецкая набережная;Kitajgorodskij proezd, Moskvoreckaja embankment;96;both;55.75297612;37.6335516;740;22;22;0;0;0;0;0;1;182
16413;11;Китайгородский проезд, Москворецкая набережная;Kitajgorodskij proezd, Moskvoreckaja embankment;227;both;55.75297612;37.6335516;740;22;22;0;0;0;0;0;1;182
16420;13;Славянская площадь, памятник Кириллу и Мефодию;Slavjanskaja square, pamjatnik Kirillu i Mefodiju;96;both;55.75415407;37.63425682;740;38;38;0;0;0;0;0;1;198
16421;13;Славянская площадь, памятник Кириллу и Мефодию;Slavjanskaja square, pamjatnik Kirillu i Mefodiju;227;both;55.75415407;37.63425682;740;38;38;0;0;0;0;0;1;198
16430;14;Лубянский пр-д, Солянский пр-д;Lubjanskij proezd, Soljanskij proezd;96;both;55.75411662;37.6349517;740;33;33;0;0;0;0;0;1;193
16431;14;Лубянский пр-д, Солянский пр-д;Lubjanskij proezd, Soljanskij proezd;227;both;55.75411662;37.6349517;740;33;33;0;0;0;0;0;1;193
16440;1;Новая площадь;Novaja square;96;both;55.7566288;37.62951144;740;69;69;0;0;0;0;0;1;229
16441;1;Новая площадь;Novaja square;227;both;55.7566288;37.62951144;740;69;69;0;0;0;0;0;1;229
16450;15;Солянский пр-д;Soljanskij proezd;96;both;55.75374218;37.63545562;740;31;31;0;0;0;0;0;1;191
16451;15;Солянский пр-д;Soljanskij proezd;227;both;55.75374218;37.63545562;740;31;31;0;0;0;0;0;1;191
16460;1;ул. Петра Романова;ul. Petra Romanova;154;both;55.70616264;37.68548315;550;26;1;0;0;315;760;20;1;186
16470;2;ул. Южнопортовая;ul. Juzhnoportovaja;154;both;55.70634151;37.68564469;550;64;2;0;0;315;760;20;0;124
16480;8;ул. Нагатинская, Коломенское шоссе;ul. Nagatinskaja, Kolomenskoe shosse;28;out;55.67673156;37.6628217;720;55;24;0;0;350;790;20;0;115
16481;8;ул. Нагатинская, Коломенское шоссе;ul. Nagatinskaja, Kolomenskoe shosse;28;in;55.67673156;37.6628217;540;55;24;0;0;350;790;20;0;115
16490;6;ул. Нагатинская;ul. Nagatinskaja;28;out;55.67774574;37.66302148;720;53;24;0;0;350;830;20;0;113
16491;6;ул. Нагатинская;ul. Nagatinskaja;28;in;55.67774574;37.66302148;540;53;24;0;0;350;830;20;0;113
16500;4;пр-т Андропова (четная сторона), автобусная остановка;prospekt Andropova (even side), bus stop;28;out;55.67926123;37.66336818;720;56;32;0;0;320;780;20;0;116
16501;4;пр-т Андропова (четная сторона), автобусная остановка;prospekt Andropova (even side), bus stop;28;in;55.67926123;37.66336818;540;56;32;0;0;320;780;20;0;116
16510;7;"кинотеатр ""Орбита"", парк Коломенское";"cinema ""Orbita"", park Kolomenskoe";28;out;55.67675515;37.66435753;720;32;24;0;0;480;680;20;0;92
16511;7;"кинотеатр ""Орбита"", парк Коломенское";"cinema ""Orbita"", park Kolomenskoe";28;in;55.67675515;37.66435753;540;32;24;0;0;480;680;20;0;92
16520;5;"ул. Новинки, ТЦ ""Коломенский""";"ul. Novinki, shopping mall ""Kolomenskij""";28;out;55.6776625;37.66453789;720;51;25;0;0;340;770;20;0;111
16521;5;"ул. Новинки, ТЦ ""Коломенский""";"ul. Novinki, shopping mall ""Kolomenskij""";28;in;55.6776625;37.66453789;540;51;25;0;0;340;770;20;0;111
16530;1;пр-т Андропова (нечетная сторона), автобусная остановка;prospekt Andropova (odd side), bus stop;28;out;55.67953175;37.66501671;720;54;0;0;0;320;680;20;0;114
16531;1;пр-т Андропова (нечетная сторона), автобусная остановка;prospekt Andropova (odd side), bus stop;28;in;55.67953175;37.66501671;540;54;0;0;0;320;680;20;0;114
16540;3;ул. Судостроительная;ul. Sudostroitel'naja;28;out;55.67915025;37.66494966;720;55;31;0;0;320;780;20;0;115
16541;3;ул. Судостроительная;ul. Sudostroitel'naja;28;in;55.67915025;37.66494966;540;55;31;0;0;320;780;20;0;115
16550;2;ул. Высокая;ul. Vysokaja;28;out;55.67962654;37.66343061;720;55;1;0;0;320;720;20;0;115
16551;2;ул. Высокая;ul. Vysokaja;28;in;55.67962654;37.66343061;540;55;1;0;0;320;720;20;0;115
16560;11;Ленинградский и Ярославский вокзалы, Комсомольская площадь;Leningradskij and Jaroslavskij railway stations, Komsomol'skaja square;70;in;55.77584959;37.65594591;700;71;47;0;0;325;775;19;1;231
16561;11;Ленинградский и Ярославский вокзалы, Комсомольская площадь;Leningradskiji and Jaroslavskij railway stations, Komsomol'skaja square;6;in;55.77584959;37.65594591;700;68;47;0;0;320;750;23;1;228
16570;10;Казанский вокзал, Комсомольская площадь;Kazanskij railway station, Komsomol'skaja square;70;in;55.77490415;37.65619821;700;65;24;0;0;325;730;23;1;225
16571;13;Казанский вокзал, Комсомольская площадь;Kazanskij railway station, Komsomol'skaja square;70;in;55.775149;37.65665208;700;76;52;0;0;325;775;19;1;236
16572;10;Казанский вокзал, Комсомольская площадь;Kazanskij railway station, Komsomol'skaja square;6;in;55.77490415;37.65619821;700;62;0;0;0;320;730;23;1;222
16573;13;Казанский вокзал, Комсомольская площадь;Kazanskij railway station, Komsomol'skaja square;6;in;55.775149;37.65665208;700;73;52;0;0;320;750;23;1;233
16580;5;Казанский вокзал, Комсомольская площадь;Kazanskij railway station, Komsomol'skaja square;70;in;55.77445675;37.65565374;725;33;33;0;0;0;0;0;2;293
16581;6;Казанский вокзал, поезда;Kazanskij railway station, long-distance trains;70;in;55.77389279;37.65576845;725;44;23;0;0;360;650;20;2;304
16583;5;Казанский вокзал, Комсомольская площадь;Kazanskij railway station, Komsomol'skaja square;6;in;55.77445675;37.65565374;725;54;54;0;0;0;0;0;0;114
16584;6;Казанский вокзал, поезда;Kazanskij railway station, long-distance trains;6;in;55.77389279;37.65576845;725;65;44;0;0;360;650;20;0;125
16586;7;Казанский вокзал, поезда;Kazanskij railway station, long-distance trains;70;in;55.77356758;37.65583288;725;41;6;0;0;480;600;25;2;301
16587;7;Казанский вокзал, поезда;Kazanskij railway station, long-distance trains;6;in;55.77356758;37.65583288;725;62;27;0;0;480;600;25;0;122
16590;3;Ленинградский и Ярославский вокзалы;Leningradskij and Jaroslavskij railway stations;70;out;55.77674251;37.6559234;540;24;0;0;0;325;775;19;1;184
16591;3;Ленинградский и Ярославский вокзалы;Leningradskij and Jaroslavskij railway stations;6;out;55.77674251;37.6559234;540;21;0;0;0;320;750;23;1;181
16592;4;Ленинградский и Ярославский вокзалы, Комсомольская площадь;Leningradskij and Jaroslavskij railway stations, Komsomol'skaja square;70;out;55.77620226;37.65628919;750;24;0;0;0;325;775;19;1;184
16593;4;Ленинградский и Ярославский вокзалы, Комсомольская площадь;Leningradskij and Jaroslavskij railway stations, Komsomol'skaja square;6;out;55.77620226;37.65628919;750;21;0;0;0;320;750;23;1;181
16594;1;Ленинградский вокзал, электрички;Leningradskij railway station, suburban trains;70;in;55.77812973;37.65473972;740;48;24;0;0;325;775;19;1;208
16595;1;Ленинградский вокзал, электрички;Leningradskij railway station, suburban trains;6;in;55.77812973;37.65473972;740;45;24;0;0;320;750;23;1;205
16596;2;Ярославский вокзал, электрички;Jaroslavskij railway station, suburban trains;70;in;55.7773381;37.65634735;740;48;24;0;0;325;775;19;1;208
16597;2;Ярославский вокзал, электрички;Jaroslavskij railway station, suburban trains;6;in;55.7773381;37.65634735;740;45;24;0;0;320;750;23;1;205
16600;12;Комсомольская площадь, трамвайная остановка;Komsomol'skaja square, tramway stop;6;in;55.77550068;37.65608285;700;67;46;0;0;320;750;23;1;227
16601;12;Комсомольская площадь, трамвайная остановка;Komsomol'skaja square, tramway stop;70;in;55.77550068;37.65608285;700;70;46;0;0;325;775;19;1;230
16602;9;Комсомольская площадь, трамвайная остановка;Komsomol'skaja square, tramway stop;6;in;55.77528026;37.65573675;700;68;47;0;0;320;750;23;1;228
16603;9;Комсомольская площадь, трамвайная остановка;Komsomol'skaja square, tramway stop;70;in;55.77528026;37.65573675;700;71;47;0;0;325;775;19;1;231
16610;8;Ленинградский и Ярославский вокзалы, Комсомольская площадь;Leningradskij i Jaroslavskij railway stations, Komsomol'skaja square;6;in;55.77571547;37.65529404;700;66;24;0;0;320;740;26;1;226
16611;8;Ленинградский и Ярославский вокзалы, Комсомольская площадь;Leningradskij i Jaroslavskij railway stations, Komsomol'skaja square;70;in;55.77571547;37.65529404;700;69;24;0;0;325;740;26;1;229
16612;5;Казанский вокзал, Комсомольская площадь;Kazanskij railway station, Komsomol'skaja square;70;out;55.77445675;37.65565374;540;33;33;0;0;0;0;0;2;293
16613;6;Казанский вокзал, поезда;Kazanskij railway station, long-distance trains;70;out;55.77389279;37.65576845;540;44;17;0;0;360;510;22;2;304
16615;5;Казанский вокзал, Комсомольская площадь;Kazanskij railway station, Komsomol'skaja square;6;out;55.77445675;37.65565374;540;54;54;0;0;0;0;0;0;114
16616;6;Казанский вокзал, поезда;Kazanskij railway station, long-distance trains;6;out;55.77389279;37.65576845;540;65;38;0;0;360;510;22;0;125
16618;7;Казанский вокзал, поезда;Kazanskij railway station, long-distance trains;70;out;55.77356758;37.65583288;540;41;0;0;0;480;510;25;2;301
16619;7;Казанский вокзал, поезда;Kazanskij railway station, long-distance trains;6;out;55.77356758;37.65583288;540;62;21;0;0;480;510;25;0;122
16620;7;"Вещевой рынок ""Коньково-пассаж""";"market ""Konkovo-passazh""";106;both;55.63244477;37.51812273;740;68;43;0;0;320;770;19;0;128
16621;8;"Вещевой рынок ""Коньково-пассаж"", продуктовый рынок";"market ""Konkovo-passazh"", food market";106;both;55.63205214;37.51784941;740;66;0;0;0;410;770;19;0;126
16630;3;ул.Островитянова (четная сторона);ul.Ostrovitjanova (even side);106;both;55.63433287;37.5189325;740;64;26;0;0;400;960;20;0;124
16631;2;"ул.Островитянова (четная сторона), вещевой рынок ""Коньково-пассаж""";"ul.Ostrovitjanova (even side), market ""Konkovo-passazh""";106;both;55.63403968;37.51914486;740;62;62;0;0;0;0;0;0;122
16640;9;"ул. Профсоюзная, ""Продуктовый рай""";"ul. Profsojuznaja, ""Produktovyj raj""";106;both;55.63219226;37.51940051;740;57;32;0;0;320;770;19;0;117
16641;10;"ул. Профсоюзная, ""Продуктовый рай""";"ul. Profsojuznaja, ""Produktovyj raj""";106;both;55.63178021;37.51913275;740;59;0;0;0;410;770;19;0;119
16650;1;ул. Островитянова (нечетная сторона);ul. Ostrovitjanova (odd side);106;both;55.63473566;37.51925447;740;59;59;0;0;0;0;0;0;119
16651;4;ул. Островитянова (нечетная сторона), ул. Профсоюзная;ul. Ostrovitjanova (odd side), ul. Profsojuznaja;106;both;55.6346014;37.51987236;740;56;25;0;0;400;940;19;0;116
16660;5;ул. Профсоюзная (четная сторона), автобусная остановка;ul. Profsojuznaja (even side), bus stop;106;both;55.6339287;37.51992374;740;54;54;0;0;0;0;0;0;114
16670;6;"ул. Профсоюзная, ТЦ Виктория, ТЦ ""Мир кожи и меха""";"ul. Profsojuznaja, shopping mall Viktorija, shopping mall ""Mir kozhi i meha""";106;both;55.63379512;37.52048272;740;54;25;0;0;350;920;18;0;114
16680;6;Ореховый б-р, ул. Мусы Джалиля (нечетная сторона);Orehovyj boulevard, ul. Musy Dzhalilja (odd side);20;in;55.61415711;37.74607572;800;64;64;0;0;0;0;0;0;124
16681;6;Ореховый б-р, ул. Мусы Джалиля (нечетная сторона);Orehovyj boulevard, ul. Musy Dzhalilja (odd side);20;out;55.61415711;37.74607572;800;34;34;0;0;0;0;0;1;194
16690;7;"Ореховый б-р, магазин ""Тук-тук""";"Orehovyj boulevard, shop ""Tuk-tuk""";20;in;55.61358905;37.74614138;800;62;62;0;0;0;0;0;0;122
16691;7;"Ореховый б-р, магазин ""Тук-тук""";"Orehovyj boulevard, shop ""Tuk-tuk""";20;out;55.61358905;37.74614138;800;32;32;0;0;0;0;0;1;192
16700;9;Ореховый б-р, автостанция;Orehovyj boulevard, bus station;20;in;55.61362264;37.7467583;800;66;32;0;0;420;820;20;0;126
16701;9;Ореховый б-р, автостанция;Orehovyj boulevard, bus station;20;out;55.61362264;37.7467583;800;36;2;0;0;420;820;20;1;196
16710;8;Ореховый б-р, ул. Кустанайская;Orehovyj boulevard, ul. Kustanajskaja;20;in;55.61419681;37.74660102;800;66;30;0;0;320;750;20;0;126
16711;8;Ореховый б-р, ул. Кустанайская;Orehovyj boulevard, ul. Kustanajskaja;20;out;55.61419681;37.74660102;800;36;0;0;0;320;750;20;1;196
16720;2;"Ореховый б-р, ТЦ ""Облака""";"Orehovyj boulevard, shopping mall ""Oblaka""";20;both;55.61340122;37.74233449;800;63;38;0;0;320;750;20;0;123
16730;3;Ореховый б-р, ул. Мусы Джалиля (четная сторона);Orehovyj boulevard, ul. Musy Dzhalilja (even side);20;both;55.6139876;37.74288422;800;62;37;0;0;320;740;20;0;122
16740;4;Ореховый б-р, рынок;Orehovyj boulevard, market;20;both;55.6134394;37.74296974;800;61;0;0;0;320;820;20;0;121
16750;1;"Ореховый б-р, магазин ""Пятерочка, Ореховый пр-д";"Orehovyj boulevard, shop ""Pjaterochka, Orehovyj proezd";20;both;55.61395096;37.74227646;800;67;25;0;0;320;750;20;0;127
16760;2;ул. Красная пресня;ul. Krasnaja presnja;78;out;55.76034475;37.57737498;750;2;2;0;0;0;0;0;1;162
16761;1;ул. Красная пресня;ul. Krasnaja presnja;78;in;55.76038754;37.57705179;600;2;2;0;0;0;0;0;1;162
16770;1;ул. Краснопрудная, ул. Верхняя Красносельская;ul. Krasnoprudnaja, ul. Verhnjaja Krasnosel'skaja;5;both;55.7799798;37.66615444;750;61;61;0;0;0;0;0;0;121
16780;1;пл. Красные ворота, Садовое кольцо, ул. Мясницкая;square Krasnye vorota, Sadovoe Ring, ul. Mjasnickaja;7;both;55.76837092;37.64805595;730;41;41;0;0;0;0;0;1;201
16800;10;ул. Воронцовская;ul. Vorontsovskaya;153;both;55.73231327;37.66546157;720;44;1;0;0;310;960;18;1;204
16801;10;ул. Воронцовская;ul. Vorontsovskaya;115;both;55.73231327;37.66546157;720;95;54;0;0;310;960;18;0;155
16810;4;ул. Волхонка, музей им. Пушкина;ul. Volhonka, museum im. Pushkina;12;both;55.74580595;37.60535152;720;49;49;0;0;0;0;0;0;109
16811;3;Храм Христа Спасителя, ул. Волхонка;Hram Hrista Spasitelja, ul. Volhonka;12;both;55.74565775;37.60535152;720;33;33;0;0;0;0;0;0;93
16820;1;Гоголевский бульвар;Gogolevskij boulevard;12;in;55.74495041;37.60157502;700;47;47;0;0;0;0;0;0;107
16821;2;Гоголевский бульвар;Gogolevskij boulevard;12;out;55.74503701;37.60168701;700;48;48;0;0;0;0;0;0;108
16830;1;ул. Крылатские холмы, Осенний бульвар (нечетная сторона);ul. Krylatskie holmy, Osennij boulevard (odd side);66;out;55.75791663;37.40728781;740;28;28;0;0;0;0;0;1;188
16831;1;ул. Крылатские холмы, Осенний бульвар (нечетная сторона);ul. Krylatskie holmy, Osennij boulevard (odd side);66;in;55.75791663;37.40728781;740;64;64;0;0;0;0;0;0;124
16840;5;Осенний бульвар (нечетная сторона);Osennij boulevard (odd side);66;out;55.75561879;37.40766214;740;32;32;0;0;0;0;0;1;192
16841;5;Осенний бульвар (нечетная сторона);Osennij boulevard (odd side);66;in;55.75561879;37.40766214;740;76;76;0;0;0;0;0;0;136
16850;8;Рублевское шоссе, ул. Рублевская, Осенний бульвар;Rublevskoe shosse, ul. Rublevskaja, Osennij boulevard;66;out;55.75530907;37.4086132;740;35;1;0;0;400;780;20;1;195
16851;8;Рублевское шоссе, ул. Рублевская, Осенний бульвар;Rublevskoe shosse, ul. Rublevskaja, Osennij boulevard;66;in;55.75530907;37.4086132;740;79;45;0;0;400;780;20;0;139
16860;4;"Осенний бульвар (четная сторона), ТЦ ""Бульвар""";"Osennij boulevard (even side), shopping mall ""boulevard""";66;out;55.75764054;37.40861554;740;35;0;0;0;360;630;15;1;195
16861;4;"Осенний бульвар (четная сторона), ТЦ ""Бульвар""";"Osennij boulevard (even side), shopping mall ""boulevard""";66;in;55.75764054;37.40861554;740;71;36;0;0;360;630;15;0;131
16870;2;"Осенний бульвар (нечетная сторона), кафе ""Му-му""";"Osennij boulevard (odd side), cafe ""Mu-mu""";66;out;55.75737;37.40736272;740;39;0;0;0;350;820;18;1;199
16871;2;"Осенний бульвар (нечетная сторона), кафе ""Му-му""";"Osennij boulevard (odd side), cafe ""Mu-mu""";66;in;55.75737;37.40736272;740;75;36;0;0;350;820;18;0;135
16880;3;ул. Крылатские холмы, Перекресток, Осенний бульвар (нечетная сторона);ul. Krylatskie holmy, Perekrestok, Osennij boulevard (odd side);66;out;55.75814;37.40855449;740;26;0;0;0;370;860;18;1;186
16881;3;ул. Крылатские холмы, Перекресток, Осенний бульвар (нечетная сторона);ul. Krylatskie holmy, Perekrestok, Osennij boulevard (odd side);66;in;55.75814;37.40855449;740;62;36;0;0;370;860;18;0;122
16890;7;Осенний бульвар (четная сторона);Osennij boulevard (even side);66;out;55.7556754;37.40888234;740;32;0;0;0;420;780;19;1;192
16891;7;Осенний бульвар (четная сторона);Osennij boulevard (even side);66;in;55.7556754;37.40888234;740;76;44;0;0;420;780;19;0;136
16910;1;улица  Рождественка;ulica  Rozhdestvenka;118;both;55.76157324;37.62424732;710;1;1;0;0;0;0;0;1;161
16920;3;Волгоградский пр-т, Волжский б-р;Volgogradskij prospekt, Volzhskij boulevard;112;both;55.70528687;37.76375164;740;49;1;0;0;410;730;26;0;109
16922;4;ул. Маршала Чуйкова;ul. Marshala Chujkova;112;both;55.70523735;37.76414159;740;48;24;0;0;330;770;21;0;108
16930;1;Волгоградский пр-т, ул. Окская;Volgogradskij prospekt, ul. Okskaja;112;both;55.70600075;37.76398272;740;52;1;0;0;330;770;21;0;112
16932;2;ул. Жигулевская, пл. Славы;ul. Zhigulevskaja, square Slavy;112;both;55.70595948;37.76435823;740;52;1;0;0;430;770;24;0;112
16940;7;ул. Зеленодольская;ul. Zelenodol'skaja;112;out;55.70484534;37.76704251;550;22;22;0;0;0;0;0;1;182
16941;7;ул. Зеленодольская;ul. Zelenodol'skaja;112;in;55.70484534;37.76704251;740;56;56;0;0;0;0;0;0;116
16942;8;Волгоградский пр-т, Есенинский б-р;Volgogradskij prospekt, Eseninskij boulevard;112;out;55.70479376;37.76746547;550;25;1;0;0;290;800;26;1;185
16943;8;Волгоградский пр-т, Есенинский б-р;Volgogradskij prospekt, Eseninskij boulevard;112;in;55.70479376;37.76746547;740;59;35;0;0;290;800;26;0;119
16950;5;ул. Зеленодольская, пл. Славы, Макдональдс;ul. Zelenodol'skaja, square Slavy, McDonalds;112;out;55.70559072;37.76727843;550;27;3;0;0;310;840;25;1;187
16951;5;ул. Зеленодольская, пл. Славы, Макдональдс;ul. Zelenodol'skaja, square Slavy, McDonalds;112;in;55.70559072;37.76727843;740;61;37;0;0;310;840;25;0;121
16952;6;Волгоградский пр-т, ул. Шумилова;Volgogradskij prospekt, ul. Shumilova;112;out;55.705525;37.76774766;550;28;28;0;0;0;0;0;1;188
16953;6;Волгоградский пр-т, ул. Шумилова;Volgogradskij prospekt, ul. Shumilova;112;in;55.705525;37.76774766;740;62;62;0;0;0;0;0;0;122
16960;5;ул. Кастанаевская;ul. Kastanaevskaja;210;in;55.73069837;37.44651994;850;42;40;1;40;0;1000;5;0;102
16961;7;ул. Кастанаевская;ul. Kastanaevskaja;210;out;55.73065717;37.44653312;850;42;40;1;40;0;1000;5;0;102
16970;8;Рублевское шоссе, ул. Ивана Франко;Rublevskoe shosse, ul. Ivana Franko;210;in;55.73053851;37.4456745;800;40;40;1;38;0;0;0;0;100
16971;6;Рублевское шоссе, ул. Ивана Франко;Rublevskoe shosse, ul. Ivana Franko;210;out;55.73057641;37.44565472;800;40;40;1;38;0;0;0;0;100
16980;3;ул. Малая Филевская ;ul. Malaja Filevskaja ;64;in;55.73079395;37.44648039;550;32;32;0;0;0;0;0;0;92
16981;1;ул. Малая Филевская ;ul. Malaja Filevskaja ;64;out;55.73084669;37.44645731;550;32;32;0;0;0;0;0;0;92
16990;2;ул. Молдавская;ul. Moldavskaja;64;in;55.73071155;37.44549486;550;29;29;0;0;0;0;0;0;89
16991;4;ул. Молдавская;ul. Moldavskaja;64;out;55.7306687;37.44551299;550;29;29;0;0;0;0;0;0;89
17000;2;площадь Курского вокзала, ул. Земляной вал;square Kurskogo vokzala, ul. Zemljanoj val;46;both;55.75860087;37.65884743;800;0;0;0;0;0;0;0;1;160
17001;2;площадь Курского вокзала, ул. Земляной вал;square Kurskogo vokzala, ul. Zemljanoj val;71;both;55.75860087;37.65884743;800;0;0;0;0;0;0;0;1;160
17010;3;площадь Курского вокзала, Курский вокзал;square Kurskogo vokzala, Kurskij railway station;46;both;55.75844798;37.6602065;750;47;47;0;0;0;0;0;1;207
17011;3;площадь Курского вокзала, Курский вокзал;square Kurskogo vokzala, Kurskij railway station;71;both;55.75844798;37.6602065;750;47;47;0;0;0;0;0;1;207
17012;6;нижний уровень Курского вокзала;Kurskij railway station, underground level;46;both;55.7579523;37.6600452;740;15;0;0;0;310;720;23;1;175
17013;6;нижний уровень Курского вокзала;Kurskij railway station, underground level;71;both;55.7579523;37.6600452;740;15;0;0;0;310;720;23;1;175
17014;5;платформа №1, поезда дальнего следования;platform №1, long-distance trains;46;both;55.75850238;37.66102157;730;45;15;0;0;430;760;21;1;205
17015;5;платформа №1, поезда дальнего следования;platform №1, long-distance trains;71;both;55.75850238;37.66102157;730;45;15;0;0;430;760;21;1;205
17020;4;ул. Казакова, Нижний Сусальный пер.;ul. Kazakova, Nizhnij Susal'nyj per.;46;both;55.76007249;37.66186572;730;15;15;0;0;0;0;0;1;175
17021;4;ул. Казакова, Нижний Сусальный пер.;ul. Kazakova, Nizhnij Susal'nyj per.;71;both;55.76007249;37.66186572;730;15;15;0;0;0;0;0;1;175
17030;7;пригородные поезда Горьковского направления;suburban trains (Gor'kovskoe direction);71;in;55.75607268;37.65955452;720;32;0;0;0;0;1000;7;1;192
17031;7;пригородные поезда Горьковского направления;suburban trains (Gor'kovskoe direction);71;out;55.75607268;37.65955452;600;32;0;0;0;0;1000;7;1;192
17032;1;ул. Земляной вал, ул. Верхняя Сыромятническая;ul. Zemljanoj val, ul. Verhnjaja Syromjatnicheskaja;71;in;55.7559083;37.65820897;720;66;66;0;0;0;0;0;1;226
17033;1;ул. Земляной вал, ул. Верхняя Сыромятническая;ul. Zemljanoj val, ul. Verhnjaja Syromjatnicheskaja;71;out;55.7559083;37.65820897;600;58;58;0;0;0;0;0;1;218
17034;7;пригородные поезда Горьковского направления;suburban trains (Gor'kovskoe direction);151;in;55.75607268;37.65955452;720;32;0;0;0;0;1000;7;1;192
17035;7;пригородные поезда Горьковского направления;suburban trains (Gor'kovskoe direction);151;out;55.75607268;37.65955452;600;32;0;0;0;0;1000;7;1;192
17036;1;ул. Земляной вал, ул. Верхняя Сыромятническая;ul. Zemljanoj val, ul. Verhnjaja Syromjatnicheskaja;151;in;55.7559083;37.65820897;720;66;66;0;0;0;0;0;1;226
17037;1;ул. Земляной вал, ул. Верхняя Сыромятническая;ul. Zemljanoj val, ul. Verhnjaja Syromjatnicheskaja;151;out;55.7559083;37.65820897;600;58;58;0;0;0;0;0;1;218
17040;4;Кутузовский проспект, ТТК, ул. Поклонная;Kutuzovskij prospekt, Tretje Transport Ring, ul. Poklonnaja;59;in;55.73946288;37.53493652;660;33;33;0;0;0;0;0;0;93
17041;3;Кутузовский проспект, ТТК, ул. Поклонная;Kutuzovskij prospekt, Tretje Transport Ring, ul. Poklonnaja;59;out;55.73953249;37.53488589;540;33;33;0;0;0;0;0;0;93
17050;1;Кутузовский проспект, ТТК, ул. Кульнева, набережная;Kutuzovskij prospekt, Tretje Transport Ring, ul. Kul'neva, embankment;59;in;55.7405734;37.53425945;800;37;37;0;0;0;0;0;0;97
17051;2;Кутузовский проспект, ТТК, ул. Кульнева, набережная;Kutuzovskij prospekt, Tretje Transport Ring, ul. Kul'neva, embankment;59;out;55.74054184;37.53427193;560;37;37;0;0;0;0;0;0;97
17060;3;Площадь Гагарина;square Gagarina;100;out;55.70693707;37.58497469;740;0;0;0;0;0;0;0;1;160
17061;4;Площадь Гагарина;square Gagarina;100;in;55.70685452;37.58514187;740;0;0;0;0;0;0;0;1;160
17070;1;ул. Орджоникидзе;ul. Ordzhonikidze;100;out;55.70848678;37.58745881;740;0;0;0;0;0;0;0;1;160
17071;2;ул. Орджоникидзе;ul. Ordzhonikidze;100;in;55.70845626;37.5875254;740;0;0;0;0;0;0;0;1;160
17080;10;Лубянская площадь, ул. Никольская, Театральный пр-д;Lubjanskaja square, ul. Nikol'skaja, Teatral'nyj proezd;9;out;55.75910791;37.62568587;700;33;33;0;0;0;0;0;1;193
17081;10;Лубянская площадь, ул. Никольская, Театральный пр-д;Lubjanskaja square, ul. Nikol'skaja, Teatral'nyj proezd;9;in;55.75903269;37.62581257;700;33;33;0;0;0;0;0;1;193
17082;11;Театральный проезд;Teatral'nyj proezd;9;out;55.75990829;37.62547284;550;34;27;0;0;0;1000;10;1;194
17083;11;Театральный проезд;Teatral'nyj proezd;9;in;55.75990829;37.62547284;900;34;27;0;0;0;1000;10;1;194
17090;8;Лубянская площадь, пер. Малый Черкасский;Lubjanskaja square, per. Malyj Cherkasskij;9;both;55.75884132;37.62626525;720;22;22;0;0;0;0;0;2;282
17100;7;Политехнический музей, Новая площадь;Politehnicheskij museum, Novaja square;9;both;55.75895039;37.62713207;720;20;20;0;0;0;0;0;2;280
17110;6;Политехнический музей, Лубянский пр-д;Politehnicheskij museum, Lubjanskij proezd;9;both;55.75923593;37.6280443;720;34;34;0;0;0;1000;15;2;294
17120;2;Лубянская площадь, ФСБ;Lubjanskaja square, FSB;9;both;55.76002251;37.627911;720;25;25;0;0;0;0;0;2;285
17130;4;"ул. Мясницкая, Лубянский пр-д, ""Библио-глобус""";"ul. Mjasnickaja, Lubjanskij proezd, ""Biblio-globus""";9;both;55.75960547;37.62850753;720;32;32;0;0;0;0;0;2;292
17150;9;Лубянская площадь, ул. Никольская;Lubjanskaja square, ul. Nikol'skaja;9;both;55.75902741;37.6259815;720;21;21;0;0;0;0;0;2;281
17160;5;Лубянский пр-д, ул. Мясницкая;Lubjanskij proezd, ul. Mjasnickaja;9;both;55.75937187;37.62834652;720;30;30;0;0;0;0;0;2;290
17170;6;ул. Судакова, ул. Новороссийская, ул. Совхозная;ul. Sudakova, ul. Novorossijskaja, ul. Sovhoznaja;157;both;55.67440543;37.76098185;570;75;22;0;0;490;885;19;0;135
17180;2;ул. Краснодарская (четная сторона);ul. Krasnodarskaja (even side);157;both;55.6767082;37.76168811;720;71;29;0;0;415;860;18;0;131
17190;1;ул. Краснодарская (нечетная сторона), школа;ul. Krasnodarskaja (odd side), school;157;both;55.67703346;37.76178813;720;70;60;0;0;415;860;18;0;130
17200;3;ул. Совхозная (нечетная сторона), школа;ul. Sovhoznaja (odd side), school;157;both;55.6771434;37.76215156;720;62;28;0;0;415;860;18;0;122
17210;4;ул. Совхозная (четная сторона);ul. Sovhoznaja (even side);157;both;55.67709148;37.76295325;720;61;30;0;0;420;880;20;0;121
17220;5;"ул. Краснодарская, ТЦ ""Москва""";"ul. Krasnodarskaja, shopping mall ""Moskva""";157;both;55.67686701;37.76320445;720;57;57;0;0;0;0;0;0;117
17230;4;ул. Марксистская, ул. Воронцовская;ul. Marksistskaja, ul. Voroncovskaja;84;in;55.74066051;37.65648029;700;42;38;0;0;0;0;22;1;202
17231;4;ул. Марксистская, ул. Воронцовская;ul. Marksistskaja, ul. Voroncovskaja;84;out;55.74066051;37.65648029;550;42;42;0;0;0;0;0;1;202
17240;3;ул. Марксистская, ул. Таганская;ul. Marksistskaja, ul. Taganskaja;84;in;55.7410683;37.65679514;700;46;6;0;0;410;890;22;1;206
17241;3;ул. Марксистская, ул. Таганская;ul. Marksistskaja, ul. Taganskaja;84;out;55.7410683;37.65679514;550;46;10;0;0;410;890;18;1;206
17250;3;"ул. Сущёвский вал, концертный зал ""Планета КВН""";"ul. Suschjovskij val, concert hall ""Planeta KVN""";217;both;55.79352672;37.6169529;740;39;0;1;26;410;1200;18;1;199
17251;4;"1-й пр-д Марьиной рощи, ТРЦ ""Райкин Плаза""";"Pervyj proezd Mar'inoj roschi, shopping mall ""Rajkin Plaza""";217;both;55.79386438;37.61713111;740;41;1;1;35;0;1000;5;1;201
17260;1;ул. Сущёвский вал, ул. Шереметьевская;ul. Suschjovskij val, ul. Sheremet'evskaja;217;both;55.79354314;37.61587427;740;40;0;0;0;410;680;21;1;200
17261;2;ул. Шереметьевская, 3-й пр-д Марьиной рощи;ul. Sheremet'evskaja, Tretij proezd Mar'inoj roschi;217;both;55.79376473;37.61599738;740;42;29;1;29;410;1200;19;1;202
17270;6;"3-й пр-д Марьиной рощи, театр ""Сатирикон""";"Tretij proezd Mar'inoj roschi, theatre ""Satirikon""";217;both;55.79703462;37.61697635;730;46;33;0;0;0;1000;5;1;206
17271;5;"4-й пр-д Марьиной рощи, театр ""Сатирикон"", пандус";"Chetvertyj proezd Mar'inoj roschi, theatre ""Satirikon"", ramp";217;both;55.79723628;37.61681925;740;12;0;0;0;0;1000;5;1;172
17280;3;ул. Люблинская, 1-й мкр. Марьинского парка;ul. Ljublinskaja, Pervyj mikrorajon Mar'inskogo parka;159;both;55.65129307;37.74373295;590;71;7;0;0;420;770;21;0;131
17290;4;ул. Новомарьинская;ul. Novomar'inskaja;159;both;55.65093246;37.74388828;590;69;39;0;0;310;770;20;0;129
17300;5;ул. Люблинская, 3-й мкр. Марьинского парка;ul. Ljublinskaja, Tretij mikrorajon Mar'inskogo parka;159;both;55.64917579;37.74386763;725;70;34;0;0;420;800;19;0;130
17310;6;Новочеркасский б-р;Novocherkasskij boulevard;159;both;55.64880701;37.7440211;725;68;68;0;0;0;0;0;0;128
17320;7;"ТРЦ ""МариЭль"", Макдональдс";"shopping mall ""MariJel'"", McDonalds";159;both;55.64925978;37.74452502;725;67;67;0;0;0;0;0;0;127
17330;8;"ТРЦ ""МариЭль"",  Марьинский б-р";"shopping mall ""MariJel'"",  Mar'inskij boulevard";159;both;55.6489078;37.74466474;725;65;34;0;0;420;800;19;0;125
17340;1;"ул. Люблинская, ТК ""Марьинский пассаж""";"ul. Ljublinskaja, shopping mall ""Mar'inskij passazh""";159;both;55.65123574;37.74307646;590;77;7;0;0;420;770;21;0;137
17350;2;ул. Люблинская, Новочеркасский б-р, 3-й мкр. Марьинского парка;ul. Ljublinskaja, Novocherkasskij boulevard, Tretij mikrorajon Mar'inskogo parka;159;both;55.65084;37.7432281;590;73;43;0;0;310;770;20;0;133
17360;1;ул. 1-я Тверская-Ямская;ul. Pervaja Tverskaja-Jamskaja;34;both;55.7711552;37.59457724;750;37;1;0;0;410;880;20;2;297
17370;2;Триумфальная площадь, концертный зал им. Чайковского;Triumfal'naja square, concert hall im. Chajkovskogo;34;both;55.76932428;37.59647992;780;41;0;0;0;420;900;20;1;201
17371;3;Триумфальная площадь, ул. Садовая-Триумфальная;Triumfal'naja square, ul. Sadovaja-Triumfal'naja;34;in;55.76967245;37.59722054;790;48;0;0;0;330;760;24;1;208
17372;3;Триумфальная площадь, ул. Садовая-Триумфальная;Triumfal'naja square, ul. Sadovaja-Triumfal'naja;34;out;55.76967245;37.59722054;850;48;0;0;0;330;760;24;1;208
17380;2;пр-д Шокальского, Заревый пр-д;proezd Shokal'skogo, Zarevyj proezd;86;both;55.88597031;37.66093478;740;31;1;0;0;320;790;22;0;91
17381;4;пр-д Шокальского, ул. Грекова;proezd Shokal'skogo, ul. Grekova;86;both;55.88597031;37.66160616;740;32;0;0;0;320;790;22;0;92
17390;3;ул. Грекова, ул. Широкая;ul. Grekova, ul. Shirokaja;86;out;55.88814445;37.66184498;750;2;2;0;0;0;0;0;1;162
17391;1;ул. Широкая;ul. Shirokaja;86;in;55.88796409;37.66159663;750;6;0;0;0;0;1000;20;1;166
17400;1;"ул. Тестовская, IQ-Quarter, башня ""Евразия""";"ul. Testovskaja, IQ-Quarter, Tower ""Evrazija""";189;both;55.74808554;37.53303246;780;11;11;0;0;0;0;0;1;171
17410;3;"ул. Новослободская (нечетная сторона), БЦ ""Мейерхольд""";"ul. Novoslobodskaja (odd side), business center ""Mejerhold""";137;both;55.78132529;37.59881782;750;33;3;0;0;390;860;20;1;193
17420;4;ул. Новослободская (четная сторона), ул. Сущевская;ul. Novoslobodskaja (even side), ul. Suschevskaja;137;both;55.78187985;37.59904762;750;43;43;0;0;0;0;0;1;203
17430;2;ул. Новослободская (нечетная сторона), ул. Лесная;ul. Novoslobodskaja (odd side), ul. Lesnaja;137;both;55.78146481;37.59870292;750;35;3;0;0;390;860;20;1;195
17440;1;"ул. Дубравная, ТК ""Ладья""";"ul. Dubravnaja, shopping mall ""Lad'ja""";213;both;55.84622549;37.35942383;800;60;60;1;31;0;0;0;0;120
17441;3;"ул. Митинская, к/т ""Люксор""";"ul. Mitinskaja, cinema ""Ljuksor""";213;both;55.84652089;37.35925812;800;61;31;1;31;400;900;18;0;121
17450;5;"ул. Митинская, Школа-студия ""Арабеск""";"ul. Mitinskaja, Shkola-studija ""Arabesk""";213;both;55.84632096;37.36126122;800;76;31;2;76;0;1000;5;0;136
17460;8;"ул. Митинская, 7-й мкр. Митино, ТД ""Соби""";"ul. Mitinskaja, Sed'moj mikrorajon Mitino, shopping mall ""Sobi""";213;both;55.84486698;37.36335063;800;59;27;0;0;400;900;18;0;119
17461;9;"ул. Митинская, 7-й мкр. Митино, ТД ""Соби""";"ul. Mitinskaja, Sed'moj mikrorajon Mitino, shopping mall ""Sobi""";213;both;55.84466303;37.3638598;800;57;57;0;0;0;0;0;0;117
17470;6;"ул. Дубравная, ТК ""Митино"", Макдональдс";"ul. Dubravnaja, shopping mall ""Mitino"", McDonalds";213;both;55.8470578;37.36038296;800;67;31;1;31;400;900;21;0;127
17480;10;ул. Митинская, 2-й мкр. Митино, 2-й Митинский пер.;ul. Mitinskaja, Vtoroj mikrorajon Mitino, Vtoroj Mitinskij per.;213;both;55.84559347;37.36368944;800;65;27;0;0;400;900;20;0;125
17490;7;"ул. Дубравная, ТЦ ""Ковчег""";"ul. Dubravnaja, shopping mall ""Kovcheg""";213;both;55.84679986;37.36133574;800;69;31;2;62;400;900;21;0;129
17500;2;ул. Дубравная, автостоянка;ul. Dubravnaja, car park;213;both;55.84597447;37.35999533;800;61;61;2;61;0;1000;5;0;121
17501;4;ул. Митинская, автостоянка;ul. Mitinskaja, car park;213;both;55.84594046;37.36063052;800;65;31;2;65;0;1000;5;0;125
17510;4;ул. Ярцевская;ul. Jarcevskaja;65;in;55.74120085;37.41575889;730;47;47;0;0;0;0;0;0;107
17511;2;ул. Ярцевская;ul. Jarcevskaja;65;out;55.74130639;37.4159279;730;0;0;0;0;0;0;0;1;160
17520;3;ул. Ельнинская;ul. El'ninskaja;65;in;55.74023021;37.41797346;730;43;43;0;0;0;0;0;0;103
17521;1;ул. Ельнинская;ul. El'ninskaja;65;out;55.74034308;37.41814574;730;0;0;0;0;0;0;0;1;160
17530;2;"""Крокус Экспо"" (павильон 1, 2)";"""Crocus Expo"" (pavillion 1, 2)";215;both;55.82353475;37.38551654;800;56;0;0;0;400;950;23;0;116
17531;3;"""Крокус Экспо"" (павильон 1, 2), пандус";"""Crocus Expo"" (pavillion 1, 2), ramp";215;both;55.82307344;37.38555214;800;57;0;0;0;400;950;20;0;117
17532;1;"""Крокус Экспо"" (павильон 3), ""Крокус Сити Холл""";"""Crocus Expo"" (pavillion 3), ""Crocus City Hall""";215;both;55.82640838;37.38554695;800;31;0;0;0;380;970;22;0;91
17540;4;автобусная остановка;bus stop;144;both;55.68220689;37.62158576;740;31;31;0;0;0;0;0;1;191
17550;3;пригородные кассы;suburban trains ticket office;144;both;55.68222215;37.62128609;740;30;0;0;0;310;760;18;1;190
17560;1;платформа пригородных поездов;suburban trains platform;144;both;55.68236228;37.62088375;740;48;8;0;0;310;760;17;1;208
17562;2;платформа пригородных поездов;suburban trains platform;144;both;55.68171992;37.6209878;740;50;50;0;0;0;0;0;1;210
17570;5;Варшавское шоссе;Varshavskoe shosse;144;both;55.68411316;37.62273175;740;56;23;0;0;420;740;20;0;116
17572;6;трамвайная остановка;tramway stop;144;both;55.68403824;37.62364881;740;55;24;0;0;420;870;16;0;115
17574;7;ул. Нагатинская;ul. Nagatinskaja;144;both;55.68379961;37.62371402;740;60;23;0;0;420;880;16;0;120
17580;1;ул. Ремизова;ul. Remizova;145;both;55.67288226;37.61033683;740;65;24;0;0;320;760;19;0;125
17590;2;ул. Криворожская;ul. Krivorozhskaja;145;both;55.67280021;37.61090457;740;65;65;0;0;0;0;0;0;125
17592;3;Электролитный пр-д;Jelektrolitnyj proezd;145;both;55.67307313;37.611391;740;64;64;0;0;0;0;0;0;124
17600;2;ул. Азовская;ul. Azovskaya;146;out;55.66347161;37.60622183;740;39;0;0;0;330;770;18;1;199
17601;2;ул. Азовская;ul. Azovskaya;146;in;55.66347161;37.60622183;740;72;33;0;0;330;770;18;0;132
17610;3;Нахимовский проспект;Nahimovskij prospekt;146;out;55.66355763;37.60707508;740;34;0;0;0;330;770;19;1;194
17611;3;Нахимовский проспект;Nahimovskij prospekt;146;in;55.66355763;37.60707508;740;67;33;0;0;330;770;19;0;127
17620;4;ул. Сивашская;ul. Sivashskaya;146;both;55.66159447;37.60405751;740;41;0;0;0;320;760;18;1;201
17630;5;ул. Фруктовая;ul. Fruktovaya;146;both;55.66175402;37.60486081;740;36;0;0;0;310;770;18;1;196
17640;1;Нахимовский проспект, Коробовский сад;Nahimovskij prospekt, Korobovskij sad;146;out;55.66378238;37.60613304;740;32;32;0;0;0;0;0;1;192
17641;1;Нахимовский проспект, Коробовский сад;Nahimovskij prospekt, Korobovskij sad;146;in;55.66378238;37.60613304;740;65;65;0;0;0;0;0;0;125
17650;1;"5-й проспект, парк ""Измайлово""";"Pjatyj prospekt, park ""Izmajlovo""";79;in;55.7522557;37.8144915;720;65;28;0;0;330;770;17;0;125
17651;1;"5-й проспект, парк ""Измайлово""";"Pjatyj prospekt, park ""Izmajlovo""";79;out;55.7522557;37.8144915;720;38;1;0;0;330;770;17;1;198
17652;3;5-й проспект, Федеративный пр-т, Свободный пр-т;Pjatyj prospekt, Federativnyj prospekt, Svobodnyj prospekt;79;in;55.7521484;37.8152651;720;65;28;0;0;430;900;19;0;125
17653;3;5-й проспект, Федеративный пр-т, Свободный пр-т;Pjatyj prospekt, Federativnyj prospekt, Svobodnyj prospekt;79;out;55.7521484;37.8152651;720;38;1;0;0;430;900;19;1;198
17660;4;5-й проспект, Союзный пр-т, Свободный пр-т;Pjatyj prospekt, Sojuznyj prospekt, Svobodnyj prospekt;79;in;55.7517192;37.8150193;720;62;62;0;0;0;0;0;0;122
17661;4;5-й проспект, Союзный пр-т, Свободный пр-т;Pjatyj prospekt, Sojuznyj prospekt, Svobodnyj prospekt;79;out;55.7517192;37.8150193;720;35;35;0;0;0;0;0;1;195
17662;2;5-й проспект, ул. Мартеновская;Pjatyj prospekt, ul. Martenovskaja;79;in;55.7518222;37.8143058;720;62;28;0;0;330;770;17;0;122
17663;2;5-й проспект, ул. Мартеновская;Pjatyj prospekt, ul. Martenovskaja;79;out;55.7518222;37.8143058;720;35;1;0;0;330;770;17;1;195
17670;6;3-й проспект, Свободный пр-т;Tretij prospekt, Svobodnyj prospekt;79;both;55.751274;37.818077;720;56;1;0;0;320;750;22;0;116
17671;8;3-й проспект, ж/д станция Новогиреево;Tretij prospekt, railway station Novogireevo;79;both;55.751189;37.818662;720;57;35;0;0;320;750;22;0;117
17680;5;"ТЦ ""Новогиреево""";"shopping mall ""Novogireevo""";79;both;55.751673;37.818253;720;59;1;0;0;320;750;22;0;119
17681;7;"кинотеатр ""Киргизия""";"cinema ""Kirgizija""";79;both;55.751582;37.818878;720;61;39;0;0;320;750;22;0;121
17690;5;Носовихинское шоссе, ул. Котовского;Nosovihinskoe shosse, ul. Kotovskogo;186;both;55.7461088;37.86587757;800;75;68;2;68;0;1000;5;0;135
17700;4;"ул. Суздальская, ул. Городецкая, магазин ""Пятерочка""";"ul. Suzdal'skaja, ul. Gorodeckaja, shop ""Pjaterochka""";186;both;55.74449167;37.86604249;800;68;68;2;68;0;1000;5;0;128
17710;3;"ул. Суздальская, ул. Городецкая, универсам ""Монетка""";"ul. Suzdal'skaja, ul. Gorodeckaja, shop ""Monetka""";186;both;55.74394347;37.86310754;800;68;68;2;68;0;1000;3;0;128
17720;2;ул. Суздальская, Носовихинское шоссе;ul. Suzdal'skaja, Nosovihinskoe shosse;186;both;55.74427483;37.86292887;800;68;68;1;29;0;0;0;0;128
17730;1;"ул. Южная, ж/д станция ""Реутово""";"ul. Juzhnaja, railway station ""Reutovo""";186;both;55.74554227;37.86235013;800;68;68;2;68;0;1000;3;0;128
17740;1;ул. Пятницкая, Садовнический пр-д;ul. Pjatnickaja, Sadovnicheskij proezd;31;both;55.74227998;37.62907033;720;1;1;0;0;0;0;0;1;161
17750;1;ул. Новослободская, ул. Селезневская;ul. Novoslobodskaja, ul. Seleznevskaja;68;both;55.77949748;37.60108764;860;0;0;0;0;0;0;0;1;160
17760;2;Новоясеневский пр-т, кладбище, усадьба Ясенево;"Novojasenevskij prospekt, cemetery, mansion ""Jasenevo""";109;both;55.60144892;37.55295334;750;67;25;0;0;420;860;17;0;127
17761;3;Битцевский парк;Bitcevskij park;109;both;55.60038716;37.55601352;780;67;0;2;67;0;1000;2;0;127
17762;1;Новоясеневский пр-т, ул. Рокотова;Novojasenevskij prospekt, ul. Rokotova;109;both;55.60194619;37.55276555;750;73;25;0;0;420;880;18;0;133
17770;3;Битцевский парк;Bitcevskij park;232;both;55.60038716;37.55601352;900;64;0;1;64;0;0;0;0;124
17781;5;"ТЦ ""Черемушки""";"shopping mall ""Cheremushki""";103;both;55.66968572;37.55369326;740;52;2;0;0;310;720;21;0;112
17783;6;"ТЦ ""Черемушки""";"shopping mall ""Cheremushki""";103;both;55.66947761;37.55347614;740;52;28;0;0;310;720;21;0;112
17791;7;"Проектируемый пр-д, ТЦ ""Царское село""";"Proektiruemyj proezd, shopping mall ""Carskoe selo""";103;both;55.66948871;37.55423157;740;54;30;0;0;310;720;21;0;114
17793;8;"Проектируемый пр-д, ТЦ ""Царское село""";"Proektiruemyj proezd, shopping mall ""Carskoe selo""";103;both;55.66928892;37.55402832;740;52;2;0;0;310;720;22;0;112
17800;1;"ТЦ ""Панорама""";"shopping mall ""Panorama""";103;both;55.6712715;37.55540391;740;53;2;0;0;320;720;22;0;113
17801;2;"ТЦ ""Панорама""";"shopping mall ""Panorama""";103;both;55.67107935;37.55519442;740;52;28;0;0;310;720;22;0;112
17810;3;"Магазин ""Охотник""";"shop ""Ohotnik""";103;both;55.67109946;37.5559547;740;53;2;0;0;310;720;22;0;113
17811;4;"Магазин ""Охотник""";"shop ""Ohotnik""";103;both;55.67088858;37.55572648;740;53;30;0;0;310;720;22;0;113
17820;4;ул. Крымский Вал;ul. Krymskij Val;75;in;55.72924895;37.61154708;720;0;0;0;0;0;0;0;1;160
17821;3;ул. Крымский Вал;ul. Krymskij Val;75;out;55.72934893;37.61155258;740;0;0;0;0;0;0;0;1;160
17822;5;МИСиС;MISiS;75;both;55.72936003;37.61089149;750;7;0;0;0;0;1000;10;1;167
17830;2;ул. Большая Якиманка;ul. Bol'shaja Jakimanka;98;in;55.73127678;37.61267449;720;0;0;0;0;0;0;0;1;160
17831;1;ул. Большая Якиманка;ul. Bol'shaja Jakimanka;98;out;55.73112296;37.61301215;730;0;0;0;0;0;0;0;1;160
17840;2;ул. Народного Ополчения, ул. Маршала Вершинина;ul. Narodnogo Opolchenija, ul. Marshala Vershinina;124;both;55.7939533;37.49234119;740;60;25;0;0;310;750;17;0;120
17850;1;ул. Маршала Бирюзова, ул. Расплетина;ul. Marshala Birjuzova, ul. Raspletina;124;both;55.79417645;37.49191518;740;57;57;0;0;0;0;0;0;117
17860;4;ул. Народного Ополчения, ул. Маршала Рыбалко;ul. Narodnogo Opolchenija, ul. Marshala Rybalko;124;both;55.79413587;37.4926404;740;58;25;0;0;430;850;19;0;118
17870;3;"ул. Маршала Бирюзова, ТЦ ""Пятая авеню""";"ul. Marshala Birjuzova, shopping mall ""Pjataja avenju""";124;both;55.79435775;37.49220933;740;59;25;0;0;280;710;19;0;119
17880;5;"ТЦ ""Дарья""";"shopping mall ""Dar'ja""";124;both;55.79288576;37.49434441;740;58;34;0;0;310;710;21;0;118
17890;6;ул. Маршала Бирюзова, Тепличный пер.;ul. Marshala Birjuzova, Teplichnyj per.;124;both;55.79265755;37.49478309;740;56;1;0;0;310;710;21;0;116
17900;7;ул. Народного Ополчения, ул. Алабяна;ul. Narodnogo Opolchenija, ul. Alabjana;124;both;55.79309242;37.49469307;740;60;1;0;0;430;710;21;0;120
17910;8;ул. Маршала Бирюзова, Военно-дипломатическая академия;ul. Marshala Birjuzova, Voenno-diplomaticheskaja akademija;124;both;55.79287182;37.49512414;740;57;1;0;0;330;710;21;0;117
17920;3;"Шипиловский пр-д, гостиница ""Орехово""";"Shipilovskij proezd, hotel ""Orehovo""";22;both;55.61216265;37.69602908;720;1;0;0;0;0;0;0;1;161
17930;2;парк Царицыно, ул. Баженова;park Tsaritsyno, ul. Bazhenova;22;both;55.61374554;37.69347305;720;47;25;0;0;330;730;23;0;107
17940;1;Шипиловский пр-д, автостанция;Shipilovskij proezd, bus station;22;both;55.61416871;37.69416556;720;48;0;0;0;430;730;23;0;108
17950;2;ул. Хачатуряна, ул. Декабристов;ul. Hachaturjana, ul. Dekabristov;131;in;55.86256865;37.60452714;740;65;0;0;0;420;760;22;0;125
17951;2;ул. Хачатуряна, ул. Декабристов;ul. Hachaturjana, ul. Dekabristov;131;out;55.86256865;37.60452714;740;65;0;0;0;420;760;22;0;125
17952;1;ул. Хачатуряна, ул. Отрадная;ul. Hachaturjana, ul. Otradnaja;131;in;55.86225788;37.60423163;740;63;39;0;0;300;760;22;0;123
17953;1;ул. Хачатуряна, ул. Отрадная;ul. Hachaturjana, ul. Otradnaja;131;out;55.86225788;37.60423163;740;63;39;0;0;300;760;22;0;123
17960;6;"Северный б-р, ТЦ ""Отрадное""";"Severnyj boulevard, shopping mall ""Otradnoe""";131;in;55.86437488;37.60535559;740;64;40;0;0;300;770;24;0;124
17961;6;"Северный б-р, ТЦ ""Отрадное""";"Severnyj boulevard, shopping mall ""Otradnoe""";131;out;55.86437488;37.60535559;740;64;40;0;0;300;770;24;0;124
17962;5;"ул. Декабристов, ТЦ ""Отрадное"", пандус";"ul. Dekabristov, shopping mall ""Otradnoe"", ramp";131;in;55.8643848;37.60457093;740;24;0;0;0;300;770;24;0;84
17963;5;"ул. Декабристов, ТЦ ""Отрадное"", пандус";"ul. Dekabristov, shopping mall ""Otradnoe"", ramp";131;out;55.8643848;37.60457093;740;24;0;0;0;300;770;24;0;84
17970;7;Северный б-р, ул. Декабристов, 3-й мкр.;Severnyj boulevard, ul. Dekabristov, 3rd mikrorajon;131;in;55.86418912;37.60614761;740;64;40;0;0;300;770;24;0;124
17971;7;Северный б-р, ул. Декабристов, 3-й мкр.;Severnyj boulevard, ul. Dekabristov, 3rd mikrorajon;131;out;55.86418912;37.60614761;740;64;40;0;0;300;770;24;0;124
17972;8;ул. Декабристов, 3-й мкр., пандус;ul. Dekabristov, Tretij mikrorajon, ramp;131;in;55.86394911;37.60611986;740;24;0;0;0;300;770;24;0;84
17973;8;ул. Декабристов, 3-й мкр., пандус;ul. Dekabristov, Tretij mikrorajon, ramp;131;out;55.86394911;37.60611986;740;24;0;0;0;300;770;24;0;84
17980;4;"ул. Хачатуряна, ТЦ ""Золотой Вавилон""";"ul. Hachaturjana, shopping mall ""Zolotoj Vavilon""";131;in;55.86282318;37.60376253;750;61;1;0;0;410;760;22;0;121
17981;4;"ул. Хачатуряна, ТЦ ""Золотой Вавилон""";"ul. Hachaturjana, shopping mall ""Zolotoj Vavilon""";131;out;55.86282318;37.60376253;750;61;1;0;0;410;760;22;0;121
17982;3;ул. Хачатуряна, сквер;ul. Hachaturjana, public garden;131;in;55.86244102;37.60337145;750;59;35;0;0;300;760;22;0;119
17983;3;ул. Хачатуряна, сквер;ul. Hachaturjana, public garden;131;out;55.86244102;37.60337145;750;59;35;0;0;300;760;22;0;119
17990;2;"ул. Тверская, гостиница ""Националь""";"ul. Tverskaja, hotel ""Nacional'""";10;both;55.75704904;37.6144139;730;51;51;0;0;0;0;0;1;211
18000;1;"ул. Моховая, гостиница ""Националь""";"ul. Mohovaja, hotel ""Nacional'""";10;both;55.75689933;37.61457993;730;49;49;0;0;0;0;0;1;209
18010;3;ул. Тверская, Государственная Дума РФ;ul. Tverskaja, Gosudarstvennaja Duma RF;10;both;55.75728728;37.6147872;730;51;25;0;0;415;815;23;1;211
18020;4;ул. Охотный ряд, Государственная Дума РФ;ul. Ohotnyj rjad, Gosudarstvennaja Duma RF;10;both;55.75719442;37.61513142;730;50;50;0;0;0;0;0;1;210
18030;6;"Манежная площадь, ТЦ ""Охотный ряд""";"Manezhnaja square, shopping mall ""Ohotnyj rjad""";10;both;55.7567414;37.61596056;730;58;34;0;0;415;815;25;1;218
18040;7;Манежная площадь, Исторический музей, Красная площадь;Manezhnaja square, Istoricheskij museum, Krasnaja square;10;both;55.75609609;37.61773327;730;59;59;0;0;0;0;0;1;219
18050;5;"Манежная площадь, гостиница ""Москва""";"Manezhnaja square, hotel ""Moskva""";10;both;55.75690806;37.61570003;730;57;33;0;0;415;815;25;1;217
18060;2;ул. Новокузнецкая;ul. Novokuzneckaja;30;in;55.73144635;37.63603234;720;1;1;0;0;0;0;0;1;161
18061;3;ул. Валовая, ул. Бахрушина;ul. Valovaja, ul. Bahrushina;30;out;55.73136581;37.63661116;560;1;1;0;0;0;0;0;1;161
18062;1;ул. Новокузнецкая;ul. Novokuzneckaja;30;out;55.73149836;37.63598704;560;1;1;0;0;0;0;0;1;161
18063;2;ул. Новокузнецкая;ul. Novokuzneckaja;73;in;55.73144635;37.63603234;720;1;1;0;0;0;0;0;1;161
18064;3;ул. Валовая, ул. Бахрушина;ul. Valovaja, ul. Bahrushina;73;out;55.73136581;37.63661116;560;1;1;0;0;0;0;0;1;161
18065;1;ул. Новокузнецкая;ul. Novokuzneckaja;73;out;55.73149836;37.63598704;560;1;1;0;0;0;0;0;1;161
18066;4;ул. Валовая;ul. Valovaja;30;in;55.73128528;37.63620682;720;1;1;0;0;0;0;0;1;161
18067;4;ул. Валовая;ul. Valovaja;73;in;55.73128528;37.63620682;720;1;1;0;0;0;0;0;1;161
18070;6;здание Павелецкого вокзала, аэроэкспресс;Paveleckij railway station building, aeroexpress;30;out;55.72971173;37.63960169;590;0;0;0;0;0;0;0;1;160
18071;5;здание Павелецкого вокзала;Paveleckij railway station building;30;in;55.72959974;37.63980536;720;9;0;0;0;310;560;20;1;169
18072;5;здание Павелецкого вокзала;Paveleckij railway station building;30;out;55.72959974;37.63980536;540;9;0;0;0;310;560;20;1;169
18080;1;Крымская площадь, Зубовский бульвар;Krymskaja square, Zubovskij boulevard;13;in;55.73512703;37.593412;740;63;63;0;0;0;0;0;0;123
18081;1;Крымская площадь, Зубовский бульвар;Krymskaja square, Zubovskij boulevard;76;in;55.73512703;37.593412;740;0;0;0;0;0;0;0;1;160
18082;2;Крымская площадь, Зубовский бульвар;Krymskaja square, Zubovskij boulevard;13;out;55.73535307;37.59328819;740;21;21;0;0;0;0;0;1;181
18083;2;Крымская площадь, Зубовский бульвар;Krymskaja square, Zubovskij boulevard;76;out;55.73535307;37.59328819;740;0;0;0;0;0;0;0;1;160
18090;3;ул. Остоженка, Новокрымский пр-д;ul. Ostozhenka, Novokrymskij proezd;13;in;55.73614602;37.59494974;720;59;59;0;0;0;0;0;0;119
18091;3;ул. Остоженка, Новокрымский пр-д;ul. Ostozhenka, Novokrymskij proezd;13;out;55.73614602;37.59494974;550;60;60;0;0;0;0;0;0;120
18100;1;ул. Барклая;ul. Barklaja;165;out;55.73645566;37.51591977;740;39;0;0;0;310;670;17;2;299
18101;1;ул. Барклая;ul. Barklaja;165;in;55.73645566;37.51591977;740;39;12;0;0;310;670;17;2;299
18102;1;ул. Барклая;ul. Barklaja;233;out;55.73645566;37.51591977;740;39;0;0;0;310;670;17;2;299
18103;1;ул. Барклая;ul. Barklaja;233;in;55.73645566;37.51591977;740;39;12;0;0;310;670;17;2;299
18110;2;Парк Победы;Park Pobedy;165;out;55.73582881;37.51710627;740;51;31;0;0;390;620;19;2;311
18111;2;Парк Победы;Park Pobedy;165;in;55.73582881;37.51710627;740;51;43;0;0;390;620;19;2;311
18112;2;Парк Победы;Park Pobedy;233;out;55.73582881;37.51710627;740;51;31;0;0;390;620;19;2;311
18113;2;Парк Победы;Park Pobedy;233;in;55.73582881;37.51710627;740;51;43;0;0;390;620;19;2;311
