id_entrance;name_ru;name_en;name_pl;id_station;direction;lat;lon;max_width;min_step;min_step_ramp;lift;lift_minus_step;min_rail_width;max_rail_width;max_angle
15620;Северный (закрыт на ремонт);Severnyj (zakryt na remont);Severnyj (zakryt na remont);90;both;55.8222640021;37.6414513561;800;0;0;0;0;0;0;0
16581;Казанский вокзал, поезда;Kazanskij vokzal, poezda;Kazanskij vokzal, poezda;70;in;55.773892794362;37.6557684467885;725;44;23;0;0;360;650;20
16584;Казанский вокзал, поезда;Kazanskij vokzal, poezda;Kazanskij vokzal, poezda;6;in;55.773892794362;37.6557684467885;725;65;44;0;0;360;650;20
16613;Казанский вокзал, поезда;Kazanskij vokzal, poezda;Kazanskij vokzal, poezda;70;out;55.773892794362;37.6557684467885;540;44;17;0;0;360;510;22
16616;Казанский вокзал, поезда;Kazanskij vokzal, poezda;Kazanskij vokzal, poezda;6;out;55.773892794362;37.6557684467885;540;65;38;0;0;360;510;22
17140;Мясницкая улица, ФСБ;Mjasnickaja ulica, FSB;Mjasnickaja ulica, FSB;9;both;55.7600093;37.62846718;720;26;26;0;0;0;0;0
19890;К центру, на троллейбусную остановку из центра;K centru, na trollejbusnuju ostanovku iz centra;K centru, na trollejbusnuju ostanovku iz centra;162;both;55.5961242595;37.6019558078;740;63;27;0;0;280;820;20
20126;К центру, на Балаклавский проспект в западном направлении;K centru, na Balaklavskij prospekt v zapadnom napravlenii;K centru, na Balaklavskij prospekt v zapadnom napravlenii;148;both;55.6416707732;37.6048733035;740;50;32;0;0;410;960;21
