id_station;id_line;id_node;name_en;name_ru;lat;lon
1;1;126;Bulvar Rokossovskogo;Бульвар Рокоссовского;55.8146017;37.7344362
2;1;127;Cherkizovskaya;Черкизовская;55.8039662;37.7447684
3;1;128;Preobrajenskaya ploschad;Преображенская площадь;55.7964038;37.7155476
4;1;129;Sokolniki;Сокольники;55.7889129;37.6801346
5;1;130;Krasnoselskaya;Красносельская;55.7803946;37.6672754
6;1;91;Komsomolskaya;Комсомольская;55.7748736;37.6545092
7;1;131;Krasnye Vorota;Красные ворота;55.768931;37.6484221
8;1;74;Chistye Prudy;Чистые пруды;55.7659277;37.6389332
9;1;132;Lubyanka;Лубянка;55.7598754;37.6279157
10;1;14;Okhotny Ryad;Охотный ряд;55.7577183;37.616177
11;1;13;Biblioteka imeni Lenina;Библиотека им. Ленина;55.7511283;37.6099648
12;1;133;Kropotkinskaya;Кропоткинская;55.745581;37.6038081
13;1;93;Park Kultury;Парк культуры;55.7356254;37.5942043
14;1;134;Frunzenskaya;Фрунзенская;55.7269632;37.5785321
15;1;135;Sportivnaya;Спортивная;55.7233097;37.5638125
16;1;136;Vorobyovy Gory;Воробьёвы горы;55.7103574;37.5591032
17;1;137;Universitet;Университет;55.692752;37.5332997
18;1;138;Prospekt Vernadskogo;Проспект Вернадского;55.6772029;37.5058395
19;1;139;Yugo-Zapadnaya;Юго-Западная;55.6635957;37.4830435
235;1;157;Troparevo;Тропарёво;55.6459378;37.4725732
41;2;38;Rechnoy Vokzal;Речной вокзал;55.8548635;37.4761955
40;2;39;Vodny Stadion;Водный стадион;55.8400444;37.4865846
39;2;40;Voykovskaya;Войковская;55.8190209;37.4978477
38;2;41;Sokol;Сокол;55.8049784;37.5148913
37;2;42;Aeroport;Аэропорт;55.8002374;37.5324136
36;2;43;Dinamo;Динамо;55.7897125;37.5581576
35;2;44;Belorusskaya;Белорусская;55.7766908;37.5837069
34;2;45;Mayakovskaya;Маяковская;55.770131;37.5958204
33;2;46;Tverskaya;Тверская;55.7656773;37.6052125
32;2;14;Teatralnaya;Театральная;55.757742;37.6192513
31;2;47;Novokuznetskaya;Новокузнецкая;55.7414201;37.6294816
30;2;48;Paveletskaya;Павелецкая;55.7304321;37.6374183
29;2;49;Avtozavodskaya;Автозаводская;55.7073699;37.6576183
28;2;50;Kolomenskaya;Коломенская;55.6784809;37.6638965
226;2;51;Kashirskaya;Каширская;55.655094;37.648866
24;2;52;Kantemirovskaya;Кантемировская;55.6358179;37.6565565
23;2;53;Tsaritsino;Царицыно;55.6215598;37.6693833
22;2;54;Orekhovo;Орехово;55.613247;37.6947891
21;2;55;Domodedovskaya;Домодедовская;55.6109687;37.7193262
20;2;56;Krasnogvardeyskaya;Красногвардейская;55.6137894;37.7445335
225;2;57;Alma-Atinskaya;Алма-Атинская;55.6327785;37.7662722
212;3;1;Pyatnitskoye Shosse;Пятницкое шоссе;55.8565339;37.354633
213;3;2;Mitino;Митино;55.8458728;37.3622332
214;3;3;Volokolamskaya;Волоколамская;55.8356938;37.3820432
215;3;4;Myakinino;Мякинино;55.8250915;37.3853347
211;3;5;Strogino;Строгино;55.8037346;37.4031859
66;3;6;Krilatskoye;Крылатское;55.7568353;37.4082585
65;3;7;Molodyojnaya;Молодежная;55.7408429;37.4169177
210;3;8;Kuntsevskaya;Кунцевская;55.7307016;37.4460094
216;3;9;Slavyansky Bulvar;Славянский бульвар;55.7296453;37.4707354
165;3;10;Park Pobedy;Парк Победы;55.7365784;37.5173974
42;3;11;Kievskaya;Киевская;55.7447153;37.5667636
43;3;12;Smolenskaya;Смоленская;55.7475017;37.5822787
44;3;13;Arbatskaya;Арбатская;55.7521318;37.6068123
45;3;14;Ploschad Revolyutsii;Площадь Революции;55.7567227;37.6219537
46;3;15;Kurskaya;Курская;55.7581501;37.658076
48;3;17;Elektrozavodskaya;Электрозаводская;55.7820537;37.7038734
49;3;18;Semyonovskaya;Семеновская;55.7830875;37.7207673
50;3;19;Partizanskaya;Партизанская;55.788524;37.750729
51;3;20;Izmaylovskaya;Измайловская;55.7877328;37.7816023
52;3;21;Pervomayskaya;Первомайская;55.7946664;37.7994658
53;3;22;Schyolkovskaya;Щелковская;55.8093302;37.7986591
64;4;8;Kuntsevskaya;Кунцевская;55.7308185;37.4459574
63;4;23;Pionerskaya;Пионерская;55.7359279;37.4671944
62;4;24;Filyovsky Park;Филевский парк;55.7394565;37.4834225
61;4;25;Bagrationovskaya;Багратионовская;55.7436954;37.4978443
60;4;26;Fili;Фили;55.7461002;37.5148876
59;4;27;Kutuzovskaya;Кутузовская;55.7400295;37.534383
58;4;28;Studencheskaya;Студенческая;55.7388362;37.5483675
57;4;11;Kievskaya;Киевская;55.7437756;37.5663098
56;4;29;Smolenskaya;Смоленская;55.7487996;37.5826441
55;4;30;Arbatskaya;Арбатская;55.7518819;37.6007278
54;4;13;Aleksandrovsky Sad;Александровский сад;55.7524412;37.6086038
189;4;31;Mejdunarodnaya;Международная;55.7482816;37.5343766
188;4;32;Vistavochnaya;Выставочная;55.7501058;37.5414267
70;5;91;Komsomolskaya;Комсомольская;55.7754248;37.656231
71;5;15;Kurskaya;Курская;55.7572695;37.6591277
72;5;64;Taganskaya;Таганская;55.7416183;37.6506474
73;5;48;Paveletskaya;Павелецкая;55.7317782;37.63768
74;5;92;Dobryninskaya;Добрынинская;55.7287137;37.6220906
75;5;76;Oktyabrskaya;Октябрьская;55.7297798;37.6096244
76;5;93;Park Kultury;Парк культуры;55.7359039;37.5915912
77;5;11;Kievskaya;Киевская;55.7443018;37.5654519
78;5;94;Krasnopresnenskaya;Краснопресненская;55.7605891;37.5773899
67;5;44;Belorusskaya;Белорусская;55.7761643;37.5840306
68;5;90;Novoslobodskaya;Новослободская;55.779514;37.6020659
69;5;72;Prospekt Mira;Проспект Мира;55.7798344;37.6330499
86;6;65;Medvedkovo;Медведково;55.8871578;37.6614359
87;6;66;Babushkinskaya;Бабушкинская;55.8696187;37.6642289
88;6;67;Sviblobo;Свиблово;55.8551643;37.6526723
89;6;68;Botanichesky Sad;Ботанический сад;55.8453055;37.6383529
90;6;69;V.D.N.Ha;ВДНХ;55.8211047;37.6411949
91;6;70;Alekseevskaya;Алексеевская;55.8086032;37.6387088
92;6;71;Rijskaya;Рижская;55.7933484;37.6361518
93;6;72;Prospekt Mira;Проспект Мира;55.7810769;37.6324159
94;6;73;Sukharevskaya;Сухаревская;55.7728672;37.6317458
95;6;74;Turgenevskaya;Тургеневская;55.76613;37.6372552
96;6;75;Kitay-Gorod;Китай-город;55.7554876;37.6331162
97;6;47;Tretyakovskaya;Третьяковская;55.7409164;37.6270535
98;6;76;Oktyabrskaya;Октябрьская;55.7304684;37.6116114
99;6;77;Shabolovskaya;Шаболовская;55.7199178;37.6077045
100;6;78;Leninsky Prospekt;Ленинский проспект;55.7077265;37.5861545
101;6;79;Akademicheskaya;Академическая;55.6876896;37.5733083
102;6;80;Profsoyuznaya;Профсоюзная;55.6778178;37.5627254
103;6;81;Novye Cheremushki;Новые Черемушки;55.6701557;37.5544628
104;6;82;Kalujskaya;Калужская;55.6572552;37.5405847
105;6;83;Belyayevo;Беляево;55.6426987;37.5256772
106;6;84;Konkovo;Коньково;55.6330883;37.5190729
107;6;85;Tyoply Stan;Теплый Стан;55.6186964;37.5080944
108;6;86;Yasenevo;Ясенево;55.6062069;37.5337173
109;6;87;Novoyasenevskaya;Новоясеневская;55.6008968;37.5542998
128;7;140;Planernaya;Планерная;55.860731;37.4363874
127;7;141;Skhodnenskaya;Сходненская;55.8503173;37.4397991
126;7;142;Tushinskaya;Тушинская;55.826498;37.4368435
234;7;156;Spartak;Спартак;55.8182016;37.4352716
125;7;143;Schukinskaya;Щукинская;55.8085823;37.4643097
124;7;144;Oktyabrskoye Pole;Октябрьское поле;55.7933364;37.4937378
123;7;145;Polejaevskaya;Полежаевская;55.7775074;37.5194078
122;7;146;Begovaya;Беговая;55.7735045;37.5464401
121;7;147;Ulitsa 1905 Goda;Улица 1905 года;55.7645028;37.5615355
120;7;94;Barrikadnaya;Баррикадная;55.7609017;37.5798606
119;7;46;Pushkinskaya;Пушкинская;55.7652915;37.6060428
118;7;132;Kuznetsky Most;Кузнецкий мост;55.7607712;37.626016
227;7;75;Kitay-Gorod;Китай-город;55.7555058;37.633222
116;7;64;Taganskaya;Таганская;55.7416183;37.6506474
115;7;98;Proletarskaya;Пролетарская;55.7317659;37.6661457
114;7;148;Volgogradsky Prospekt;Волгоградский проспект;55.7253024;37.6867847
113;7;149;Tekstilschiki;Текстильщики;55.7087389;37.7318594
112;7;150;Kuzminki;Кузьминки;55.7055754;37.7657487
111;7;151;Ryazansky Prospekt;Рязанский проспект;55.7170907;37.7935753
110;7;152;Vykhino;Выхино;55.715631;37.8179174
228;7;153;Lermontovsky prospect;Лермонтовский проспект;55.7014427;37.85189
229;7;154;Zhulebino;Жулебино;55.685401;37.8560615
85;8;47;Tretyakovskaya;Третьяковская;55.7408687;37.6270765
186;8;58;Novokosino;Новокосино;55.7450752;37.864059
79;8;59;Novogireevo;Новогиреево;55.7517187;37.8166274
80;8;60;Perovo;Перово;55.751225;37.7864568
81;8;61;Shosse Entuziastov;Шоссе Энтузиастов;55.757225;37.7498443
82;8;62;Aviamotornaya;Авиамоторная;55.7520069;37.7200209
83;8;63;Ploschad Ilyicha;Площадь Ильича;55.7465826;37.6818989
84;8;64;Marksistskaya;Марксистская;55.7413884;37.6526488
233;8;10;Park Pobedy;Парк Победы;55.7365784;37.5173974
230;8;32;Delovoi Centr;Деловой Центр;55.7491767;37.5397421
129;9;108;Altufyevo;Алтуфьево;55.8978497;37.5873192
130;9;109;Bibirevo;Бибирево;55.8836915;37.6024384
131;9;110;Otradnoye;Отрадное;55.8634536;37.6048165
132;9;111;Vladykino;Владыкино;55.8472205;37.5898414
133;9;112;Petrovsko-Razumovskaya;Петровско-Разумовская;55.8347143;37.5740376
134;9;113;Timiryazevskaya;Тимирязевская;55.818187;37.5756564
135;9;114;Dmitrovskaya;Дмитровская;55.8074277;37.5811824
136;9;115;Savelovskaya;Савеловская;55.7930087;37.5881137
137;9;90;Mendeleevskaya;Менделеевская;55.7809037;37.6011659
138;9;97;Tsvetnoy Bulvar;Цветной бульвар;55.77082;37.6177087
139;9;46;Chekhovskaya;Чеховская;55.7649468;37.6091842
140;9;13;Borovitskaya;Боровицкая;55.7509241;37.6069917
141;9;116;Polyanka;Полянка;55.7371835;37.6184681
142;9;92;Serpukhovskaya;Серпуховская;55.7270389;37.6250716
143;9;117;Tulskaya;Тульская;55.7089822;37.6227133
144;9;118;Nagatinskaya;Нагатинская;55.6830582;37.6227483
145;9;119;Nagornaya;Нагорная;55.6719843;37.6099111
146;9;120;Nakhimovsky Prospect;Нахимовский проспект;55.6626636;37.605443
147;9;89;Sevastopolskaya;Севастопольская;55.6520286;37.598314
148;9;121;Chertanovskaya;Чертановская;55.640263;37.6066299
149;9;122;Yujnaya;Южная;55.6223678;37.6090636
150;9;123;Prajskaya;Пражская;55.6125623;37.6044111
162;9;124;Ulitsa Akademika Yangelya;Улица Академика Янгеля;55.59521;37.6009916
163;9;125;Annino;Аннино;55.5825441;37.5963663
164;9;33;Bulvar Dmitiya Donskogo;Бульвар Дмитрия Донского;55.56931;37.5768339
217;10;95;Maryina Roscha;Марьина Роща;55.7950208;37.6161563
218;10;96;Dostoevskaya;Достоевская;55.7812854;37.6148591
166;10;97;Trubnaya;Трубная;55.7691817;37.6192676
219;10;74;Sretensky Bulvar;Сретенский бульвар;55.7668232;37.6398306
151;10;15;Chkalovskaya;Чкаловская;55.7571067;37.656572
152;10;63;Rimskaya;Римская;55.7459222;37.6822066
153;10;98;Krestyanskaya Zastava;Крестьянская застава;55.7330126;37.6667866
161;10;99;Dubrovka;Дубровка;55.7188277;37.6756083
154;10;100;Kojukhovskaya;Кожуховская;55.7075314;37.6845235
155;10;101;Pechatniki;Печатники;55.6933636;37.7268243
156;10;102;Voljskaya;Волжская;55.6907556;37.7532335
157;10;103;Lyublino;Люблино;55.6756254;37.7619338
158;10;104;Bratislavskaya;Братиславская;55.6596899;37.7506502
159;10;105;Maryino;Марьино;55.6500225;37.7431944
220;10;106;Borisovo;Борисово;55.6331194;37.7433366
221;10;107;Shipilovskaya;Шипиловская;55.621144;37.743772
222;10;56;Zyablikovo;Зябликово;55.6123108;37.745177
25;11;51;Kashirskaya;Каширская;55.6552112;37.6486178
27;11;88;Varshavskaya;Варшавская;55.6534029;37.619219
26;11;89;Kakhovskaya;Каховская;55.6529571;37.5981698
232;12;87;Bitsevsky Park;Битцевский парк;55.6000666;37.5564379
231;12;155;Lesoparkovaya;Лесопарковая;55.582095;37.5775017
191;12;33;Ulitsa Starokachalovskaya;Улица Старокачаловская;55.5688378;37.5770753
192;12;34;Ulitsa Skobelevskaya;Улица Скобелевская;55.5481606;37.5545984
193;12;35;Bulvar Admirala Ushakova;Бульвар Адмирала Ушакова;55.5454833;37.5431878
194;12;36;Ulitsa Gorchakova;Улица Горчакова;55.5417384;37.5306687
195;12;37;Buninskaya Alleya;Бунинская аллея;55.5381944;37.5165046
